[
  {
    "id": "930001",
    "country": "PL",
    "zipcode": "05-62",
    "name": "Fabianów",
    "region": "Mazovia",
    "short_region": "78",
    "lat": "51.770600",
    "lon": "20.688800"
  },
  {
    "id": "930002",
    "country": "PL",
    "zipcode": "05-62",
    "name": "Kazimierki",
    "region": "Mazovia",
    "short_region": "78",
    "lat": "51.756400",
    "lon": "20.590800"
  },
  {
    "id": "930003",
    "country": "PL",
    "zipcode": "05-62",
    "name": "Golianki",
    "region": "Mazovia",
    "short_region": "78",
    "lat": "51.796200",
    "lon": "20.725200"
  },
  {
    "id": "930004",
    "country": "PL",
    "zipcode": "05-62",
    "name": "Wilcze Średnie",
    "region": "Mazovia",
    "short_region": "78",
    "lat": "51.838900",
    "lon": "20.610800"
  },
  {
    "id": "930005",
    "country": "PL",
    "zipcode": "05-62",
    "name": "Wilkonice",
    "region": "Mazovia",
    "short_region": "78",
    "lat": "51.826200",
    "lon": "20.667000"
  },
  {
    "id": "930006",
    "country": "PL",
    "zipcode": "05-62",
    "name": "Wólka Dańkowska",
    "region": "Mazovia",
    "short_region": "78",
    "lat": "51.746200",
    "lon": "20.718400"
  },
  {
    "id": "930007",
    "country": "PL",
    "zipcode": "05-62",
    "name": "Śmiechówek",
    "region": "Mazovia",
    "short_region": "78",
    "lat": "51.778700",
    "lon": "20.645700"
  },
  {
    "id": "930008",
    "country": "PL",
    "zipcode": "05-62",
    "name": "Potencjanów",
    "region": "Mazovia",
    "short_region": "78",
    "lat": "51.766800",
    "lon": "20.597700"
  },
  {
    "id": "930009",
    "country": "PL",
    "zipcode": "05-62",
    "name": "Julianów",
    "region": "Mazovia",
    "short_region": "78",
    "lat": "51.773300",
    "lon": "20.671300"
  },
  {
    "id": "930010",
    "country": "PL",
    "zipcode": "05-62",
    "name": "Trzylatków-Parcela",
    "region": "Mazovia",
    "short_region": "78",
    "lat": "51.818600",
    "lon": "20.683200"
  },
  {
    "id": "930011",
    "country": "PL",
    "zipcode": "05-62",
    "name": "Sadurki",
    "region": "Mazovia",
    "short_region": "78",
    "lat": "51.798500",
    "lon": "20.689600"
  },
  {
    "id": "930012",
    "country": "PL",
    "zipcode": "05-62",
    "name": "Błogosław",
    "region": "Mazovia",
    "short_region": "78",
    "lat": "51.771700",
    "lon": "20.601200"
  },
  {
    "id": "930013",
    "country": "PL",
    "zipcode": "05-62",
    "name": "Czesławin",
    "region": "Mazovia",
    "short_region": "78",
    "lat": "51.824700",
    "lon": "20.626200"
  },
  {
    "id": "930014",
    "country": "PL",
    "zipcode": "05-62",
    "name": "Borzęcin",
    "region": "Mazovia",
    "short_region": "78",
    "lat": "51.755700",
    "lon": "20.630900"
  },
  {
    "id": "930015",
    "country": "PL",
    "zipcode": "05-62",
    "name": "Wólka Kurdybanowska",
    "region": "Mazovia",
    "short_region": "78",
    "lat": "51.778400",
    "lon": "20.655800"
  },
  {
    "id": "930016",
    "country": "PL",
    "zipcode": "05-62",
    "name": "Ignaców",
    "region": "Mazovia",
    "short_region": "78",
    "lat": "51.760600",
    "lon": "20.644500"
  },
  {
    "id": "930017",
    "country": "PL",
    "zipcode": "05-62",
    "name": "Tomczyce",
    "region": "Mazovia",
    "short_region": "78",
    "lat": "51.790500",
    "lon": "20.663200"
  },
  {
    "id": "930018",
    "country": "PL",
    "zipcode": "05-62",
    "name": "Ziemięcin",
    "region": "Mazovia",
    "short_region": "78",
    "lat": "51.824100",
    "lon": "20.674000"
  },
  {
    "id": "930019",
    "country": "PL",
    "zipcode": "05-62",
    "name": "Bielany",
    "region": "Mazovia",
    "short_region": "78",
    "lat": "51.764600",
    "lon": "20.715700"
  },
  {
    "id": "930020",
    "country": "PL",
    "zipcode": "05-62",
    "name": "Gołosze",
    "region": "Mazovia",
    "short_region": "78",
    "lat": "51.762100",
    "lon": "20.613300"
  },
  {
    "id": "930021",
    "country": "PL",
    "zipcode": "05-62",
    "name": "Wilków Drugi",
    "region": "Mazovia",
    "short_region": "78",
    "lat": "51.796300",
    "lon": "20.616900"
  },
  {
    "id": "930022",
    "country": "PL",
    "zipcode": "05-62",
    "name": "Dąbrówka Nowa",
    "region": "Mazovia",
    "short_region": "78",
    "lat": "51.786500",
    "lon": "20.718600"
  },
  {
    "id": "930023",
    "country": "PL",
    "zipcode": "05-62",
    "name": "Trzylatków Duży",
    "region": "Mazovia",
    "short_region": "78",
    "lat": "51.809600",
    "lon": "20.701400"
  },
  {
    "id": "930024",
    "country": "PL",
    "zipcode": "05-62",
    "name": "Załuski",
    "region": "Mazovia",
    "short_region": "78",
    "lat": "51.787100",
    "lon": "20.652700"
  },
  {
    "id": "930025",
    "country": "PL",
    "zipcode": "05-62",
    "name": "Dąbrówka Stara",
    "region": "Mazovia",
    "short_region": "78",
    "lat": "51.774800",
    "lon": "20.718800"
  },
  {
    "id": "930026",
    "country": "PL",
    "zipcode": "05-62",
    "name": "Głudna",
    "region": "Mazovia",
    "short_region": "78",
    "lat": "51.815500",
    "lon": "20.730100"
  },
  {
    "id": "930027",
    "country": "PL",
    "zipcode": "05-62",
    "name": "Wilhelmów",
    "region": "Mazovia",
    "short_region": "78",
    "lat": "51.754000",
    "lon": "20.669000"
  },
  {
    "id": "930028",
    "country": "PL",
    "zipcode": "05-62",
    "name": "Oleśnik",
    "region": "Mazovia",
    "short_region": "78",
    "lat": "51.756800",
    "lon": "20.705500"
  },
  {
    "id": "930029",
    "country": "PL",
    "zipcode": "05-62",
    "name": "Katarzynów",
    "region": "Mazovia",
    "short_region": "78",
    "lat": "51.749600",
    "lon": "20.613700"
  },
  {
    "id": "930030",
    "country": "PL",
    "zipcode": "05-62",
    "name": "Goliany",
    "region": "Mazovia",
    "short_region": "78",
    "lat": "51.797200",
    "lon": "20.749400"
  },
  {
    "id": "930031",
    "country": "PL",
    "zipcode": "05-62",
    "name": "Lipie",
    "region": "Mazovia",
    "short_region": "78",
    "lat": "51.828800",
    "lon": "20.708400"
  },
  {
    "id": "930032",
    "country": "PL",
    "zipcode": "05-62",
    "name": "Wólka Gołoska",
    "region": "Mazovia",
    "short_region": "78",
    "lat": "51.773700",
    "lon": "20.621300"
  },
  {
    "id": "930033",
    "country": "PL",
    "zipcode": "05-62",
    "name": "Machnatka",
    "region": "Mazovia",
    "short_region": "78",
    "lat": "51.841200",
    "lon": "20.685100"
  },
  {
    "id": "930034",
    "country": "PL",
    "zipcode": "05-62",
    "name": "Jadwigów",
    "region": "Mazovia",
    "short_region": "78",
    "lat": "51.809200",
    "lon": "20.668400"
  },
  {
    "id": "930035",
    "country": "PL",
    "zipcode": "05-62",
    "name": "Błędów",
    "region": "Mazovia",
    "short_region": "78",
    "lat": "51.779500",
    "lon": "20.695000"
  },
  {
    "id": "930036",
    "country": "PL",
    "zipcode": "05-62",
    "name": "Łęczeszyce",
    "region": "Mazovia",
    "short_region": "78",
    "lat": "51.780800",
    "lon": "20.771600"
  },
  {
    "id": "930037",
    "country": "PL",
    "zipcode": "05-62",
    "name": "Wilczy Targ",
    "region": "Mazovia",
    "short_region": "78",
    "lat": "51.791000",
    "lon": "20.905000"
  },
  {
    "id": "930038",
    "country": "PL",
    "zipcode": "05-62",
    "name": "Bodzew",
    "region": "Mazovia",
    "short_region": "78",
    "lat": "51.796800",
    "lon": "20.815100"
  },
  {
    "id": "930039",
    "country": "PL",
    "zipcode": "05-62",
    "name": "Zaborów",
    "region": "Mazovia",
    "short_region": "78",
    "lat": "51.784900",
    "lon": "20.897200"
  },
  {
    "id": "930040",
    "country": "PL",
    "zipcode": "05-62",
    "name": "Odrzywołek",
    "region": "Mazovia",
    "short_region": "78",
    "lat": "51.852300",
    "lon": "20.836300"
  },
  {
    "id": "930041",
    "country": "PL",
    "zipcode": "05-62",
    "name": "Rębowola",
    "region": "Mazovia",
    "short_region": "78",
    "lat": "51.812700",
    "lon": "20.750700"
  },
  {
    "id": "930042",
    "country": "PL",
    "zipcode": "05-62",
    "name": "Sadków-Kolonia",
    "region": "Mazovia",
    "short_region": "78",
    "lat": "51.857200",
    "lon": "20.738700"
  },
  {
    "id": "930043",
    "country": "PL",
    "zipcode": "05-62",
    "name": "Kussy",
    "region": "Mazovia",
    "short_region": "78",
    "lat": "51.799600",
    "lon": "20.905200"
  },
  {
    "id": "930044",
    "country": "PL",
    "zipcode": "05-62",
    "name": "Oczesały",
    "region": "Mazovia",
    "short_region": "78",
    "lat": "51.818900",
    "lon": "20.866500"
  },
  {
    "id": "930045",
    "country": "PL",
    "zipcode": "05-62",
    "name": "Wilczogóra",
    "region": "Mazovia",
    "short_region": "78",
    "lat": "51.850000",
    "lon": "20.799900"
  },
  {
    "id": "930046",
    "country": "PL",
    "zipcode": "05-62",
    "name": "Belsk Duży",
    "region": "Mazovia",
    "short_region": "78",
    "lat": "51.822600",
    "lon": "20.811600"
  },
  {
    "id": "930047",
    "country": "PL",
    "zipcode": "05-62",
    "name": "Zaborówek",
    "region": "Mazovia",
    "short_region": "78",
    "lat": "51.793500",
    "lon": "20.881700"
  },
  {
    "id": "930048",
    "country": "PL",
    "zipcode": "05-62",
    "name": "Skowronki",
    "region": "Mazovia",
    "short_region": "78",
    "lat": "51.801700",
    "lon": "20.775500"
  },
  {
    "id": "930049",
    "country": "PL",
    "zipcode": "05-62",
    "name": "Jarochy",
    "region": "Mazovia",
    "short_region": "78",
    "lat": "51.830900",
    "lon": "20.842700"
  },
  {
    "id": "930050",
    "country": "PL",
    "zipcode": "05-62",
    "name": "Grotów",
    "region": "Mazovia",
    "short_region": "78",
    "lat": "51.810300",
    "lon": "20.838800"
  },
  {
    "id": "930051",
    "country": "PL",
    "zipcode": "05-62",
    "name": "Maciejówka",
    "region": "Mazovia",
    "short_region": "78",
    "lat": "51.778200",
    "lon": "20.887900"
  },
  {
    "id": "930052",
    "country": "PL",
    "zipcode": "05-62",
    "name": "Rożce",
    "region": "Mazovia",
    "short_region": "78",
    "lat": "51.840300",
    "lon": "20.750800"
  },
  {
    "id": "930053",
    "country": "PL",
    "zipcode": "05-62",
    "name": "Sadków Szlachecki",
    "region": "Mazovia",
    "short_region": "78",
    "lat": "51.861900",
    "lon": "20.743300"
  },
  {
    "id": "930054",
    "country": "PL",
    "zipcode": "05-62",
    "name": "Rosochów",
    "region": "Mazovia",
    "short_region": "78",
    "lat": "51.850800",
    "lon": "20.775500"
  },
  {
    "id": "930055",
    "country": "PL",
    "zipcode": "05-62",
    "name": "Tartaczek",
    "region": "Mazovia",
    "short_region": "78",
    "lat": "51.789200",
    "lon": "20.829300"
  },
  {
    "id": "930056",
    "country": "PL",
    "zipcode": "05-62",
    "name": "Sadków Duchowny",
    "region": "Mazovia",
    "short_region": "78",
    "lat": "51.859500",
    "lon": "20.779400"
  },
  {
    "id": "930057",
    "country": "PL",
    "zipcode": "05-62",
    "name": "Koziel",
    "region": "Mazovia",
    "short_region": "78",
    "lat": "51.775100",
    "lon": "20.745000"
  },
  {
    "id": "930058",
    "country": "PL",
    "zipcode": "05-62",
    "name": "Aleksandrówka",
    "region": "Mazovia",
    "short_region": "78",
    "lat": "51.848800",
    "lon": "20.750000"
  },
  {
    "id": "930059",
    "country": "PL",
    "zipcode": "05-62",
    "name": "Daszewice",
    "region": "Mazovia",
    "short_region": "78",
    "lat": "51.829400",
    "lon": "20.747700"
  },
  {
    "id": "930060",
    "country": "PL",
    "zipcode": "05-62",
    "name": "Anielin",
    "region": "Mazovia",
    "short_region": "78",
    "lat": "51.827500",
    "lon": "20.833700"
  },
  {
    "id": "930061",
    "country": "PL",
    "zipcode": "05-62",
    "name": "Widów",
    "region": "Mazovia",
    "short_region": "78",
    "lat": "51.811100",
    "lon": "20.886600"
  },
  {
    "id": "930062",
    "country": "PL",
    "zipcode": "05-62",
    "name": "Stara Wieś",
    "region": "Mazovia",
    "short_region": "78",
    "lat": "51.813200",
    "lon": "20.798000"
  },
  {
    "id": "930063",
    "country": "PL",
    "zipcode": "05-62",
    "name": "Wólka Łęczeszycka",
    "region": "Mazovia",
    "short_region": "78",
    "lat": "51.765000",
    "lon": "20.778200"
  },
  {
    "id": "930064",
    "country": "PL",
    "zipcode": "05-62",
    "name": "Belsk Mały",
    "region": "Mazovia",
    "short_region": "78",
    "lat": "51.838200",
    "lon": "20.818100"
  },
  {
    "id": "930065",
    "country": "PL",
    "zipcode": "05-62",
    "name": "Mała Wieś",
    "region": "Mazovia",
    "short_region": "78",
    "lat": "51.824700",
    "lon": "20.778100"
  },
  {
    "id": "930066",
    "country": "PL",
    "zipcode": "05-62",
    "name": "Lewiczyn",
    "region": "Mazovia",
    "short_region": "78",
    "lat": "51.795500",
    "lon": "20.858900"
  },
  {
    "id": "930067",
    "country": "PL",
    "zipcode": "05-62",
    "name": "Złota Góra",
    "region": "Mazovia",
    "short_region": "78",
    "lat": "51.852900",
    "lon": "20.800300"
  },
  {
    "id": "930068",
    "country": "PL",
    "zipcode": "05-62",
    "name": "Bartodzieje",
    "region": "Mazovia",
    "short_region": "78",
    "lat": "51.772400",
    "lon": "20.912100"
  },
  {
    "id": "930069",
    "country": "PL",
    "zipcode": "05-62",
    "name": "Boruty",
    "region": "Mazovia",
    "short_region": "78",
    "lat": "51.801300",
    "lon": "20.835100"
  },
  {
    "id": "930070",
    "country": "PL",
    "zipcode": "05-62",
    "name": "Wola Łęczeszycka",
    "region": "Mazovia",
    "short_region": "78",
    "lat": "51.763700",
    "lon": "20.757900"
  },
  {
    "id": "930071",
    "country": "PL",
    "zipcode": "05-62",
    "name": "Wola Starowiejska",
    "region": "Mazovia",
    "short_region": "78",
    "lat": "51.804300",
    "lon": "20.808600"
  },
  {
    "id": "930072",
    "country": "PL",
    "zipcode": "05-64",
    "name": "Kozietuły Nowe",
    "region": "Mazovia",
    "short_region": "78",
    "lat": "51.736600",
    "lon": "20.766100"
  },
  {
    "id": "930073",
    "country": "PL",
    "zipcode": "05-64",
    "name": "Ślepowola",
    "region": "Mazovia",
    "short_region": "78",
    "lat": "51.649500",
    "lon": "20.686200"
  },
  {
    "id": "930074",
    "country": "PL",
    "zipcode": "05-64",
    "name": "Wodziczna",
    "region": "Mazovia",
    "short_region": "78",
    "lat": "51.722900",
    "lon": "20.742700"
  },
  {
    "id": "930075",
    "country": "PL",
    "zipcode": "05-64",
    "name": "Tomczyce",
    "region": "Mazovia",
    "short_region": "78",
    "lat": "51.632300",
    "lon": "20.693100"
  },
  {
    "id": "930076",
    "country": "PL",
    "zipcode": "05-64",
    "name": "Świdno",
    "region": "Mazovia",
    "short_region": "78",
    "lat": "51.643800",
    "lon": "20.742500"
  },
  {
    "id": "930077",
    "country": "PL",
    "zipcode": "05-64",
    "name": "Dziarnów",
    "region": "Mazovia",
    "short_region": "78",
    "lat": "51.656500",
    "lon": "20.758800"
  },
  {
    "id": "930078",
    "country": "PL",
    "zipcode": "05-64",
    "name": "Brzostowiec",
    "region": "Mazovia",
    "short_region": "78",
    "lat": "51.656000",
    "lon": "20.652700"
  },
  {
    "id": "930079",
    "country": "PL",
    "zipcode": "05-64",
    "name": "Stryków",
    "region": "Mazovia",
    "short_region": "78",
    "lat": "51.658100",
    "lon": "20.711900"
  },
  {
    "id": "930080",
    "country": "PL",
    "zipcode": "05-64",
    "name": "Popowice",
    "region": "Mazovia",
    "short_region": "78",
    "lat": "51.726500",
    "lon": "20.680600"
  },
  {
    "id": "930081",
    "country": "PL",
    "zipcode": "05-64",
    "name": "Górki-Izabelin",
    "region": "Mazovia",
    "short_region": "78",
    "lat": "51.707000",
    "lon": "20.737600"
  },
  {
    "id": "930082",
    "country": "PL",
    "zipcode": "05-64",
    "name": "Dylew",
    "region": "Mazovia",
    "short_region": "78",
    "lat": "51.716100",
    "lon": "20.779200"
  },
  {
    "id": "930083",
    "country": "PL",
    "zipcode": "05-64",
    "name": "Kozietuły",
    "region": "Mazovia",
    "short_region": "78",
    "lat": "51.747000",
    "lon": "20.774300"
  },
  {
    "id": "930084",
    "country": "PL",
    "zipcode": "05-64",
    "name": "Wólka Gostomska",
    "region": "Mazovia",
    "short_region": "78",
    "lat": "51.646300",
    "lon": "20.640900"
  },
  {
    "id": "930085",
    "country": "PL",
    "zipcode": "05-64",
    "name": "Ługowice",
    "region": "Mazovia",
    "short_region": "78",
    "lat": "51.634200",
    "lon": "20.663500"
  },
  {
    "id": "930086",
    "country": "PL",
    "zipcode": "05-64",
    "name": "Miechowice",
    "region": "Mazovia",
    "short_region": "78",
    "lat": "51.706900",
    "lon": "20.695700"
  },
  {
    "id": "930087",
    "country": "PL",
    "zipcode": "05-64",
    "name": "Otaląż",
    "region": "Mazovia",
    "short_region": "78",
    "lat": "51.672700",
    "lon": "20.703200"
  },
  {
    "id": "930088",
    "country": "PL",
    "zipcode": "05-64",
    "name": "Jastrzębia Stara",
    "region": "Mazovia",
    "short_region": "78",
    "lat": "51.678500",
    "lon": "20.760400"
  },
  {
    "id": "930089",
    "country": "PL",
    "zipcode": "05-64",
    "name": "Dąbrowa",
    "region": "Mazovia",
    "short_region": "78",
    "lat": "51.694300",
    "lon": "20.661600"
  },
  {
    "id": "930090",
    "country": "PL",
    "zipcode": "05-64",
    "name": "Dziunin",
    "region": "Mazovia",
    "short_region": "78",
    "lat": "51.719400",
    "lon": "20.713200"
  },
  {
    "id": "930091",
    "country": "PL",
    "zipcode": "05-64",
    "name": "Odcinki Dylewskie",
    "region": "Mazovia",
    "short_region": "78",
    "lat": "51.707500",
    "lon": "20.766200"
  },
  {
    "id": "930092",
    "country": "PL",
    "zipcode": "05-64",
    "name": "Główczyn",
    "region": "Mazovia",
    "short_region": "78",
    "lat": "51.717300",
    "lon": "20.696100"
  },
  {
    "id": "930093",
    "country": "PL",
    "zipcode": "05-64",
    "name": "Gracjanów",
    "region": "Mazovia",
    "short_region": "78",
    "lat": "51.698800",
    "lon": "20.777000"
  },
  {
    "id": "930094",
    "country": "PL",
    "zipcode": "05-64",
    "name": "Marysin",
    "region": "Mazovia",
    "short_region": "78",
    "lat": "51.725500",
    "lon": "20.709900"
  },
  {
    "id": "930095",
    "country": "PL",
    "zipcode": "05-64",
    "name": "Cegielnia",
    "region": "Mazovia",
    "short_region": "78",
    "lat": "51.681400",
    "lon": "20.689300"
  },
  {
    "id": "930096",
    "country": "PL",
    "zipcode": "05-64",
    "name": "Dalboszek",
    "region": "Mazovia",
    "short_region": "78",
    "lat": "51.738900",
    "lon": "20.733300"
  },
  {
    "id": "930097",
    "country": "PL",
    "zipcode": "05-64",
    "name": "Główczyn-Towarzystwo",
    "region": "Mazovia",
    "short_region": "78",
    "lat": "51.728500",
    "lon": "20.696600"
  },
  {
    "id": "930098",
    "country": "PL",
    "zipcode": "05-64",
    "name": "Pączew",
    "region": "Mazovia",
    "short_region": "78",
    "lat": "51.658500",
    "lon": "20.630300"
  },
  {
    "id": "930099",
    "country": "PL",
    "zipcode": "05-64",
    "name": "Ulaski Gostomskie",
    "region": "Mazovia",
    "short_region": "78",
    "lat": "51.619500",
    "lon": "20.677400"
  },
  {
    "id": "930100",
    "country": "PL",
    "zipcode": "05-64",
    "name": "Dobiecin",
    "region": "Mazovia",
    "short_region": "78",
    "lat": "51.730300",
    "lon": "20.658000"
  },
  {
    "id": "930101",
    "country": "PL",
    "zipcode": "05-64",
    "name": "Wężowiec",
    "region": "Mazovia",
    "short_region": "78",
    "lat": "51.676500",
    "lon": "20.669400"
  },
  {
    "id": "930102",
    "country": "PL",
    "zipcode": "05-64",
    "name": "Pawłowice",
    "region": "Mazovia",
    "short_region": "78",
    "lat": "51.705900",
    "lon": "20.666800"
  },
  {
    "id": "930103",
    "country": "PL",
    "zipcode": "05-64",
    "name": "Mogielnica",
    "region": "Mazovia",
    "short_region": "78",
    "lat": "51.693500",
    "lon": "20.722300"
  },
  {
    "id": "930104",
    "country": "PL",
    "zipcode": "05-64",
    "name": "Otalążka",
    "region": "Mazovia",
    "short_region": "78",
    "lat": "51.671100",
    "lon": "20.736400"
  },
  {
    "id": "930105",
    "country": "PL",
    "zipcode": "05-64",
    "name": "Jastrzębia",
    "region": "Mazovia",
    "short_region": "78",
    "lat": "51.700500",
    "lon": "20.759300"
  },
  {
    "id": "930106",
    "country": "PL",
    "zipcode": "05-64",
    "name": "Michałowice",
    "region": "Mazovia",
    "short_region": "78",
    "lat": "51.637200",
    "lon": "20.728900"
  },
  {
    "id": "930107",
    "country": "PL",
    "zipcode": "05-64",
    "name": "Stamirowice",
    "region": "Mazovia",
    "short_region": "78",
    "lat": "51.633900",
    "lon": "20.718000"
  },
  {
    "id": "930108",
    "country": "PL",
    "zipcode": "05-64",
    "name": "Borowe",
    "region": "Mazovia",
    "short_region": "78",
    "lat": "51.653900",
    "lon": "20.784700"
  },
  {
    "id": "930109",
    "country": "PL",
    "zipcode": "05-64",
    "name": "Kaplin",
    "region": "Mazovia",
    "short_region": "78",
    "lat": "51.693300",
    "lon": "20.747200"
  },
  {
    "id": "930110",
    "country": "PL",
    "zipcode": "05-64",
    "name": "Dębnowola",
    "region": "Mazovia",
    "short_region": "78",
    "lat": "51.652000",
    "lon": "20.803000"
  },
  {
    "id": "930111",
    "country": "PL",
    "zipcode": "05-65",
    "name": "Grabina",
    "region": "Mazovia",
    "short_region": "78",
    "lat": "51.922500",
    "lon": "21.140900"
  },
  {
    "id": "930112",
    "country": "PL",
    "zipcode": "05-65",
    "name": "Krężel",
    "region": "Mazovia",
    "short_region": "78",
    "lat": "51.870300",
    "lon": "21.101900"
  },
  {
    "id": "930113",
    "country": "PL",
    "zipcode": "05-65",
    "name": "Wygodne",
    "region": "Mazovia",
    "short_region": "78",
    "lat": "51.873900",
    "lon": "21.087800"
  },
  {
    "id": "930114",
    "country": "PL",
    "zipcode": "05-65",
    "name": "Staniszewice",
    "region": "Mazovia",
    "short_region": "78",
    "lat": "51.925100",
    "lon": "21.150400"
  },
  {
    "id": "930115",
    "country": "PL",
    "zipcode": "05-65",
    "name": "Wola Pieczyska",
    "region": "Mazovia",
    "short_region": "78",
    "lat": "51.920400",
    "lon": "21.054600"
  },
  {
    "id": "930116",
    "country": "PL",
    "zipcode": "05-65",
    "name": "Adamów Drwalewski",
    "region": "Mazovia",
    "short_region": "78",
    "lat": "51.924100",
    "lon": "21.044100"
  },
  {
    "id": "930117",
    "country": "PL",
    "zipcode": "05-65",
    "name": "Dobiecin",
    "region": "Mazovia",
    "short_region": "78",
    "lat": "51.909400",
    "lon": "21.163400"
  },
  {
    "id": "930118",
    "country": "PL",
    "zipcode": "05-65",
    "name": "Węszelówka",
    "region": "Mazovia",
    "short_region": "78",
    "lat": "51.890300",
    "lon": "21.115100"
  },
  {
    "id": "930119",
    "country": "PL",
    "zipcode": "05-65",
    "name": "Machcin",
    "region": "Mazovia",
    "short_region": "78",
    "lat": "51.912500",
    "lon": "21.144300"
  },
  {
    "id": "930120",
    "country": "PL",
    "zipcode": "05-65",
    "name": "Franciszków",
    "region": "Mazovia",
    "short_region": "78",
    "lat": "51.861800",
    "lon": "21.036800"
  },
  {
    "id": "930121",
    "country": "PL",
    "zipcode": "05-65",
    "name": "Zawady",
    "region": "Mazovia",
    "short_region": "78",
    "lat": "51.853300",
    "lon": "21.087700"
  },
  {
    "id": "930122",
    "country": "PL",
    "zipcode": "05-65",
    "name": "Zadębie",
    "region": "Mazovia",
    "short_region": "78",
    "lat": "51.884400",
    "lon": "21.151200"
  },
  {
    "id": "930123",
    "country": "PL",
    "zipcode": "05-65",
    "name": "Adamów Rososki",
    "region": "Mazovia",
    "short_region": "78",
    "lat": "51.915600",
    "lon": "21.140700"
  },
  {
    "id": "930124",
    "country": "PL",
    "zipcode": "05-65",
    "name": "Rososz",
    "region": "Mazovia",
    "short_region": "78",
    "lat": "51.907500",
    "lon": "21.172700"
  },
  {
    "id": "930125",
    "country": "PL",
    "zipcode": "05-65",
    "name": "Milanów",
    "region": "Mazovia",
    "short_region": "78",
    "lat": "51.888900",
    "lon": "21.053500"
  },
  {
    "id": "930126",
    "country": "PL",
    "zipcode": "05-65",
    "name": "Martynów",
    "region": "Mazovia",
    "short_region": "78",
    "lat": "51.845600",
    "lon": "21.141200"
  },
  {
    "id": "930127",
    "country": "PL",
    "zipcode": "05-65",
    "name": "Mąkosin",
    "region": "Mazovia",
    "short_region": "78",
    "lat": "51.854000",
    "lon": "21.071800"
  },
  {
    "id": "930128",
    "country": "PL",
    "zipcode": "05-65",
    "name": "Hipolitów",
    "region": "Mazovia",
    "short_region": "78",
    "lat": "51.923100",
    "lon": "21.076400"
  },
  {
    "id": "930129",
    "country": "PL",
    "zipcode": "05-65",
    "name": "Dąbrowa Duża",
    "region": "Mazovia",
    "short_region": "78",
    "lat": "51.900600",
    "lon": "21.135500"
  },
  {
    "id": "930130",
    "country": "PL",
    "zipcode": "05-65",
    "name": "Zbyszków",
    "region": "Mazovia",
    "short_region": "78",
    "lat": "51.898200",
    "lon": "21.170800"
  },
  {
    "id": "930131",
    "country": "PL",
    "zipcode": "05-65",
    "name": "Barcice Rososkie",
    "region": "Mazovia",
    "short_region": "78",
    "lat": "51.888200",
    "lon": "21.142900"
  },
  {
    "id": "930132",
    "country": "PL",
    "zipcode": "05-65",
    "name": "Widok",
    "region": "Mazovia",
    "short_region": "78",
    "lat": "51.895600",
    "lon": "21.113100"
  },
  {
    "id": "930133",
    "country": "PL",
    "zipcode": "05-65",
    "name": "Nowy Żelechów",
    "region": "Mazovia",
    "short_region": "78",
    "lat": "51.881200",
    "lon": "21.168400"
  },
  {
    "id": "930134",
    "country": "PL",
    "zipcode": "05-65",
    "name": "Ludwików",
    "region": "Mazovia",
    "short_region": "78",
    "lat": "51.924700",
    "lon": "21.180400"
  },
  {
    "id": "930135",
    "country": "PL",
    "zipcode": "05-65",
    "name": "Gliczyn",
    "region": "Mazovia",
    "short_region": "78",
    "lat": "51.869300",
    "lon": "21.063600"
  },
  {
    "id": "930136",
    "country": "PL",
    "zipcode": "05-65",
    "name": "Henryków",
    "region": "Mazovia",
    "short_region": "78",
    "lat": "51.868600",
    "lon": "21.140300"
  },
  {
    "id": "930137",
    "country": "PL",
    "zipcode": "05-65",
    "name": "Janina",
    "region": "Mazovia",
    "short_region": "78",
    "lat": "51.866900",
    "lon": "21.166200"
  },
  {
    "id": "930138",
    "country": "PL",
    "zipcode": "05-65",
    "name": "Kozłów",
    "region": "Mazovia",
    "short_region": "78",
    "lat": "51.929300",
    "lon": "21.133400"
  },
  {
    "id": "930139",
    "country": "PL",
    "zipcode": "05-65",
    "name": "Lasopole",
    "region": "Mazovia",
    "short_region": "78",
    "lat": "51.904700",
    "lon": "21.056900"
  },
  {
    "id": "930140",
    "country": "PL",
    "zipcode": "05-65",
    "name": "Gaj Żelechowski",
    "region": "Mazovia",
    "short_region": "78",
    "lat": "51.896000",
    "lon": "21.126800"
  },
  {
    "id": "930141",
    "country": "PL",
    "zipcode": "05-65",
    "name": "Budziszyn",
    "region": "Mazovia",
    "short_region": "78",
    "lat": "51.875700",
    "lon": "21.055300"
  },
  {
    "id": "930142",
    "country": "PL",
    "zipcode": "05-65",
    "name": "Chynów",
    "region": "Mazovia",
    "short_region": "78",
    "lat": "51.901000",
    "lon": "21.085800"
  },
  {
    "id": "930143",
    "country": "PL",
    "zipcode": "05-65",
    "name": "Grobice",
    "region": "Mazovia",
    "short_region": "78",
    "lat": "51.920300",
    "lon": "21.114800"
  },
  {
    "id": "930144",
    "country": "PL",
    "zipcode": "05-65",
    "name": "Jurandów",
    "region": "Mazovia",
    "short_region": "78",
    "lat": "51.912100",
    "lon": "21.184200"
  },
  {
    "id": "930145",
    "country": "PL",
    "zipcode": "05-65",
    "name": "Edwardów",
    "region": "Mazovia",
    "short_region": "78",
    "lat": "51.889600",
    "lon": "21.072200"
  },
  {
    "id": "930146",
    "country": "PL",
    "zipcode": "05-65",
    "name": "Zalesie",
    "region": "Mazovia",
    "short_region": "78",
    "lat": "51.885200",
    "lon": "21.155700"
  },
  {
    "id": "930147",
    "country": "PL",
    "zipcode": "05-65",
    "name": "Watraszew",
    "region": "Mazovia",
    "short_region": "78",
    "lat": "51.849500",
    "lon": "21.129800"
  },
  {
    "id": "930148",
    "country": "PL",
    "zipcode": "05-65",
    "name": "Rososzka",
    "region": "Mazovia",
    "short_region": "78",
    "lat": "51.898500",
    "lon": "21.190000"
  },
  {
    "id": "930149",
    "country": "PL",
    "zipcode": "05-65",
    "name": "Żelechów",
    "region": "Mazovia",
    "short_region": "78",
    "lat": "51.877700",
    "lon": "21.181400"
  },
  {
    "id": "930150",
    "country": "PL",
    "zipcode": "05-65",
    "name": "Pawłówka",
    "region": "Mazovia",
    "short_region": "78",
    "lat": "51.873100",
    "lon": "21.036000"
  },
  {
    "id": "930151",
    "country": "PL",
    "zipcode": "05-65",
    "name": "Przyłom",
    "region": "Mazovia",
    "short_region": "78",
    "lat": "51.852900",
    "lon": "21.023800"
  },
  {
    "id": "930152",
    "country": "PL",
    "zipcode": "05-65",
    "name": "Sułkowice",
    "region": "Mazovia",
    "short_region": "78",
    "lat": "51.928000",
    "lon": "21.094900"
  },
  {
    "id": "930153",
    "country": "PL",
    "zipcode": "05-65",
    "name": "Jakubowizna",
    "region": "Mazovia",
    "short_region": "78",
    "lat": "51.905000",
    "lon": "21.108000"
  },
  {
    "id": "930154",
    "country": "PL",
    "zipcode": "05-65",
    "name": "Żelazna",
    "region": "Mazovia",
    "short_region": "78",
    "lat": "51.878700",
    "lon": "21.158500"
  },
  {
    "id": "930155",
    "country": "PL",
    "zipcode": "05-65",
    "name": "Budziszynek",
    "region": "Mazovia",
    "short_region": "78",
    "lat": "51.858600",
    "lon": "21.058800"
  },
  {
    "id": "930156",
    "country": "PL",
    "zipcode": "05-65",
    "name": "Piekut",
    "region": "Mazovia",
    "short_region": "78",
    "lat": "51.876700",
    "lon": "21.128700"
  },
  {
    "id": "930157",
    "country": "PL",
    "zipcode": "05-65",
    "name": "Drwalewice",
    "region": "Mazovia",
    "short_region": "78",
    "lat": "51.886600",
    "lon": "21.024000"
  },
  {
    "id": "930158",
    "country": "PL",
    "zipcode": "05-65",
    "name": "Nowe Grobice",
    "region": "Mazovia",
    "short_region": "78",
    "lat": "51.929900",
    "lon": "21.108400"
  },
  {
    "id": "930159",
    "country": "PL",
    "zipcode": "05-65",
    "name": "Marynin",
    "region": "Mazovia",
    "short_region": "78",
    "lat": "51.878600",
    "lon": "21.196500"
  },
  {
    "id": "930160",
    "country": "PL",
    "zipcode": "05-65",
    "name": "Janów",
    "region": "Mazovia",
    "short_region": "78",
    "lat": "51.861500",
    "lon": "21.114800"
  },
  {
    "id": "930161",
    "country": "PL",
    "zipcode": "05-65",
    "name": "Kukały",
    "region": "Mazovia",
    "short_region": "78",
    "lat": "51.878500",
    "lon": "20.998200"
  },
  {
    "id": "930162",
    "country": "PL",
    "zipcode": "05-65",
    "name": "Marianów",
    "region": "Mazovia",
    "short_region": "78",
    "lat": "51.922100",
    "lon": "21.007200"
  },
  {
    "id": "930163",
    "country": "PL",
    "zipcode": "05-65",
    "name": "Wola Żyrowska",
    "region": "Mazovia",
    "short_region": "78",
    "lat": "51.898100",
    "lon": "20.971800"
  },
  {
    "id": "930164",
    "country": "PL",
    "zipcode": "05-65",
    "name": "Żyrów",
    "region": "Mazovia",
    "short_region": "78",
    "lat": "51.884200",
    "lon": "20.968300"
  },
  {
    "id": "930165",
    "country": "PL",
    "zipcode": "05-65",
    "name": "Wola Kukalska",
    "region": "Mazovia",
    "short_region": "78",
    "lat": "51.875800",
    "lon": "21.010000"
  },
  {
    "id": "930166",
    "country": "PL",
    "zipcode": "05-65",
    "name": "Drwalew",
    "region": "Mazovia",
    "short_region": "78",
    "lat": "51.895900",
    "lon": "21.020000"
  },
  {
    "id": "930167",
    "country": "PL",
    "zipcode": "05-65",
    "name": "Ostrowiec",
    "region": "Mazovia",
    "short_region": "78",
    "lat": "51.889200",
    "lon": "21.005300"
  },
  {
    "id": "930168",
    "country": "PL",
    "zipcode": "05-65",
    "name": "Sikuty",
    "region": "Mazovia",
    "short_region": "78",
    "lat": "51.865000",
    "lon": "21.002000"
  },
  {
    "id": "930169",
    "country": "PL",
    "zipcode": "05-65",
    "name": "Barcice Drwalewskie",
    "region": "Mazovia",
    "short_region": "78",
    "lat": "51.908900",
    "lon": "20.993400"
  },
  {
    "id": "930170",
    "country": "PL",
    "zipcode": "05-65",
    "name": "Pieczyska",
    "region": "Mazovia",
    "short_region": "78",
    "lat": "51.920700",
    "lon": "21.021400"
  },
  {
    "id": "930171",
    "country": "PL",
    "zipcode": "05-65",
    "name": "Karolew",
    "region": "Mazovia",
    "short_region": "78",
    "lat": "51.919900",
    "lon": "20.686800"
  },
  {
    "id": "930172",
    "country": "PL",
    "zipcode": "05-65",
    "name": "Kruszewek",
    "region": "Mazovia",
    "short_region": "78",
    "lat": "51.932300",
    "lon": "20.765000"
  },
  {
    "id": "930173",
    "country": "PL",
    "zipcode": "05-65",
    "name": "Wiatrowiec",
    "region": "Mazovia",
    "short_region": "78",
    "lat": "51.873500",
    "lon": "20.654200"
  },
  {
    "id": "930174",
    "country": "PL",
    "zipcode": "05-65",
    "name": "Konie",
    "region": "Mazovia",
    "short_region": "78",
    "lat": "51.911500",
    "lon": "20.710100"
  },
  {
    "id": "930175",
    "country": "PL",
    "zipcode": "05-65",
    "name": "Ciechlin",
    "region": "Mazovia",
    "short_region": "78",
    "lat": "51.865200",
    "lon": "20.677100"
  },
  {
    "id": "930176",
    "country": "PL",
    "zipcode": "05-65",
    "name": "Kruszew",
    "region": "Mazovia",
    "short_region": "78",
    "lat": "51.922900",
    "lon": "20.785400"
  },
  {
    "id": "930177",
    "country": "PL",
    "zipcode": "05-65",
    "name": "Michrów",
    "region": "Mazovia",
    "short_region": "78",
    "lat": "51.941600",
    "lon": "20.796000"
  },
  {
    "id": "930178",
    "country": "PL",
    "zipcode": "05-65",
    "name": "Jurki",
    "region": "Mazovia",
    "short_region": "78",
    "lat": "51.906000",
    "lon": "20.777000"
  },
  {
    "id": "930179",
    "country": "PL",
    "zipcode": "05-65",
    "name": "Kocerany",
    "region": "Mazovia",
    "short_region": "78",
    "lat": "51.934900",
    "lon": "20.820900"
  },
  {
    "id": "930180",
    "country": "PL",
    "zipcode": "05-65",
    "name": "Wola Pniewska",
    "region": "Mazovia",
    "short_region": "78",
    "lat": "51.917900",
    "lon": "20.751200"
  },
  {
    "id": "930181",
    "country": "PL",
    "zipcode": "05-65",
    "name": "Pniewy",
    "region": "Mazovia",
    "short_region": "78",
    "lat": "51.910300",
    "lon": "20.730900"
  },
  {
    "id": "930182",
    "country": "PL",
    "zipcode": "05-65",
    "name": "Michrówek",
    "region": "Mazovia",
    "short_region": "78",
    "lat": "51.945900",
    "lon": "20.776500"
  },
  {
    "id": "930183",
    "country": "PL",
    "zipcode": "05-65",
    "name": "Natalin",
    "region": "Mazovia",
    "short_region": "78",
    "lat": "51.940700",
    "lon": "20.688600"
  },
  {
    "id": "930184",
    "country": "PL",
    "zipcode": "05-65",
    "name": "Teodorówka",
    "region": "Mazovia",
    "short_region": "78",
    "lat": "51.887800",
    "lon": "20.698900"
  },
  {
    "id": "930185",
    "country": "PL",
    "zipcode": "05-65",
    "name": "Michrów-Stefów",
    "region": "Mazovia",
    "short_region": "78",
    "lat": "51.939600",
    "lon": "20.750400"
  },
  {
    "id": "930186",
    "country": "PL",
    "zipcode": "05-65",
    "name": "Tomaszówka",
    "region": "Mazovia",
    "short_region": "78",
    "lat": "51.888500",
    "lon": "20.775800"
  },
  {
    "id": "930187",
    "country": "PL",
    "zipcode": "05-65",
    "name": "Czekaj",
    "region": "Mazovia",
    "short_region": "78",
    "lat": "51.867800",
    "lon": "20.762400"
  },
  {
    "id": "930188",
    "country": "PL",
    "zipcode": "05-65",
    "name": "Osieczek",
    "region": "Mazovia",
    "short_region": "78",
    "lat": "51.890900",
    "lon": "20.719600"
  },
  {
    "id": "930189",
    "country": "PL",
    "zipcode": "05-65",
    "name": "Huta Jeżewska",
    "region": "Mazovia",
    "short_region": "78",
    "lat": "51.932000",
    "lon": "20.682500"
  },
  {
    "id": "930190",
    "country": "PL",
    "zipcode": "05-65",
    "name": "Jeziórka",
    "region": "Mazovia",
    "short_region": "78",
    "lat": "51.881900",
    "lon": "20.748300"
  },
  {
    "id": "930191",
    "country": "PL",
    "zipcode": "05-65",
    "name": "Rosołów",
    "region": "Mazovia",
    "short_region": "78",
    "lat": "51.899700",
    "lon": "20.720000"
  },
  {
    "id": "930192",
    "country": "PL",
    "zipcode": "05-65",
    "name": "Wilczoruda",
    "region": "Mazovia",
    "short_region": "78",
    "lat": "51.887000",
    "lon": "20.669700"
  },
  {
    "id": "930193",
    "country": "PL",
    "zipcode": "05-65",
    "name": "Jeziora-Nowina",
    "region": "Mazovia",
    "short_region": "78",
    "lat": "51.902500",
    "lon": "20.734600"
  },
  {
    "id": "930194",
    "country": "PL",
    "zipcode": "05-65",
    "name": "Witalówka",
    "region": "Mazovia",
    "short_region": "78",
    "lat": "51.906900",
    "lon": "20.751700"
  },
  {
    "id": "930195",
    "country": "PL",
    "zipcode": "05-65",
    "name": "Wola Grabska",
    "region": "Mazovia",
    "short_region": "78",
    "lat": "51.867100",
    "lon": "20.741800"
  },
  {
    "id": "930196",
    "country": "PL",
    "zipcode": "05-65",
    "name": "Przykory",
    "region": "Mazovia",
    "short_region": "78",
    "lat": "51.891400",
    "lon": "20.692000"
  },
  {
    "id": "930197",
    "country": "PL",
    "zipcode": "05-65",
    "name": "Kornelówka",
    "region": "Mazovia",
    "short_region": "78",
    "lat": "51.939900",
    "lon": "20.704400"
  },
  {
    "id": "930198",
    "country": "PL",
    "zipcode": "05-65",
    "name": "Kolonia Jurki",
    "region": "Mazovia",
    "short_region": "78",
    "lat": "51.911100",
    "lon": "20.802700"
  },
  {
    "id": "930199",
    "country": "PL",
    "zipcode": "05-65",
    "name": "Nowina-Przęsławice",
    "region": "Mazovia",
    "short_region": "78",
    "lat": "51.901600",
    "lon": "20.805600"
  },
  {
    "id": "930200",
    "country": "PL",
    "zipcode": "05-65",
    "name": "Ginetówka",
    "region": "Mazovia",
    "short_region": "78",
    "lat": "51.860100",
    "lon": "20.702500"
  },
  {
    "id": "930201",
    "country": "PL",
    "zipcode": "05-65",
    "name": "Dąbrówka",
    "region": "Mazovia",
    "short_region": "78",
    "lat": "51.875000",
    "lon": "20.727200"
  },
  {
    "id": "930202",
    "country": "PL",
    "zipcode": "05-65",
    "name": "Wilczoruda-Parcela",
    "region": "Mazovia",
    "short_region": "78",
    "lat": "51.895400",
    "lon": "20.672500"
  },
  {
    "id": "930203",
    "country": "PL",
    "zipcode": "05-65",
    "name": "Daszew",
    "region": "Mazovia",
    "short_region": "78",
    "lat": "51.872600",
    "lon": "20.700500"
  },
  {
    "id": "930204",
    "country": "PL",
    "zipcode": "05-65",
    "name": "Budki Petrykowskie",
    "region": "Mazovia",
    "short_region": "78",
    "lat": "51.922500",
    "lon": "20.667700"
  },
  {
    "id": "930205",
    "country": "PL",
    "zipcode": "05-65",
    "name": "Aleksandrów",
    "region": "Mazovia",
    "short_region": "78",
    "lat": "51.926800",
    "lon": "20.716100"
  },
  {
    "id": "930206",
    "country": "PL",
    "zipcode": "05-65",
    "name": "Wólka Załęska",
    "region": "Mazovia",
    "short_region": "78",
    "lat": "51.917000",
    "lon": "20.702300"
  },
  {
    "id": "930207",
    "country": "PL",
    "zipcode": "05-65",
    "name": "Józefów",
    "region": "Mazovia",
    "short_region": "78",
    "lat": "51.910400",
    "lon": "20.685600"
  },
  {
    "id": "930208",
    "country": "PL",
    "zipcode": "05-65",
    "name": "Cychry",
    "region": "Mazovia",
    "short_region": "78",
    "lat": "51.890900",
    "lon": "20.653900"
  },
  {
    "id": "930209",
    "country": "PL",
    "zipcode": "05-65",
    "name": "Jeziora",
    "region": "Mazovia",
    "short_region": "78",
    "lat": "51.894800",
    "lon": "20.758300"
  },
  {
    "id": "930210",
    "country": "PL",
    "zipcode": "05-65",
    "name": "Załęże Duże",
    "region": "Mazovia",
    "short_region": "78",
    "lat": "51.929900",
    "lon": "20.738600"
  },
  {
    "id": "930211",
    "country": "PL",
    "zipcode": "05-65",
    "name": "Przęsławice",
    "region": "Mazovia",
    "short_region": "78",
    "lat": "51.896100",
    "lon": "20.784400"
  },
  {
    "id": "930212",
    "country": "PL",
    "zipcode": "05-66",
    "name": "Warka",
    "region": "Mazovia",
    "short_region": "78",
    "lat": "51.788500",
    "lon": "21.183500"
  },
  {
    "id": "930213",
    "country": "PL",
    "zipcode": "05-66",
    "name": "Hornigi",
    "region": "Mazovia",
    "short_region": "78",
    "lat": "51.837500",
    "lon": "21.145300"
  },
  {
    "id": "930214",
    "country": "PL",
    "zipcode": "05-66",
    "name": "Pilica",
    "region": "Mazovia",
    "short_region": "78",
    "lat": "51.814100",
    "lon": "21.258700"
  },
  {
    "id": "930215",
    "country": "PL",
    "zipcode": "05-66",
    "name": "Wola Palczewska",
    "region": "Mazovia",
    "short_region": "78",
    "lat": "51.749200",
    "lon": "21.044000"
  },
  {
    "id": "930216",
    "country": "PL",
    "zipcode": "05-66",
    "name": "Michałów-Parcele",
    "region": "Mazovia",
    "short_region": "78",
    "lat": "51.721200",
    "lon": "21.042900"
  },
  {
    "id": "930217",
    "country": "PL",
    "zipcode": "05-66",
    "name": "Stare Biskupice",
    "region": "Mazovia",
    "short_region": "78",
    "lat": "51.751300",
    "lon": "21.060500"
  },
  {
    "id": "930218",
    "country": "PL",
    "zipcode": "05-66",
    "name": "Michałów Dolny",
    "region": "Mazovia",
    "short_region": "78",
    "lat": "51.718300",
    "lon": "21.057400"
  },
  {
    "id": "930219",
    "country": "PL",
    "zipcode": "05-66",
    "name": "Prusy",
    "region": "Mazovia",
    "short_region": "78",
    "lat": "51.821400",
    "lon": "21.175300"
  },
  {
    "id": "930220",
    "country": "PL",
    "zipcode": "05-66",
    "name": "Brzezinki",
    "region": "Mazovia",
    "short_region": "78",
    "lat": "51.790200",
    "lon": "21.083900"
  },
  {
    "id": "930221",
    "country": "PL",
    "zipcode": "05-66",
    "name": "Piaseczno",
    "region": "Mazovia",
    "short_region": "78",
    "lat": "51.819500",
    "lon": "21.196500"
  },
  {
    "id": "930222",
    "country": "PL",
    "zipcode": "05-66",
    "name": "Konary",
    "region": "Mazovia",
    "short_region": "78",
    "lat": "51.876800",
    "lon": "21.225300"
  },
  {
    "id": "930223",
    "country": "PL",
    "zipcode": "05-66",
    "name": "Ostrówek",
    "region": "Mazovia",
    "short_region": "78",
    "lat": "51.862700",
    "lon": "21.248500"
  },
  {
    "id": "930224",
    "country": "PL",
    "zipcode": "05-66",
    "name": "Ostrołęka",
    "region": "Mazovia",
    "short_region": "78",
    "lat": "51.833700",
    "lon": "21.260600"
  },
  {
    "id": "930225",
    "country": "PL",
    "zipcode": "05-66",
    "name": "Borowe",
    "region": "Mazovia",
    "short_region": "78",
    "lat": "51.860400",
    "lon": "21.173900"
  },
  {
    "id": "930226",
    "country": "PL",
    "zipcode": "05-66",
    "name": "Palczew",
    "region": "Mazovia",
    "short_region": "78",
    "lat": "51.732400",
    "lon": "21.080900"
  },
  {
    "id": "930227",
    "country": "PL",
    "zipcode": "05-66",
    "name": "Gąski",
    "region": "Mazovia",
    "short_region": "78",
    "lat": "51.837700",
    "lon": "21.174400"
  },
  {
    "id": "930228",
    "country": "PL",
    "zipcode": "05-66",
    "name": "Podgórzyce",
    "region": "Mazovia",
    "short_region": "78",
    "lat": "51.880000",
    "lon": "21.239700"
  },
  {
    "id": "930229",
    "country": "PL",
    "zipcode": "05-66",
    "name": "Lechanice",
    "region": "Mazovia",
    "short_region": "78",
    "lat": "51.747400",
    "lon": "21.106200"
  },
  {
    "id": "930230",
    "country": "PL",
    "zipcode": "05-66",
    "name": "Murowanka",
    "region": "Mazovia",
    "short_region": "78",
    "lat": "51.819800",
    "lon": "21.100900"
  },
  {
    "id": "930231",
    "country": "PL",
    "zipcode": "05-66",
    "name": "Branków",
    "region": "Mazovia",
    "short_region": "78",
    "lat": "51.704100",
    "lon": "21.021900"
  },
  {
    "id": "930232",
    "country": "PL",
    "zipcode": "05-66",
    "name": "Stara Warka",
    "region": "Mazovia",
    "short_region": "78",
    "lat": "51.801800",
    "lon": "21.227800"
  },
  {
    "id": "930233",
    "country": "PL",
    "zipcode": "05-66",
    "name": "Magierowa Wola",
    "region": "Mazovia",
    "short_region": "78",
    "lat": "51.858900",
    "lon": "21.208900"
  },
  {
    "id": "930234",
    "country": "PL",
    "zipcode": "05-66",
    "name": "Kazimierków",
    "region": "Mazovia",
    "short_region": "78",
    "lat": "51.782000",
    "lon": "21.107900"
  },
  {
    "id": "930235",
    "country": "PL",
    "zipcode": "05-66",
    "name": "Grzegorzewice",
    "region": "Mazovia",
    "short_region": "78",
    "lat": "51.761300",
    "lon": "21.122000"
  },
  {
    "id": "930236",
    "country": "PL",
    "zipcode": "05-66",
    "name": "Michalczew",
    "region": "Mazovia",
    "short_region": "78",
    "lat": "51.842500",
    "lon": "21.110200"
  },
  {
    "id": "930237",
    "country": "PL",
    "zipcode": "05-66",
    "name": "Nowe Biskupice",
    "region": "Mazovia",
    "short_region": "78",
    "lat": "51.752100",
    "lon": "21.081200"
  },
  {
    "id": "930238",
    "country": "PL",
    "zipcode": "05-66",
    "name": "Dębnowola",
    "region": "Mazovia",
    "short_region": "78",
    "lat": "51.841100",
    "lon": "21.208800"
  },
  {
    "id": "930239",
    "country": "PL",
    "zipcode": "05-66",
    "name": "Kalina",
    "region": "Mazovia",
    "short_region": "78",
    "lat": "51.825700",
    "lon": "21.223300"
  },
  {
    "id": "930240",
    "country": "PL",
    "zipcode": "05-66",
    "name": "Gośniewice",
    "region": "Mazovia",
    "short_region": "78",
    "lat": "51.823700",
    "lon": "21.144500"
  },
  {
    "id": "930241",
    "country": "PL",
    "zipcode": "05-66",
    "name": "Wichradz",
    "region": "Mazovia",
    "short_region": "78",
    "lat": "51.793100",
    "lon": "21.123800"
  },
  {
    "id": "930242",
    "country": "PL",
    "zipcode": "05-66",
    "name": "Nowa Wieś",
    "region": "Mazovia",
    "short_region": "78",
    "lat": "51.813600",
    "lon": "21.075800"
  },
  {
    "id": "930243",
    "country": "PL",
    "zipcode": "05-66",
    "name": "Klonowa Wola",
    "region": "Mazovia",
    "short_region": "78",
    "lat": "51.841900",
    "lon": "21.225500"
  },
  {
    "id": "930244",
    "country": "PL",
    "zipcode": "05-66",
    "name": "Wrociszew",
    "region": "Mazovia",
    "short_region": "78",
    "lat": "51.745600",
    "lon": "21.072300"
  },
  {
    "id": "930245",
    "country": "PL",
    "zipcode": "05-66",
    "name": "Krześniaków",
    "region": "Mazovia",
    "short_region": "78",
    "lat": "51.801300",
    "lon": "21.091500"
  },
  {
    "id": "930246",
    "country": "PL",
    "zipcode": "05-66",
    "name": "Budy Michałowskie",
    "region": "Mazovia",
    "short_region": "78",
    "lat": "51.707400",
    "lon": "21.059200"
  },
  {
    "id": "930247",
    "country": "PL",
    "zipcode": "05-66",
    "name": "Gucin",
    "region": "Mazovia",
    "short_region": "78",
    "lat": "51.772500",
    "lon": "21.060300"
  },
  {
    "id": "930248",
    "country": "PL",
    "zipcode": "05-66",
    "name": "Zastruże",
    "region": "Mazovia",
    "short_region": "78",
    "lat": "51.741500",
    "lon": "21.092100"
  },
  {
    "id": "930249",
    "country": "PL",
    "zipcode": "05-66",
    "name": "Laski",
    "region": "Mazovia",
    "short_region": "78",
    "lat": "51.799400",
    "lon": "21.139100"
  },
  {
    "id": "930250",
    "country": "PL",
    "zipcode": "05-66",
    "name": "Michałów Górny",
    "region": "Mazovia",
    "short_region": "78",
    "lat": "51.712100",
    "lon": "21.046900"
  },
  {
    "id": "930251",
    "country": "PL",
    "zipcode": "05-66",
    "name": "Bończa",
    "region": "Mazovia",
    "short_region": "78",
    "lat": "51.728800",
    "lon": "21.059500"
  },
  {
    "id": "930252",
    "country": "PL",
    "zipcode": "05-66",
    "name": "Opożdżew",
    "region": "Mazovia",
    "short_region": "78",
    "lat": "51.765100",
    "lon": "21.091200"
  },
  {
    "id": "930253",
    "country": "PL",
    "zipcode": "05-66",
    "name": "Palczew-Parcela",
    "region": "Mazovia",
    "short_region": "78",
    "lat": "51.740000",
    "lon": "21.072200"
  },
  {
    "id": "930254",
    "country": "PL",
    "zipcode": "05-66",
    "name": "Niwy Ostrołęckie",
    "region": "Mazovia",
    "short_region": "78",
    "lat": "51.827700",
    "lon": "21.270800"
  },
  {
    "id": "930255",
    "country": "PL",
    "zipcode": "05-66",
    "name": "Budy Opożdżewskie",
    "region": "Mazovia",
    "short_region": "78",
    "lat": "51.783400",
    "lon": "21.083100"
  },
  {
    "id": "930256",
    "country": "PL",
    "zipcode": "05-66",
    "name": "Grażyna",
    "region": "Mazovia",
    "short_region": "78",
    "lat": "51.829500",
    "lon": "21.242300"
  },
  {
    "id": "930257",
    "country": "PL",
    "zipcode": "05-66",
    "name": "Przylot",
    "region": "Mazovia",
    "short_region": "78",
    "lat": "51.852300",
    "lon": "21.252200"
  },
  {
    "id": "930258",
    "country": "PL",
    "zipcode": "26-42",
    "name": "Godzimierz",
    "region": "Mazovia",
    "short_region": "78",
    "lat": "51.683300",
    "lon": "20.468600"
  },
  {
    "id": "930259",
    "country": "PL",
    "zipcode": "26-42",
    "name": "Wólka Gostomska",
    "region": "Mazovia",
    "short_region": "78",
    "lat": "51.641500",
    "lon": "20.640400"
  },
  {
    "id": "930260",
    "country": "PL",
    "zipcode": "26-42",
    "name": "Domaniewice",
    "region": "Mazovia",
    "short_region": "78",
    "lat": "51.619200",
    "lon": "20.443700"
  },
  {
    "id": "930261",
    "country": "PL",
    "zipcode": "26-42",
    "name": "Gostomia",
    "region": "Mazovia",
    "short_region": "78",
    "lat": "51.620300",
    "lon": "20.635100"
  },
  {
    "id": "930262",
    "country": "PL",
    "zipcode": "26-42",
    "name": "Żdżary",
    "region": "Mazovia",
    "short_region": "78",
    "lat": "51.657700",
    "lon": "20.463300"
  },
  {
    "id": "930263",
    "country": "PL",
    "zipcode": "26-42",
    "name": "Bieliny",
    "region": "Mazovia",
    "short_region": "78",
    "lat": "51.628900",
    "lon": "20.487700"
  },
  {
    "id": "930264",
    "country": "PL",
    "zipcode": "26-42",
    "name": "Świdrygały",
    "region": "Mazovia",
    "short_region": "78",
    "lat": "51.649500",
    "lon": "20.600300"
  },
  {
    "id": "930265",
    "country": "PL",
    "zipcode": "26-42",
    "name": "Jankowice",
    "region": "Mazovia",
    "short_region": "78",
    "lat": "51.653200",
    "lon": "20.496400"
  },
  {
    "id": "930266",
    "country": "PL",
    "zipcode": "26-42",
    "name": "Zalesie",
    "region": "Mazovia",
    "short_region": "78",
    "lat": "51.653600",
    "lon": "20.396300"
  },
  {
    "id": "930267",
    "country": "PL",
    "zipcode": "26-42",
    "name": "Wólka Magierowa",
    "region": "Mazovia",
    "short_region": "78",
    "lat": "51.603100",
    "lon": "20.574300"
  },
  {
    "id": "930268",
    "country": "PL",
    "zipcode": "26-42",
    "name": "Wał",
    "region": "Mazovia",
    "short_region": "78",
    "lat": "51.643900",
    "lon": "20.460700"
  },
  {
    "id": "930269",
    "country": "PL",
    "zipcode": "26-42",
    "name": "Nowe Strzałki",
    "region": "Mazovia",
    "short_region": "78",
    "lat": "51.656400",
    "lon": "20.409500"
  },
  {
    "id": "930270",
    "country": "PL",
    "zipcode": "26-42",
    "name": "Promnik",
    "region": "Mazovia",
    "short_region": "78",
    "lat": "51.650500",
    "lon": "20.444900"
  },
  {
    "id": "930271",
    "country": "PL",
    "zipcode": "26-42",
    "name": "Bełek",
    "region": "Mazovia",
    "short_region": "78",
    "lat": "51.650600",
    "lon": "20.619900"
  },
  {
    "id": "930272",
    "country": "PL",
    "zipcode": "26-42",
    "name": "Nowe Bieliny",
    "region": "Mazovia",
    "short_region": "78",
    "lat": "51.637500",
    "lon": "20.486000"
  },
  {
    "id": "930273",
    "country": "PL",
    "zipcode": "26-42",
    "name": "Borowina",
    "region": "Mazovia",
    "short_region": "78",
    "lat": "51.575600",
    "lon": "20.627100"
  },
  {
    "id": "930274",
    "country": "PL",
    "zipcode": "26-42",
    "name": "Nowe Łęgonice",
    "region": "Mazovia",
    "short_region": "78",
    "lat": "51.646100",
    "lon": "20.513200"
  },
  {
    "id": "930275",
    "country": "PL",
    "zipcode": "26-42",
    "name": "Józefów",
    "region": "Mazovia",
    "short_region": "78",
    "lat": "51.643100",
    "lon": "20.526500"
  },
  {
    "id": "930276",
    "country": "PL",
    "zipcode": "26-42",
    "name": "Wólka Ligęzowska",
    "region": "Mazovia",
    "short_region": "78",
    "lat": "51.580700",
    "lon": "20.576900"
  },
  {
    "id": "930277",
    "country": "PL",
    "zipcode": "26-42",
    "name": "Strzałki",
    "region": "Mazovia",
    "short_region": "78",
    "lat": "51.667000",
    "lon": "20.403800"
  },
  {
    "id": "930278",
    "country": "PL",
    "zipcode": "26-42",
    "name": "Sacin",
    "region": "Mazovia",
    "short_region": "78",
    "lat": "51.653400",
    "lon": "20.569300"
  },
  {
    "id": "930279",
    "country": "PL",
    "zipcode": "26-42",
    "name": "Pobiedna",
    "region": "Mazovia",
    "short_region": "78",
    "lat": "51.618600",
    "lon": "20.596300"
  },
  {
    "id": "930280",
    "country": "PL",
    "zipcode": "26-42",
    "name": "Rudki",
    "region": "Mazovia",
    "short_region": "78",
    "lat": "51.655400",
    "lon": "20.427500"
  },
  {
    "id": "930281",
    "country": "PL",
    "zipcode": "26-42",
    "name": "Wierzchy",
    "region": "Mazovia",
    "short_region": "78",
    "lat": "51.676600",
    "lon": "20.444700"
  },
  {
    "id": "930282",
    "country": "PL",
    "zipcode": "26-42",
    "name": "Żdżarki",
    "region": "Mazovia",
    "short_region": "78",
    "lat": "51.577400",
    "lon": "20.564400"
  },
  {
    "id": "930283",
    "country": "PL",
    "zipcode": "26-42",
    "name": "Gilówka",
    "region": "Mazovia",
    "short_region": "78",
    "lat": "51.564100",
    "lon": "20.522300"
  },
  {
    "id": "930284",
    "country": "PL",
    "zipcode": "26-42",
    "name": "Prosna",
    "region": "Mazovia",
    "short_region": "78",
    "lat": "51.576600",
    "lon": "20.535200"
  },
  {
    "id": "930285",
    "country": "PL",
    "zipcode": "26-42",
    "name": "Nowe Miasto Nad Pilicą",
    "region": "Mazovia",
    "short_region": "78",
    "lat": "51.617400",
    "lon": "20.574600"
  },
  {
    "id": "930286",
    "country": "PL",
    "zipcode": "26-42",
    "name": "Sańbórz",
    "region": "Mazovia",
    "short_region": "78",
    "lat": "51.664300",
    "lon": "20.423600"
  },
  {
    "id": "930287",
    "country": "PL",
    "zipcode": "26-42",
    "name": "Rosocha",
    "region": "Mazovia",
    "short_region": "78",
    "lat": "51.657100",
    "lon": "20.555100"
  },
  {
    "id": "930288",
    "country": "PL",
    "zipcode": "26-42",
    "name": "Wola Pobiedzińska",
    "region": "Mazovia",
    "short_region": "78",
    "lat": "51.618700",
    "lon": "20.611200"
  },
  {
    "id": "930289",
    "country": "PL",
    "zipcode": "26-42",
    "name": "Waliska",
    "region": "Mazovia",
    "short_region": "78",
    "lat": "51.590300",
    "lon": "20.611600"
  },
  {
    "id": "930290",
    "country": "PL",
    "zipcode": "26-42",
    "name": "Dąbrowa",
    "region": "Mazovia",
    "short_region": "78",
    "lat": "51.654500",
    "lon": "20.529300"
  },
  {
    "id": "930291",
    "country": "PL",
    "zipcode": "26-42",
    "name": "Łęgonice",
    "region": "Mazovia",
    "short_region": "78",
    "lat": "51.614500",
    "lon": "20.525800"
  },
  {
    "id": "930292",
    "country": "PL",
    "zipcode": "26-42",
    "name": "Rokitnica",
    "region": "Mazovia",
    "short_region": "78",
    "lat": "51.674800",
    "lon": "20.491100"
  },
  {
    "id": "930293",
    "country": "PL",
    "zipcode": "26-90",
    "name": "Łaszówka",
    "region": "Mazovia",
    "short_region": "78",
    "lat": "51.642800",
    "lon": "21.390200"
  },
  {
    "id": "930294",
    "country": "PL",
    "zipcode": "26-90",
    "name": "Samwodzie",
    "region": "Mazovia",
    "short_region": "78",
    "lat": "51.586700",
    "lon": "21.633700"
  },
  {
    "id": "930295",
    "country": "PL",
    "zipcode": "26-90",
    "name": "Kuźmy",
    "region": "Mazovia",
    "short_region": "78",
    "lat": "51.648400",
    "lon": "21.549500"
  },
  {
    "id": "930296",
    "country": "PL",
    "zipcode": "26-90",
    "name": "Piotrkowice",
    "region": "Mazovia",
    "short_region": "78",
    "lat": "51.635200",
    "lon": "21.545300"
  },
  {
    "id": "930297",
    "country": "PL",
    "zipcode": "26-90",
    "name": "Łuczynów",
    "region": "Mazovia",
    "short_region": "78",
    "lat": "51.606800",
    "lon": "21.493800"
  },
  {
    "id": "930298",
    "country": "PL",
    "zipcode": "26-90",
    "name": "Świerże Górne",
    "region": "Mazovia",
    "short_region": "78",
    "lat": "51.656900",
    "lon": "21.483500"
  },
  {
    "id": "930299",
    "country": "PL",
    "zipcode": "26-90",
    "name": "Chodków",
    "region": "Mazovia",
    "short_region": "78",
    "lat": "51.669600",
    "lon": "21.386600"
  },
  {
    "id": "930300",
    "country": "PL",
    "zipcode": "26-90",
    "name": "Nowa Wieś",
    "region": "Mazovia",
    "short_region": "78",
    "lat": "51.638700",
    "lon": "21.494300"
  },
  {
    "id": "930301",
    "country": "PL",
    "zipcode": "26-90",
    "name": "Kociołki",
    "region": "Mazovia",
    "short_region": "78",
    "lat": "51.544000",
    "lon": "21.548600"
  },
  {
    "id": "930302",
    "country": "PL",
    "zipcode": "26-90",
    "name": "Śmietanki",
    "region": "Mazovia",
    "short_region": "78",
    "lat": "51.552000",
    "lon": "21.575200"
  },
  {
    "id": "930303",
    "country": "PL",
    "zipcode": "26-90",
    "name": "Holendry Kozienickie",
    "region": "Mazovia",
    "short_region": "78",
    "lat": "51.612300",
    "lon": "21.576700"
  },
  {
    "id": "930304",
    "country": "PL",
    "zipcode": "26-90",
    "name": "Cudów",
    "region": "Mazovia",
    "short_region": "78",
    "lat": "51.609100",
    "lon": "21.559300"
  },
  {
    "id": "930305",
    "country": "PL",
    "zipcode": "26-90",
    "name": "Kozienice",
    "region": "Mazovia",
    "short_region": "78",
    "lat": "51.585200",
    "lon": "21.543700"
  },
  {
    "id": "930306",
    "country": "PL",
    "zipcode": "26-90",
    "name": "Psary",
    "region": "Mazovia",
    "short_region": "78",
    "lat": "51.562000",
    "lon": "21.616800"
  },
  {
    "id": "930307",
    "country": "PL",
    "zipcode": "26-90",
    "name": "Holendry Piotrkowskie",
    "region": "Mazovia",
    "short_region": "78",
    "lat": "51.627300",
    "lon": "21.523500"
  },
  {
    "id": "930308",
    "country": "PL",
    "zipcode": "26-90",
    "name": "Wójtostwo",
    "region": "Mazovia",
    "short_region": "78",
    "lat": "51.597000",
    "lon": "21.574000"
  },
  {
    "id": "930309",
    "country": "PL",
    "zipcode": "26-90",
    "name": "Wilczkowice Górne",
    "region": "Mazovia",
    "short_region": "78",
    "lat": "51.683100",
    "lon": "21.456000"
  },
  {
    "id": "930310",
    "country": "PL",
    "zipcode": "26-90",
    "name": "Opatkowice",
    "region": "Mazovia",
    "short_region": "78",
    "lat": "51.611600",
    "lon": "21.525600"
  },
  {
    "id": "930311",
    "country": "PL",
    "zipcode": "26-90",
    "name": "Brzeźnica",
    "region": "Mazovia",
    "short_region": "78",
    "lat": "51.555200",
    "lon": "21.632000"
  },
  {
    "id": "930312",
    "country": "PL",
    "zipcode": "26-90",
    "name": "Wola Chodkowska",
    "region": "Mazovia",
    "short_region": "78",
    "lat": "51.665300",
    "lon": "21.394400"
  },
  {
    "id": "930313",
    "country": "PL",
    "zipcode": "26-90",
    "name": "Aleksandrówka",
    "region": "Mazovia",
    "short_region": "78",
    "lat": "51.570800",
    "lon": "21.535000"
  },
  {
    "id": "930314",
    "country": "PL",
    "zipcode": "26-90",
    "name": "Janików",
    "region": "Mazovia",
    "short_region": "78",
    "lat": "51.570300",
    "lon": "21.583900"
  },
  {
    "id": "930315",
    "country": "PL",
    "zipcode": "26-90",
    "name": "Wólka Tyrzyńska B",
    "region": "Mazovia",
    "short_region": "78",
    "lat": "51.595300",
    "lon": "21.619100"
  },
  {
    "id": "930316",
    "country": "PL",
    "zipcode": "26-90",
    "name": "Wymysłów",
    "region": "Mazovia",
    "short_region": "78",
    "lat": "51.610200",
    "lon": "21.568800"
  },
  {
    "id": "930317",
    "country": "PL",
    "zipcode": "26-90",
    "name": "Staszów",
    "region": "Mazovia",
    "short_region": "78",
    "lat": "51.569900",
    "lon": "21.655600"
  },
  {
    "id": "930318",
    "country": "PL",
    "zipcode": "26-90",
    "name": "Przewóz",
    "region": "Mazovia",
    "short_region": "78",
    "lat": "51.604500",
    "lon": "21.573300"
  },
  {
    "id": "930319",
    "country": "PL",
    "zipcode": "26-90",
    "name": "Kępeczki",
    "region": "Mazovia",
    "short_region": "78",
    "lat": "51.580100",
    "lon": "21.645600"
  },
  {
    "id": "930320",
    "country": "PL",
    "zipcode": "26-90",
    "name": "Kępa Bielańska",
    "region": "Mazovia",
    "short_region": "78",
    "lat": "51.659100",
    "lon": "21.523200"
  },
  {
    "id": "930321",
    "country": "PL",
    "zipcode": "26-90",
    "name": "Cztery Kopce",
    "region": "Mazovia",
    "short_region": "78",
    "lat": "51.598500",
    "lon": "21.440700"
  },
  {
    "id": "930322",
    "country": "PL",
    "zipcode": "26-90",
    "name": "Janów",
    "region": "Mazovia",
    "short_region": "78",
    "lat": "51.562600",
    "lon": "21.567300"
  },
  {
    "id": "930323",
    "country": "PL",
    "zipcode": "26-90",
    "name": "Selwanówka",
    "region": "Mazovia",
    "short_region": "78",
    "lat": "51.650400",
    "lon": "21.387800"
  },
  {
    "id": "930324",
    "country": "PL",
    "zipcode": "26-90",
    "name": "Janików-Folwark",
    "region": "Mazovia",
    "short_region": "78",
    "lat": "51.565700",
    "lon": "21.601900"
  },
  {
    "id": "930325",
    "country": "PL",
    "zipcode": "26-90",
    "name": "Kępa Wólczyńska",
    "region": "Mazovia",
    "short_region": "78",
    "lat": "51.604100",
    "lon": "21.625600"
  },
  {
    "id": "930326",
    "country": "PL",
    "zipcode": "26-90",
    "name": "Holendry Kuźmińskie",
    "region": "Mazovia",
    "short_region": "78",
    "lat": "51.646300",
    "lon": "21.530700"
  },
  {
    "id": "930327",
    "country": "PL",
    "zipcode": "26-90",
    "name": "Majdany",
    "region": "Mazovia",
    "short_region": "78",
    "lat": "51.616200",
    "lon": "21.505300"
  },
  {
    "id": "930328",
    "country": "PL",
    "zipcode": "26-90",
    "name": "Michałówka",
    "region": "Mazovia",
    "short_region": "78",
    "lat": "51.664500",
    "lon": "21.444200"
  },
  {
    "id": "930329",
    "country": "PL",
    "zipcode": "26-90",
    "name": "Nowiny",
    "region": "Mazovia",
    "short_region": "78",
    "lat": "51.560800",
    "lon": "21.535600"
  },
  {
    "id": "930330",
    "country": "PL",
    "zipcode": "26-90",
    "name": "Stanisławice",
    "region": "Mazovia",
    "short_region": "78",
    "lat": "51.571100",
    "lon": "21.487300"
  },
  {
    "id": "930331",
    "country": "PL",
    "zipcode": "26-90",
    "name": "Ryczywół",
    "region": "Mazovia",
    "short_region": "78",
    "lat": "51.687900",
    "lon": "21.419900"
  },
  {
    "id": "930332",
    "country": "PL",
    "zipcode": "26-90",
    "name": "Adamów",
    "region": "Mazovia",
    "short_region": "78",
    "lat": "51.619900",
    "lon": "21.370800"
  },
  {
    "id": "930333",
    "country": "PL",
    "zipcode": "26-90",
    "name": "Wólka Tyrzyńska",
    "region": "Mazovia",
    "short_region": "78",
    "lat": "51.584300",
    "lon": "21.613400"
  },
  {
    "id": "930334",
    "country": "PL",
    "zipcode": "26-90",
    "name": "Chinów",
    "region": "Mazovia",
    "short_region": "78",
    "lat": "51.614500",
    "lon": "21.475700"
  },
  {
    "id": "930335",
    "country": "PL",
    "zipcode": "26-90",
    "name": "Dąbrówki",
    "region": "Mazovia",
    "short_region": "78",
    "lat": "51.586700",
    "lon": "21.602100"
  },
  {
    "id": "930336",
    "country": "PL",
    "zipcode": "26-90",
    "name": "Ruda",
    "region": "Mazovia",
    "short_region": "78",
    "lat": "51.548000",
    "lon": "21.591000"
  },
  {
    "id": "930337",
    "country": "PL",
    "zipcode": "26-90",
    "name": "Brzóza",
    "region": "Mazovia",
    "short_region": "78",
    "lat": "51.606800",
    "lon": "21.370500"
  },
  {
    "id": "930338",
    "country": "PL",
    "zipcode": "26-90",
    "name": "Grabów Nowy",
    "region": "Mazovia",
    "short_region": "78",
    "lat": "51.736800",
    "lon": "21.252600"
  },
  {
    "id": "930339",
    "country": "PL",
    "zipcode": "26-90",
    "name": "Grabów Zaleśny",
    "region": "Mazovia",
    "short_region": "78",
    "lat": "51.756600",
    "lon": "21.219600"
  },
  {
    "id": "930340",
    "country": "PL",
    "zipcode": "26-90",
    "name": "Łękawica",
    "region": "Mazovia",
    "short_region": "78",
    "lat": "51.714000",
    "lon": "21.319000"
  },
  {
    "id": "930341",
    "country": "PL",
    "zipcode": "26-90",
    "name": "Grabowska Wola",
    "region": "Mazovia",
    "short_region": "78",
    "lat": "51.715900",
    "lon": "21.266400"
  },
  {
    "id": "930342",
    "country": "PL",
    "zipcode": "26-90",
    "name": "Paprotnia",
    "region": "Mazovia",
    "short_region": "78",
    "lat": "51.697200",
    "lon": "21.281700"
  },
  {
    "id": "930343",
    "country": "PL",
    "zipcode": "26-90",
    "name": "Koziołek",
    "region": "Mazovia",
    "short_region": "78",
    "lat": "51.702600",
    "lon": "21.265300"
  },
  {
    "id": "930344",
    "country": "PL",
    "zipcode": "26-90",
    "name": "Zakrzew",
    "region": "Mazovia",
    "short_region": "78",
    "lat": "51.784500",
    "lon": "21.241500"
  },
  {
    "id": "930345",
    "country": "PL",
    "zipcode": "26-90",
    "name": "Strzyżyna",
    "region": "Mazovia",
    "short_region": "78",
    "lat": "51.686500",
    "lon": "21.206500"
  },
  {
    "id": "930346",
    "country": "PL",
    "zipcode": "26-90",
    "name": "Utniki",
    "region": "Mazovia",
    "short_region": "78",
    "lat": "51.718700",
    "lon": "21.259500"
  },
  {
    "id": "930347",
    "country": "PL",
    "zipcode": "26-90",
    "name": "Cychrowska Wola",
    "region": "Mazovia",
    "short_region": "78",
    "lat": "51.748300",
    "lon": "21.296100"
  },
  {
    "id": "930348",
    "country": "PL",
    "zipcode": "26-90",
    "name": "Wyborów",
    "region": "Mazovia",
    "short_region": "78",
    "lat": "51.737500",
    "lon": "21.226900"
  },
  {
    "id": "930349",
    "country": "PL",
    "zipcode": "26-90",
    "name": "Grabina",
    "region": "Mazovia",
    "short_region": "78",
    "lat": "51.722100",
    "lon": "21.242500"
  },
  {
    "id": "930350",
    "country": "PL",
    "zipcode": "26-90",
    "name": "Nowa Wola",
    "region": "Mazovia",
    "short_region": "78",
    "lat": "51.701800",
    "lon": "21.241200"
  },
  {
    "id": "930351",
    "country": "PL",
    "zipcode": "26-90",
    "name": "Celinów",
    "region": "Mazovia",
    "short_region": "78",
    "lat": "51.704600",
    "lon": "21.336200"
  },
  {
    "id": "930352",
    "country": "PL",
    "zipcode": "26-90",
    "name": "Kępa Niemojewska",
    "region": "Mazovia",
    "short_region": "78",
    "lat": "51.749100",
    "lon": "21.152200"
  },
  {
    "id": "930353",
    "country": "PL",
    "zipcode": "26-90",
    "name": "Czerwonka",
    "region": "Mazovia",
    "short_region": "78",
    "lat": "51.748300",
    "lon": "21.205600"
  },
  {
    "id": "930354",
    "country": "PL",
    "zipcode": "26-90",
    "name": "Budy Augustowskie",
    "region": "Mazovia",
    "short_region": "78",
    "lat": "51.675700",
    "lon": "21.193900"
  },
  {
    "id": "930355",
    "country": "PL",
    "zipcode": "26-90",
    "name": "Brzozówka",
    "region": "Mazovia",
    "short_region": "78",
    "lat": "51.716400",
    "lon": "21.199800"
  },
  {
    "id": "930356",
    "country": "PL",
    "zipcode": "26-90",
    "name": "Grabów Nad Pilicą",
    "region": "Mazovia",
    "short_region": "78",
    "lat": "51.728800",
    "lon": "21.218600"
  },
  {
    "id": "930357",
    "country": "PL",
    "zipcode": "26-90",
    "name": "Edwardów",
    "region": "Mazovia",
    "short_region": "78",
    "lat": "51.718300",
    "lon": "21.289000"
  },
  {
    "id": "930358",
    "country": "PL",
    "zipcode": "26-90",
    "name": "Lipinki",
    "region": "Mazovia",
    "short_region": "78",
    "lat": "51.736100",
    "lon": "21.287900"
  },
  {
    "id": "930359",
    "country": "PL",
    "zipcode": "26-90",
    "name": "Broncin",
    "region": "Mazovia",
    "short_region": "78",
    "lat": "51.747200",
    "lon": "21.253400"
  },
  {
    "id": "930360",
    "country": "PL",
    "zipcode": "26-90",
    "name": "Dziecinów",
    "region": "Mazovia",
    "short_region": "78",
    "lat": "51.726500",
    "lon": "21.306700"
  },
  {
    "id": "930361",
    "country": "PL",
    "zipcode": "26-90",
    "name": "Zwierzyniec",
    "region": "Mazovia",
    "short_region": "78",
    "lat": "51.708600",
    "lon": "21.248500"
  },
  {
    "id": "930362",
    "country": "PL",
    "zipcode": "26-90",
    "name": "Tomczyn",
    "region": "Mazovia",
    "short_region": "78",
    "lat": "51.760900",
    "lon": "21.252700"
  },
  {
    "id": "930363",
    "country": "PL",
    "zipcode": "26-90",
    "name": "Augustów",
    "region": "Mazovia",
    "short_region": "78",
    "lat": "51.687000",
    "lon": "21.170000"
  },
  {
    "id": "930364",
    "country": "PL",
    "zipcode": "26-90",
    "name": "Rogożek",
    "region": "Mazovia",
    "short_region": "78",
    "lat": "51.638300",
    "lon": "21.357600"
  },
  {
    "id": "930365",
    "country": "PL",
    "zipcode": "26-90",
    "name": "Przejazd",
    "region": "Mazovia",
    "short_region": "78",
    "lat": "51.537900",
    "lon": "21.404100"
  },
  {
    "id": "930366",
    "country": "PL",
    "zipcode": "26-90",
    "name": "Zadąbrowie",
    "region": "Mazovia",
    "short_region": "78",
    "lat": "51.618700",
    "lon": "21.228600"
  },
  {
    "id": "930367",
    "country": "PL",
    "zipcode": "26-90",
    "name": "Działki Brzóskie",
    "region": "Mazovia",
    "short_region": "78",
    "lat": "51.574700",
    "lon": "21.420800"
  },
  {
    "id": "930368",
    "country": "PL",
    "zipcode": "26-90",
    "name": "Mała Wieś",
    "region": "Mazovia",
    "short_region": "78",
    "lat": "51.618000",
    "lon": "21.269800"
  },
  {
    "id": "930369",
    "country": "PL",
    "zipcode": "26-90",
    "name": "Michałów",
    "region": "Mazovia",
    "short_region": "78",
    "lat": "51.653400",
    "lon": "21.345700"
  },
  {
    "id": "930370",
    "country": "PL",
    "zipcode": "26-90",
    "name": "Grabnowola-Kolonia",
    "region": "Mazovia",
    "short_region": "78",
    "lat": "51.665300",
    "lon": "21.323800"
  },
  {
    "id": "930371",
    "country": "PL",
    "zipcode": "26-90",
    "name": "Ignacówka Grabnowolska",
    "region": "Mazovia",
    "short_region": "78",
    "lat": "51.672100",
    "lon": "21.284800"
  },
  {
    "id": "930372",
    "country": "PL",
    "zipcode": "26-90",
    "name": "Cecylówka-Brzózka",
    "region": "Mazovia",
    "short_region": "78",
    "lat": "51.550200",
    "lon": "21.357700"
  },
  {
    "id": "930373",
    "country": "PL",
    "zipcode": "26-90",
    "name": "Henryków",
    "region": "Mazovia",
    "short_region": "78",
    "lat": "51.639400",
    "lon": "21.260200"
  },
  {
    "id": "930374",
    "country": "PL",
    "zipcode": "26-90",
    "name": "Cecylówka Głowaczowska",
    "region": "Mazovia",
    "short_region": "78",
    "lat": "51.654600",
    "lon": "21.242600"
  },
  {
    "id": "930375",
    "country": "PL",
    "zipcode": "26-90",
    "name": "Ignacówka Bobrowska",
    "region": "Mazovia",
    "short_region": "78",
    "lat": "51.562200",
    "lon": "21.284300"
  },
  {
    "id": "930376",
    "country": "PL",
    "zipcode": "26-90",
    "name": "Helenówek",
    "region": "Mazovia",
    "short_region": "78",
    "lat": "51.651600",
    "lon": "21.216200"
  },
  {
    "id": "930377",
    "country": "PL",
    "zipcode": "26-90",
    "name": "Trawka",
    "region": "Mazovia",
    "short_region": "78",
    "lat": "51.613600",
    "lon": "21.333700"
  },
  {
    "id": "930378",
    "country": "PL",
    "zipcode": "26-90",
    "name": "Studzianki Pancerne",
    "region": "Mazovia",
    "short_region": "78",
    "lat": "51.688900",
    "lon": "21.326700"
  },
  {
    "id": "930379",
    "country": "PL",
    "zipcode": "26-90",
    "name": "Głowaczów",
    "region": "Mazovia",
    "short_region": "78",
    "lat": "51.622700",
    "lon": "21.315600"
  },
  {
    "id": "930380",
    "country": "PL",
    "zipcode": "26-90",
    "name": "Stanisławów",
    "region": "Mazovia",
    "short_region": "78",
    "lat": "51.572300",
    "lon": "21.396000"
  },
  {
    "id": "930381",
    "country": "PL",
    "zipcode": "26-90",
    "name": "Ursynów",
    "region": "Mazovia",
    "short_region": "78",
    "lat": "51.567900",
    "lon": "21.365300"
  },
  {
    "id": "930382",
    "country": "PL",
    "zipcode": "26-90",
    "name": "Emilów",
    "region": "Mazovia",
    "short_region": "78",
    "lat": "51.646500",
    "lon": "21.327600"
  },
  {
    "id": "930383",
    "country": "PL",
    "zipcode": "26-90",
    "name": "Studnie",
    "region": "Mazovia",
    "short_region": "78",
    "lat": "51.597700",
    "lon": "21.239200"
  },
  {
    "id": "930384",
    "country": "PL",
    "zipcode": "26-90",
    "name": "Helenów",
    "region": "Mazovia",
    "short_region": "78",
    "lat": "51.644000",
    "lon": "21.240600"
  },
  {
    "id": "930385",
    "country": "PL",
    "zipcode": "26-90",
    "name": "Łukawa",
    "region": "Mazovia",
    "short_region": "78",
    "lat": "51.571400",
    "lon": "21.252500"
  },
  {
    "id": "930386",
    "country": "PL",
    "zipcode": "26-90",
    "name": "Józefów",
    "region": "Mazovia",
    "short_region": "78",
    "lat": "51.586900",
    "lon": "21.243800"
  },
  {
    "id": "930387",
    "country": "PL",
    "zipcode": "26-90",
    "name": "Lipska Wola",
    "region": "Mazovia",
    "short_region": "78",
    "lat": "51.629400",
    "lon": "21.243200"
  },
  {
    "id": "930388",
    "country": "PL",
    "zipcode": "26-90",
    "name": "Grabnowola",
    "region": "Mazovia",
    "short_region": "78",
    "lat": "51.664000",
    "lon": "21.328700"
  },
  {
    "id": "930389",
    "country": "PL",
    "zipcode": "26-90",
    "name": "Kosny",
    "region": "Mazovia",
    "short_region": "78",
    "lat": "51.606400",
    "lon": "21.223600"
  },
  {
    "id": "930390",
    "country": "PL",
    "zipcode": "26-90",
    "name": "Leżenice",
    "region": "Mazovia",
    "short_region": "78",
    "lat": "51.628000",
    "lon": "21.327400"
  },
  {
    "id": "930391",
    "country": "PL",
    "zipcode": "26-90",
    "name": "Mariampol",
    "region": "Mazovia",
    "short_region": "78",
    "lat": "51.663000",
    "lon": "21.295100"
  },
  {
    "id": "930392",
    "country": "PL",
    "zipcode": "26-90",
    "name": "Miejska Dąbrowa",
    "region": "Mazovia",
    "short_region": "78",
    "lat": "51.608300",
    "lon": "21.255100"
  },
  {
    "id": "930393",
    "country": "PL",
    "zipcode": "26-90",
    "name": "Maciejowice",
    "region": "Mazovia",
    "short_region": "78",
    "lat": "51.593800",
    "lon": "21.416600"
  },
  {
    "id": "930394",
    "country": "PL",
    "zipcode": "26-90",
    "name": "Bobrowniki",
    "region": "Mazovia",
    "short_region": "78",
    "lat": "51.593700",
    "lon": "21.288100"
  },
  {
    "id": "930395",
    "country": "PL",
    "zipcode": "26-90",
    "name": "Marianów",
    "region": "Mazovia",
    "short_region": "78",
    "lat": "51.555500",
    "lon": "21.393100"
  },
  {
    "id": "930396",
    "country": "PL",
    "zipcode": "26-90",
    "name": "Łukawska Wola",
    "region": "Mazovia",
    "short_region": "78",
    "lat": "51.583600",
    "lon": "21.270700"
  },
  {
    "id": "930397",
    "country": "PL",
    "zipcode": "26-90",
    "name": "Klementynów",
    "region": "Mazovia",
    "short_region": "78",
    "lat": "51.619800",
    "lon": "21.256200"
  },
  {
    "id": "930398",
    "country": "PL",
    "zipcode": "26-90",
    "name": "Podmieście",
    "region": "Mazovia",
    "short_region": "78",
    "lat": "51.605300",
    "lon": "21.304900"
  },
  {
    "id": "930399",
    "country": "PL",
    "zipcode": "26-90",
    "name": "Zieleniec",
    "region": "Mazovia",
    "short_region": "78",
    "lat": "51.587700",
    "lon": "21.224500"
  },
  {
    "id": "930400",
    "country": "PL",
    "zipcode": "26-90",
    "name": "Wólka Brzózka",
    "region": "Mazovia",
    "short_region": "78",
    "lat": "51.571000",
    "lon": "21.330900"
  },
  {
    "id": "930401",
    "country": "PL",
    "zipcode": "26-90",
    "name": "Lipa",
    "region": "Mazovia",
    "short_region": "78",
    "lat": "51.635700",
    "lon": "21.281100"
  },
  {
    "id": "930402",
    "country": "PL",
    "zipcode": "26-90",
    "name": "Moniochy",
    "region": "Mazovia",
    "short_region": "78",
    "lat": "51.643100",
    "lon": "21.306600"
  },
  {
    "id": "930403",
    "country": "PL",
    "zipcode": "26-90",
    "name": "Jasieniec",
    "region": "Mazovia",
    "short_region": "78",
    "lat": "51.657500",
    "lon": "21.274000"
  },
  {
    "id": "930404",
    "country": "PL",
    "zipcode": "26-90",
    "name": "Stawki",
    "region": "Mazovia",
    "short_region": "78",
    "lat": "51.569800",
    "lon": "21.304200"
  },
  {
    "id": "930405",
    "country": "PL",
    "zipcode": "26-90",
    "name": "Sewerynów",
    "region": "Mazovia",
    "short_region": "78",
    "lat": "51.601500",
    "lon": "21.385100"
  },
  {
    "id": "930406",
    "country": "PL",
    "zipcode": "26-91",
    "name": "Wola Magnuszewska",
    "region": "Mazovia",
    "short_region": "78",
    "lat": "51.763400",
    "lon": "21.352500"
  },
  {
    "id": "930407",
    "country": "PL",
    "zipcode": "26-91",
    "name": "Ostrów",
    "region": "Mazovia",
    "short_region": "78",
    "lat": "51.748400",
    "lon": "21.400300"
  },
  {
    "id": "930408",
    "country": "PL",
    "zipcode": "26-91",
    "name": "Grzybów",
    "region": "Mazovia",
    "short_region": "78",
    "lat": "51.775500",
    "lon": "21.367500"
  },
  {
    "id": "930409",
    "country": "PL",
    "zipcode": "26-91",
    "name": "Przewóz Tarnowski",
    "region": "Mazovia",
    "short_region": "78",
    "lat": "51.781800",
    "lon": "21.416200"
  },
  {
    "id": "930410",
    "country": "PL",
    "zipcode": "26-91",
    "name": "Mniszew",
    "region": "Mazovia",
    "short_region": "78",
    "lat": "51.835100",
    "lon": "21.301500"
  },
  {
    "id": "930411",
    "country": "PL",
    "zipcode": "26-91",
    "name": "Kłoda",
    "region": "Mazovia",
    "short_region": "78",
    "lat": "51.705100",
    "lon": "21.430400"
  },
  {
    "id": "930412",
    "country": "PL",
    "zipcode": "26-91",
    "name": "Wólka Tarnowska",
    "region": "Mazovia",
    "short_region": "78",
    "lat": "51.786400",
    "lon": "21.378000"
  },
  {
    "id": "930413",
    "country": "PL",
    "zipcode": "26-91",
    "name": "Bożówka",
    "region": "Mazovia",
    "short_region": "78",
    "lat": "51.723700",
    "lon": "21.394300"
  },
  {
    "id": "930414",
    "country": "PL",
    "zipcode": "26-91",
    "name": "Boguszków",
    "region": "Mazovia",
    "short_region": "78",
    "lat": "51.797200",
    "lon": "21.267500"
  },
  {
    "id": "930415",
    "country": "PL",
    "zipcode": "26-91",
    "name": "Przewóz Stary",
    "region": "Mazovia",
    "short_region": "78",
    "lat": "51.794200",
    "lon": "21.399800"
  },
  {
    "id": "930416",
    "country": "PL",
    "zipcode": "26-91",
    "name": "Basinów",
    "region": "Mazovia",
    "short_region": "78",
    "lat": "51.693200",
    "lon": "21.358600"
  },
  {
    "id": "930417",
    "country": "PL",
    "zipcode": "26-91",
    "name": "Zagroby",
    "region": "Mazovia",
    "short_region": "78",
    "lat": "51.824900",
    "lon": "21.297900"
  },
  {
    "id": "930418",
    "country": "PL",
    "zipcode": "26-91",
    "name": "Trzebień",
    "region": "Mazovia",
    "short_region": "78",
    "lat": "51.729900",
    "lon": "21.368800"
  },
  {
    "id": "930419",
    "country": "PL",
    "zipcode": "26-91",
    "name": "Wilczowola",
    "region": "Mazovia",
    "short_region": "78",
    "lat": "51.742300",
    "lon": "21.340300"
  },
  {
    "id": "930420",
    "country": "PL",
    "zipcode": "26-91",
    "name": "Magnuszew",
    "region": "Mazovia",
    "short_region": "78",
    "lat": "51.761400",
    "lon": "21.380500"
  },
  {
    "id": "930421",
    "country": "PL",
    "zipcode": "26-91",
    "name": "Rozniszew",
    "region": "Mazovia",
    "short_region": "78",
    "lat": "51.805200",
    "lon": "21.287400"
  },
  {
    "id": "930422",
    "country": "PL",
    "zipcode": "26-91",
    "name": "Kurki",
    "region": "Mazovia",
    "short_region": "78",
    "lat": "51.772500",
    "lon": "21.392900"
  },
  {
    "id": "930423",
    "country": "PL",
    "zipcode": "26-91",
    "name": "Latków",
    "region": "Mazovia",
    "short_region": "78",
    "lat": "51.765900",
    "lon": "21.419100"
  },
  {
    "id": "930424",
    "country": "PL",
    "zipcode": "26-91",
    "name": "Wilczkowice Dolne",
    "region": "Mazovia",
    "short_region": "78",
    "lat": "51.790700",
    "lon": "21.352800"
  },
  {
    "id": "930425",
    "country": "PL",
    "zipcode": "26-91",
    "name": "Urszulin",
    "region": "Mazovia",
    "short_region": "78",
    "lat": "51.765300",
    "lon": "21.307200"
  },
  {
    "id": "930426",
    "country": "PL",
    "zipcode": "26-91",
    "name": "Kępa Skórecka",
    "region": "Mazovia",
    "short_region": "78",
    "lat": "51.813400",
    "lon": "21.373200"
  },
  {
    "id": "930427",
    "country": "PL",
    "zipcode": "26-91",
    "name": "Stara Dębowola",
    "region": "Mazovia",
    "short_region": "78",
    "lat": "51.708200",
    "lon": "21.362000"
  },
  {
    "id": "930428",
    "country": "PL",
    "zipcode": "26-91",
    "name": "Tyborów",
    "region": "Mazovia",
    "short_region": "78",
    "lat": "51.754900",
    "lon": "21.338700"
  },
  {
    "id": "930429",
    "country": "PL",
    "zipcode": "26-91",
    "name": "Kolonia Rozniszew",
    "region": "Mazovia",
    "short_region": "78",
    "lat": "51.786600",
    "lon": "21.305600"
  },
  {
    "id": "930430",
    "country": "PL",
    "zipcode": "26-91",
    "name": "Aleksandrów",
    "region": "Mazovia",
    "short_region": "78",
    "lat": "51.768500",
    "lon": "21.332300"
  },
  {
    "id": "930431",
    "country": "PL",
    "zipcode": "26-91",
    "name": "Osiemborów",
    "region": "Mazovia",
    "short_region": "78",
    "lat": "51.779300",
    "lon": "21.323600"
  },
  {
    "id": "930432",
    "country": "PL",
    "zipcode": "26-91",
    "name": "Przydworzyce",
    "region": "Mazovia",
    "short_region": "78",
    "lat": "51.709700",
    "lon": "21.411000"
  },
  {
    "id": "930433",
    "country": "PL",
    "zipcode": "26-91",
    "name": "Anielin",
    "region": "Mazovia",
    "short_region": "78",
    "lat": "51.783900",
    "lon": "21.287800"
  },
  {
    "id": "930434",
    "country": "PL",
    "zipcode": "26-91",
    "name": "Dębowola",
    "region": "Mazovia",
    "short_region": "78",
    "lat": "51.706500",
    "lon": "21.366300"
  },
  {
    "id": "930435",
    "country": "PL",
    "zipcode": "26-91",
    "name": "Gruszczyn",
    "region": "Mazovia",
    "short_region": "78",
    "lat": "51.817800",
    "lon": "21.330300"
  },
  {
    "id": "930436",
    "country": "PL",
    "zipcode": "26-91",
    "name": "Chmielew",
    "region": "Mazovia",
    "short_region": "78",
    "lat": "51.814200",
    "lon": "21.343000"
  },
  {
    "id": "930437",
    "country": "PL",
    "zipcode": "26-91",
    "name": "Żelazna Stara",
    "region": "Mazovia",
    "short_region": "78",
    "lat": "51.795900",
    "lon": "21.328100"
  },
  {
    "id": "930438",
    "country": "PL",
    "zipcode": "26-91",
    "name": "Żelazna Nowa",
    "region": "Mazovia",
    "short_region": "78",
    "lat": "51.799100",
    "lon": "21.335700"
  },
  {
    "id": "930439",
    "country": "PL",
    "zipcode": "26-91",
    "name": "Rękowice",
    "region": "Mazovia",
    "short_region": "78",
    "lat": "51.829200",
    "lon": "21.317900"
  },
  {
    "id": "930440",
    "country": "PL",
    "zipcode": "26-92",
    "name": "Boguszówka",
    "region": "Mazovia",
    "short_region": "78",
    "lat": "51.448100",
    "lon": "21.834900"
  },
  {
    "id": "930441",
    "country": "PL",
    "zipcode": "26-92",
    "name": "Zalesie",
    "region": "Mazovia",
    "short_region": "78",
    "lat": "51.509600",
    "lon": "21.774900"
  },
  {
    "id": "930442",
    "country": "PL",
    "zipcode": "26-92",
    "name": "Sarnów",
    "region": "Mazovia",
    "short_region": "78",
    "lat": "51.457800",
    "lon": "21.766100"
  },
  {
    "id": "930443",
    "country": "PL",
    "zipcode": "26-92",
    "name": "Mieścisko",
    "region": "Mazovia",
    "short_region": "78",
    "lat": "51.460500",
    "lon": "21.751200"
  },
  {
    "id": "930444",
    "country": "PL",
    "zipcode": "26-92",
    "name": "Sławczyn",
    "region": "Mazovia",
    "short_region": "78",
    "lat": "51.496300",
    "lon": "21.782000"
  },
  {
    "id": "930445",
    "country": "PL",
    "zipcode": "26-92",
    "name": "Borek",
    "region": "Mazovia",
    "short_region": "78",
    "lat": "51.519700",
    "lon": "21.822400"
  },
  {
    "id": "930446",
    "country": "PL",
    "zipcode": "26-92",
    "name": "Zwola",
    "region": "Mazovia",
    "short_region": "78",
    "lat": "51.432400",
    "lon": "21.772100"
  },
  {
    "id": "930447",
    "country": "PL",
    "zipcode": "26-92",
    "name": "Wysokie Koło",
    "region": "Mazovia",
    "short_region": "78",
    "lat": "51.460500",
    "lon": "21.833500"
  },
  {
    "id": "930448",
    "country": "PL",
    "zipcode": "26-92",
    "name": "Markowola",
    "region": "Mazovia",
    "short_region": "78",
    "lat": "51.431500",
    "lon": "21.830100"
  },
  {
    "id": "930449",
    "country": "PL",
    "zipcode": "26-92",
    "name": "Gniewoszów",
    "region": "Mazovia",
    "short_region": "78",
    "lat": "51.473300",
    "lon": "21.812600"
  },
  {
    "id": "930450",
    "country": "PL",
    "zipcode": "26-92",
    "name": "Regów Stary",
    "region": "Mazovia",
    "short_region": "78",
    "lat": "51.491100",
    "lon": "21.839300"
  },
  {
    "id": "930451",
    "country": "PL",
    "zipcode": "26-92",
    "name": "Oleksów",
    "region": "Mazovia",
    "short_region": "78",
    "lat": "51.487900",
    "lon": "21.804400"
  },
  {
    "id": "930452",
    "country": "PL",
    "zipcode": "26-92",
    "name": "Zdunków",
    "region": "Mazovia",
    "short_region": "78",
    "lat": "51.455600",
    "lon": "21.798900"
  },
  {
    "id": "930453",
    "country": "PL",
    "zipcode": "26-92",
    "name": "Podmieście",
    "region": "Mazovia",
    "short_region": "78",
    "lat": "51.466600",
    "lon": "21.853300"
  },
  {
    "id": "930454",
    "country": "PL",
    "zipcode": "26-92",
    "name": "Kociołek",
    "region": "Mazovia",
    "short_region": "78",
    "lat": "51.471500",
    "lon": "21.742700"
  },
  {
    "id": "930455",
    "country": "PL",
    "zipcode": "26-92",
    "name": "Marianów",
    "region": "Mazovia",
    "short_region": "78",
    "lat": "51.437100",
    "lon": "21.801600"
  },
  {
    "id": "930456",
    "country": "PL",
    "zipcode": "26-92",
    "name": "Wólka Bachańska",
    "region": "Mazovia",
    "short_region": "78",
    "lat": "51.487400",
    "lon": "21.747100"
  },
  {
    "id": "930457",
    "country": "PL",
    "zipcode": "26-92",
    "name": "Markowola-Kolonia",
    "region": "Mazovia",
    "short_region": "78",
    "lat": "51.440900",
    "lon": "21.831800"
  },
  {
    "id": "930458",
    "country": "PL",
    "zipcode": "26-92",
    "name": "Regów Nowy",
    "region": "Mazovia",
    "short_region": "78",
    "lat": "51.468200",
    "lon": "21.821600"
  },
  {
    "id": "930459",
    "country": "PL",
    "zipcode": "26-92",
    "name": "Słowiki Nowe",
    "region": "Mazovia",
    "short_region": "78",
    "lat": "51.535700",
    "lon": "21.663600"
  },
  {
    "id": "930460",
    "country": "PL",
    "zipcode": "26-92",
    "name": "Słowiki-Folwark",
    "region": "Mazovia",
    "short_region": "78",
    "lat": "51.540500",
    "lon": "21.658000"
  },
  {
    "id": "930461",
    "country": "PL",
    "zipcode": "26-92",
    "name": "Głusiec",
    "region": "Mazovia",
    "short_region": "78",
    "lat": "51.558600",
    "lon": "21.801400"
  },
  {
    "id": "930462",
    "country": "PL",
    "zipcode": "26-92",
    "name": "Mozolice Duże",
    "region": "Mazovia",
    "short_region": "78",
    "lat": "51.549400",
    "lon": "21.687200"
  },
  {
    "id": "930463",
    "country": "PL",
    "zipcode": "26-92",
    "name": "Wola Klasztorna",
    "region": "Mazovia",
    "short_region": "78",
    "lat": "51.518700",
    "lon": "21.756200"
  },
  {
    "id": "930464",
    "country": "PL",
    "zipcode": "26-92",
    "name": "Łoje",
    "region": "Mazovia",
    "short_region": "78",
    "lat": "51.553400",
    "lon": "21.735500"
  },
  {
    "id": "930465",
    "country": "PL",
    "zipcode": "26-92",
    "name": "Zbyczyn",
    "region": "Mazovia",
    "short_region": "78",
    "lat": "51.549100",
    "lon": "21.781600"
  },
  {
    "id": "930466",
    "country": "PL",
    "zipcode": "26-92",
    "name": "Wólka Wojcieszkowska",
    "region": "Mazovia",
    "short_region": "78",
    "lat": "51.525400",
    "lon": "21.806100"
  },
  {
    "id": "930467",
    "country": "PL",
    "zipcode": "26-92",
    "name": "Nagórnik",
    "region": "Mazovia",
    "short_region": "78",
    "lat": "51.527700",
    "lon": "21.790500"
  },
  {
    "id": "930468",
    "country": "PL",
    "zipcode": "26-92",
    "name": "Sieciechów",
    "region": "Mazovia",
    "short_region": "78",
    "lat": "51.538000",
    "lon": "21.741100"
  },
  {
    "id": "930469",
    "country": "PL",
    "zipcode": "26-92",
    "name": "Zajezierze",
    "region": "Mazovia",
    "short_region": "78",
    "lat": "51.542500",
    "lon": "21.814800"
  },
  {
    "id": "930470",
    "country": "PL",
    "zipcode": "26-92",
    "name": "Słowiki Stare",
    "region": "Mazovia",
    "short_region": "78",
    "lat": "51.538800",
    "lon": "21.644100"
  },
  {
    "id": "930471",
    "country": "PL",
    "zipcode": "26-92",
    "name": "Opactwo",
    "region": "Mazovia",
    "short_region": "78",
    "lat": "51.535500",
    "lon": "21.770500"
  },
  {
    "id": "930472",
    "country": "PL",
    "zipcode": "26-92",
    "name": "Występ",
    "region": "Mazovia",
    "short_region": "78",
    "lat": "51.548300",
    "lon": "21.797600"
  },
  {
    "id": "930473",
    "country": "PL",
    "zipcode": "26-92",
    "name": "Mozolice Małe",
    "region": "Mazovia",
    "short_region": "78",
    "lat": "51.561300",
    "lon": "21.673600"
  },
  {
    "id": "930474",
    "country": "PL",
    "zipcode": "26-92",
    "name": "Kępice",
    "region": "Mazovia",
    "short_region": "78",
    "lat": "51.547900",
    "lon": "21.762400"
  },
  {
    "id": "930475",
    "country": "PL",
    "zipcode": "26-93",
    "name": "Bogucin",
    "region": "Mazovia",
    "short_region": "78",
    "lat": "51.499700",
    "lon": "21.568800"
  },
  {
    "id": "930476",
    "country": "PL",
    "zipcode": "26-93",
    "name": "Brzustów",
    "region": "Mazovia",
    "short_region": "78",
    "lat": "51.474200",
    "lon": "21.567800"
  },
  {
    "id": "930477",
    "country": "PL",
    "zipcode": "26-93",
    "name": "Garbatka Nowa",
    "region": "Mazovia",
    "short_region": "78",
    "lat": "51.475400",
    "lon": "21.650400"
  },
  {
    "id": "930478",
    "country": "PL",
    "zipcode": "26-93",
    "name": "Garbatka-Zbyczyn",
    "region": "Mazovia",
    "short_region": "78",
    "lat": "51.482700",
    "lon": "21.672200"
  },
  {
    "id": "930479",
    "country": "PL",
    "zipcode": "26-93",
    "name": "Żytkowice",
    "region": "Mazovia",
    "short_region": "78",
    "lat": "51.484000",
    "lon": "21.557700"
  },
  {
    "id": "930480",
    "country": "PL",
    "zipcode": "26-93",
    "name": "Garbatka-Dziewiątka",
    "region": "Mazovia",
    "short_region": "78",
    "lat": "51.491900",
    "lon": "21.682000"
  },
  {
    "id": "930481",
    "country": "PL",
    "zipcode": "26-93",
    "name": "Garbatka Długa",
    "region": "Mazovia",
    "short_region": "78",
    "lat": "51.485600",
    "lon": "21.646300"
  },
  {
    "id": "930482",
    "country": "PL",
    "zipcode": "26-93",
    "name": "Bąkowiec",
    "region": "Mazovia",
    "short_region": "78",
    "lat": "51.502900",
    "lon": "21.707400"
  },
  {
    "id": "930483",
    "country": "PL",
    "zipcode": "26-93",
    "name": "Ponikwa",
    "region": "Mazovia",
    "short_region": "78",
    "lat": "51.484300",
    "lon": "21.597000"
  },
  {
    "id": "930484",
    "country": "PL",
    "zipcode": "26-93",
    "name": "Molendy",
    "region": "Mazovia",
    "short_region": "78",
    "lat": "51.510100",
    "lon": "21.608000"
  },
  {
    "id": "930485",
    "country": "PL",
    "zipcode": "26-93",
    "name": "Garbatka-Letnisko",
    "region": "Mazovia",
    "short_region": "78",
    "lat": "51.493700",
    "lon": "21.631800"
  },
  {
    "id": "930486",
    "country": "PL",
    "zipcode": "26-93",
    "name": "Anielin",
    "region": "Mazovia",
    "short_region": "78",
    "lat": "51.461500",
    "lon": "21.547300"
  },
  {
    "id": "930487",
    "country": "PL",
    "zipcode": "05-10",
    "name": "Trzciany",
    "region": "Mazovia",
    "short_region": "78",
    "lat": "52.418100",
    "lon": "20.805600"
  },
  {
    "id": "930488",
    "country": "PL",
    "zipcode": "05-10",
    "name": "Skierdy",
    "region": "Mazovia",
    "short_region": "78",
    "lat": "52.405400",
    "lon": "20.812400"
  },
  {
    "id": "930489",
    "country": "PL",
    "zipcode": "05-10",
    "name": "Suchocin",
    "region": "Mazovia",
    "short_region": "78",
    "lat": "52.408300",
    "lon": "20.784000"
  },
  {
    "id": "930490",
    "country": "PL",
    "zipcode": "05-10",
    "name": "Boża Wola",
    "region": "Mazovia",
    "short_region": "78",
    "lat": "52.415800",
    "lon": "20.762700"
  },
  {
    "id": "930491",
    "country": "PL",
    "zipcode": "05-10",
    "name": "Janówek Drugi",
    "region": "Mazovia",
    "short_region": "78",
    "lat": "52.422700",
    "lon": "20.795900"
  },
  {
    "id": "930492",
    "country": "PL",
    "zipcode": "05-10",
    "name": "Wólka Górska",
    "region": "Mazovia",
    "short_region": "78",
    "lat": "52.412200",
    "lon": "20.750100"
  },
  {
    "id": "930493",
    "country": "PL",
    "zipcode": "05-10",
    "name": "Legionowo",
    "region": "Mazovia",
    "short_region": "78",
    "lat": "52.403700",
    "lon": "20.927000"
  },
  {
    "id": "930494",
    "country": "PL",
    "zipcode": "05-11",
    "name": "Rajszew",
    "region": "Mazovia",
    "short_region": "78",
    "lat": "52.394700",
    "lon": "20.838100"
  },
  {
    "id": "930495",
    "country": "PL",
    "zipcode": "05-11",
    "name": "Wólka Górska",
    "region": "Mazovia",
    "short_region": "78",
    "lat": "52.412000",
    "lon": "20.747400"
  },
  {
    "id": "930496",
    "country": "PL",
    "zipcode": "05-11",
    "name": "Jabłonna",
    "region": "Mazovia",
    "short_region": "78",
    "lat": "52.379100",
    "lon": "20.922400"
  },
  {
    "id": "930497",
    "country": "PL",
    "zipcode": "05-11",
    "name": "Boża Wola",
    "region": "Mazovia",
    "short_region": "78",
    "lat": "52.415400",
    "lon": "20.764800"
  },
  {
    "id": "930498",
    "country": "PL",
    "zipcode": "05-11",
    "name": "Legionowo",
    "region": "Mazovia",
    "short_region": "78",
    "lat": "52.402600",
    "lon": "20.924100"
  },
  {
    "id": "930499",
    "country": "PL",
    "zipcode": "05-11",
    "name": "Stanisławów Drugi",
    "region": "Mazovia",
    "short_region": "78",
    "lat": "52.408500",
    "lon": "20.970300"
  },
  {
    "id": "930500",
    "country": "PL",
    "zipcode": "05-11",
    "name": "Łajski",
    "region": "Mazovia",
    "short_region": "78",
    "lat": "52.429100",
    "lon": "20.941900"
  },
  {
    "id": "930501",
    "country": "PL",
    "zipcode": "05-11",
    "name": "Michałów-Reginów",
    "region": "Mazovia",
    "short_region": "78",
    "lat": "52.425000",
    "lon": "20.968500"
  },
  {
    "id": "930502",
    "country": "PL",
    "zipcode": "05-11",
    "name": "Wola Aleksandra",
    "region": "Mazovia",
    "short_region": "78",
    "lat": "52.402900",
    "lon": "20.989700"
  },
  {
    "id": "930503",
    "country": "PL",
    "zipcode": "05-11",
    "name": "Józefów",
    "region": "Mazovia",
    "short_region": "78",
    "lat": "52.383100",
    "lon": "20.995100"
  },
  {
    "id": "930504",
    "country": "PL",
    "zipcode": "05-12",
    "name": "Legionowo",
    "region": "Mazovia",
    "short_region": "78",
    "lat": "52.406600",
    "lon": "20.928800"
  },
  {
    "id": "930505",
    "country": "PL",
    "zipcode": "05-12",
    "name": "Chotomów",
    "region": "Mazovia",
    "short_region": "78",
    "lat": "52.410800",
    "lon": "20.886700"
  },