[
  {
    "id": "320001",
    "country": "IN",
    "zipcode": "41540",
    "name": "Yedemachindra",
    "region": "Maharashtra",
    "short_region": "16",
    "lat": "17.050000",
    "lon": "74.266700"
  },
  {
    "id": "320002",
    "country": "IN",
    "zipcode": "41540",
    "name": "Aitawade Khurd",
    "region": "Maharashtra",
    "short_region": "16",
    "lat": "17.050000",
    "lon": "74.266700"
  },
  {
    "id": "320003",
    "country": "IN",
    "zipcode": "41540",
    "name": "Kapuskhed",
    "region": "Maharashtra",
    "short_region": "16",
    "lat": "17.050000",
    "lon": "74.266700"
  },
  {
    "id": "320004",
    "country": "IN",
    "zipcode": "41540",
    "name": "Narsinhpur",
    "region": "Maharashtra",
    "short_region": "16",
    "lat": "17.050000",
    "lon": "74.266700"
  },
  {
    "id": "320005",
    "country": "IN",
    "zipcode": "41540",
    "name": "Shirte",
    "region": "Maharashtra",
    "short_region": "16",
    "lat": "17.050000",
    "lon": "74.266700"
  },
  {
    "id": "320006",
    "country": "IN",
    "zipcode": "41540",
    "name": "Bahe",
    "region": "Maharashtra",
    "short_region": "16",
    "lat": "17.050000",
    "lon": "74.266700"
  },
  {
    "id": "320007",
    "country": "IN",
    "zipcode": "41540",
    "name": "Urun Islampur",
    "region": "Maharashtra",
    "short_region": "16",
    "lat": "17.050000",
    "lon": "74.266700"
  },
  {
    "id": "320008",
    "country": "IN",
    "zipcode": "41541",
    "name": "Pachumbri",
    "region": "Maharashtra",
    "short_region": "16",
    "lat": "17.100900",
    "lon": "74.159100"
  },
  {
    "id": "320009",
    "country": "IN",
    "zipcode": "41541",
    "name": "Bambavade",
    "region": "Maharashtra",
    "short_region": "16",
    "lat": "17.100900",
    "lon": "74.159100"
  },
  {
    "id": "320010",
    "country": "IN",
    "zipcode": "41541",
    "name": "Panumbre Turf Shirala",
    "region": "Maharashtra",
    "short_region": "16",
    "lat": "17.100900",
    "lon": "74.159100"
  },
  {
    "id": "320011",
    "country": "IN",
    "zipcode": "41541",
    "name": "Takave",
    "region": "Maharashtra",
    "short_region": "16",
    "lat": "17.100900",
    "lon": "74.159100"
  },
  {
    "id": "320012",
    "country": "IN",
    "zipcode": "41541",
    "name": "Wategaon",
    "region": "Maharashtra",
    "short_region": "16",
    "lat": "17.100900",
    "lon": "74.159100"
  },
  {
    "id": "320013",
    "country": "IN",
    "zipcode": "41541",
    "name": "Kurlap",
    "region": "Maharashtra",
    "short_region": "16",
    "lat": "18.235600",
    "lon": "76.285100"
  },
  {
    "id": "320014",
    "country": "IN",
    "zipcode": "41541",
    "name": "Kundalwadi",
    "region": "Maharashtra",
    "short_region": "16",
    "lat": "18.235600",
    "lon": "76.285100"
  },
  {
    "id": "320015",
    "country": "IN",
    "zipcode": "41541",
    "name": "Bahadurwadi",
    "region": "Maharashtra",
    "short_region": "16",
    "lat": "17.112000",
    "lon": "74.769900"
  },
  {
    "id": "320016",
    "country": "IN",
    "zipcode": "41541",
    "name": "Yelur",
    "region": "Maharashtra",
    "short_region": "16",
    "lat": "18.235600",
    "lon": "76.285100"
  },
  {
    "id": "320017",
    "country": "IN",
    "zipcode": "41541",
    "name": "Kanegaon",
    "region": "Maharashtra",
    "short_region": "16",
    "lat": "17.112000",
    "lon": "74.769900"
  },
  {
    "id": "320018",
    "country": "IN",
    "zipcode": "41541",
    "name": "Tandulwadi",
    "region": "Maharashtra",
    "short_region": "16",
    "lat": "17.112000",
    "lon": "74.769900"
  },
  {
    "id": "320019",
    "country": "IN",
    "zipcode": "41541",
    "name": "Devwadi",
    "region": "Maharashtra",
    "short_region": "16",
    "lat": "17.951900",
    "lon": "75.753600"
  },
  {
    "id": "320020",
    "country": "IN",
    "zipcode": "41541",
    "name": "Mangale",
    "region": "Maharashtra",
    "short_region": "16",
    "lat": "17.951900",
    "lon": "75.753600"
  },
  {
    "id": "320021",
    "country": "IN",
    "zipcode": "41541",
    "name": "Kande",
    "region": "Maharashtra",
    "short_region": "16",
    "lat": "17.951900",
    "lon": "75.753600"
  },
  {
    "id": "320022",
    "country": "IN",
    "zipcode": "41541",
    "name": "Thanapude",
    "region": "Maharashtra",
    "short_region": "16",
    "lat": "17.951900",
    "lon": "75.753600"
  },
  {
    "id": "320023",
    "country": "IN",
    "zipcode": "41541",
    "name": "Chikurde",
    "region": "Maharashtra",
    "short_region": "16",
    "lat": "17.951900",
    "lon": "75.753600"
  },
  {
    "id": "320024",
    "country": "IN",
    "zipcode": "41541",
    "name": "Borgaon (Sangli)",
    "region": "Maharashtra",
    "short_region": "16",
    "lat": "17.951900",
    "lon": "75.753600"
  },
  {
    "id": "320025",
    "country": "IN",
    "zipcode": "41541",
    "name": "Masuchiwadi",
    "region": "Maharashtra",
    "short_region": "16",
    "lat": "17.951900",
    "lon": "75.753600"
  },
  {
    "id": "320026",
    "country": "IN",
    "zipcode": "41541",
    "name": "S S K Sakharale",
    "region": "Maharashtra",
    "short_region": "16",
    "lat": "17.951900",
    "lon": "75.753600"
  },
  {
    "id": "320027",
    "country": "IN",
    "zipcode": "41541",
    "name": "Sakharale",
    "region": "Maharashtra",
    "short_region": "16",
    "lat": "17.951900",
    "lon": "75.753600"
  },
  {
    "id": "320028",
    "country": "IN",
    "zipcode": "41541",
    "name": "Kalundre",
    "region": "Maharashtra",
    "short_region": "16",
    "lat": "17.951900",
    "lon": "75.753600"
  },
  {
    "id": "320029",
    "country": "IN",
    "zipcode": "41541",
    "name": "Karanguli",
    "region": "Maharashtra",
    "short_region": "16",
    "lat": "17.951900",
    "lon": "75.753600"
  },
  {
    "id": "320030",
    "country": "IN",
    "zipcode": "41541",
    "name": "Sonavade",
    "region": "Maharashtra",
    "short_region": "16",
    "lat": "17.951900",
    "lon": "75.753600"
  },
  {
    "id": "320031",
    "country": "IN",
    "zipcode": "41541",
    "name": "Warnavati Vasahat",
    "region": "Maharashtra",
    "short_region": "16",
    "lat": "17.951900",
    "lon": "75.753600"
  },
  {
    "id": "320032",
    "country": "IN",
    "zipcode": "41541",
    "name": "Arala",
    "region": "Maharashtra",
    "short_region": "16",
    "lat": "17.112000",
    "lon": "74.769900"
  },
  {
    "id": "320033",
    "country": "IN",
    "zipcode": "41630",
    "name": "Bavachi",
    "region": "Maharashtra",
    "short_region": "16",
    "lat": "17.378800",
    "lon": "74.312300"
  },
  {
    "id": "320034",
    "country": "IN",
    "zipcode": "41630",
    "name": "Gotkhindi",
    "region": "Maharashtra",
    "short_region": "16",
    "lat": "17.378800",
    "lon": "74.312300"
  },
  {
    "id": "320035",
    "country": "IN",
    "zipcode": "41630",
    "name": "Mirajwadi",
    "region": "Maharashtra",
    "short_region": "16",
    "lat": "17.378800",
    "lon": "74.312300"
  },
  {
    "id": "320036",
    "country": "IN",
    "zipcode": "41630",
    "name": "Mardwadi",
    "region": "Maharashtra",
    "short_region": "16",
    "lat": "17.378800",
    "lon": "74.312300"
  },
  {
    "id": "320037",
    "country": "IN",
    "zipcode": "41630",
    "name": "Tung",
    "region": "Maharashtra",
    "short_region": "16",
    "lat": "17.378800",
    "lon": "74.312300"
  },
  {
    "id": "320038",
    "country": "IN",
    "zipcode": "41630",
    "name": "Ashte",
    "region": "Maharashtra",
    "short_region": "16",
    "lat": "17.378800",
    "lon": "74.312300"
  },
  {
    "id": "320039",
    "country": "IN",
    "zipcode": "41630",
    "name": "Pokharni",
    "region": "Maharashtra",
    "short_region": "16",
    "lat": "17.112000",
    "lon": "74.769900"
  },
  {
    "id": "320040",
    "country": "IN",
    "zipcode": "41630",
    "name": "Karandwadi",
    "region": "Maharashtra",
    "short_region": "16",
    "lat": "17.378800",
    "lon": "74.312300"
  },
  {
    "id": "320041",
    "country": "IN",
    "zipcode": "41630",
    "name": "Nagaon",
    "region": "Maharashtra",
    "short_region": "16",
    "lat": "17.112000",
    "lon": "74.769900"
  },
  {
    "id": "320042",
    "country": "IN",
    "zipcode": "41630",
    "name": "Koregaon",
    "region": "Maharashtra",
    "short_region": "16",
    "lat": "17.112000",
    "lon": "74.769900"
  },
  {
    "id": "320043",
    "country": "IN",
    "zipcode": "41630",
    "name": "Bagani",
    "region": "Maharashtra",
    "short_region": "16",
    "lat": "17.739700",
    "lon": "73.806000"
  },
  {
    "id": "320044",
    "country": "IN",
    "zipcode": "41630",
    "name": "Bhadkimbe",
    "region": "Maharashtra",
    "short_region": "16",
    "lat": "17.739700",
    "lon": "73.806000"
  },
  {
    "id": "320045",
    "country": "IN",
    "zipcode": "41630",
    "name": "Shigaon",
    "region": "Maharashtra",
    "short_region": "16",
    "lat": "17.739700",
    "lon": "73.806000"
  },
  {
    "id": "320046",
    "country": "IN",
    "zipcode": "41630",
    "name": "Dhavali",
    "region": "Maharashtra",
    "short_region": "16",
    "lat": "16.906600",
    "lon": "74.351600"
  },
  {
    "id": "320047",
    "country": "IN",
    "zipcode": "41630",
    "name": "Tavadarwadi",
    "region": "Maharashtra",
    "short_region": "16",
    "lat": "16.989100",
    "lon": "74.467900"
  },
  {
    "id": "320048",
    "country": "IN",
    "zipcode": "41630",
    "name": "Audumbar",
    "region": "Maharashtra",
    "short_region": "16",
    "lat": "16.989100",
    "lon": "74.467900"
  },
  {
    "id": "320049",
    "country": "IN",
    "zipcode": "41630",
    "name": "Bhilwadi R.S.",
    "region": "Maharashtra",
    "short_region": "16",
    "lat": "16.989100",
    "lon": "74.467900"
  },
  {
    "id": "320050",
    "country": "IN",
    "zipcode": "41630",
    "name": "Bhilavadi",
    "region": "Maharashtra",
    "short_region": "16",
    "lat": "16.989100",
    "lon": "74.467900"
  },
  {
    "id": "320051",
    "country": "IN",
    "zipcode": "41630",
    "name": "Budhgaon",
    "region": "Maharashtra",
    "short_region": "16",
    "lat": "16.907400",
    "lon": "74.599500"
  },
  {
    "id": "320052",
    "country": "IN",
    "zipcode": "41630",
    "name": "Bisur",
    "region": "Maharashtra",
    "short_region": "16",
    "lat": "16.907400",
    "lon": "74.599500"
  },
  {
    "id": "320053",
    "country": "IN",
    "zipcode": "41630",
    "name": "Kavaji Khotwadi",
    "region": "Maharashtra",
    "short_region": "16",
    "lat": "16.907400",
    "lon": "74.599500"
  },
  {
    "id": "320054",
    "country": "IN",
    "zipcode": "41630",
    "name": "Digraj Kasaba Agri School",
    "region": "Maharashtra",
    "short_region": "16",
    "lat": "17.378800",
    "lon": "74.312300"
  },
  {
    "id": "320055",
    "country": "IN",
    "zipcode": "41630",
    "name": "Digraj Kasaba",
    "region": "Maharashtra",
    "short_region": "16",
    "lat": "17.378800",
    "lon": "74.312300"
  },
  {
    "id": "320056",
    "country": "IN",
    "zipcode": "41630",
    "name": "Kavalapur",
    "region": "Maharashtra",
    "short_region": "16",
    "lat": "17.378800",
    "lon": "74.312300"
  },
  {
    "id": "320057",
    "country": "IN",
    "zipcode": "41630",
    "name": "Kanchanpur",
    "region": "Maharashtra",
    "short_region": "16",
    "lat": "17.112000",
    "lon": "74.769900"
  },
  {
    "id": "320058",
    "country": "IN",
    "zipcode": "41630",
    "name": "Upalavi",
    "region": "Maharashtra",
    "short_region": "16",
    "lat": "17.378800",
    "lon": "74.312300"
  },
  {
    "id": "320059",
    "country": "IN",
    "zipcode": "41630",
    "name": "Kumatha",
    "region": "Maharashtra",
    "short_region": "16",
    "lat": "17.378800",
    "lon": "74.312300"
  },
  {
    "id": "320060",
    "country": "IN",
    "zipcode": "41630",
    "name": "Kavathe Ekand",
    "region": "Maharashtra",
    "short_region": "16",
    "lat": "17.378800",
    "lon": "74.312300"
  },
  {
    "id": "320061",
    "country": "IN",
    "zipcode": "41630",
    "name": "Kirloskarwadi",
    "region": "Maharashtra",
    "short_region": "16",
    "lat": "17.416800",
    "lon": "75.290400"
  },
  {
    "id": "320062",
    "country": "IN",
    "zipcode": "41630",
    "name": "Nagarale",
    "region": "Maharashtra",
    "short_region": "16",
    "lat": "17.416800",
    "lon": "75.290400"
  },
  {
    "id": "320063",
    "country": "IN",
    "zipcode": "41630",
    "name": "Dudhondi",
    "region": "Maharashtra",
    "short_region": "16",
    "lat": "17.416800",
    "lon": "75.290400"
  },
  {
    "id": "320064",
    "country": "IN",
    "zipcode": "41630",
    "name": "Ramanandnagar",
    "region": "Maharashtra",
    "short_region": "16",
    "lat": "17.416800",
    "lon": "75.290400"
  },
  {
    "id": "320065",
    "country": "IN",
    "zipcode": "41630",
    "name": "Punadi T/F Walwa",
    "region": "Maharashtra",
    "short_region": "16",
    "lat": "17.416800",
    "lon": "75.290400"
  },
  {
    "id": "320066",
    "country": "IN",
    "zipcode": "41630",
    "name": "Amnapur",
    "region": "Maharashtra",
    "short_region": "16",
    "lat": "17.416800",
    "lon": "75.290400"
  },
  {
    "id": "320067",
    "country": "IN",
    "zipcode": "41630",
    "name": "Burli",
    "region": "Maharashtra",
    "short_region": "16",
    "lat": "17.112000",
    "lon": "74.769900"
  },
  {
    "id": "320068",
    "country": "IN",
    "zipcode": "41630",
    "name": "Kundal (Sangli)",
    "region": "Maharashtra",
    "short_region": "16",
    "lat": "17.119000",
    "lon": "74.410600"
  },
  {
    "id": "320069",
    "country": "IN",
    "zipcode": "41630",
    "name": "Balavadi(Bhalavani)",
    "region": "Maharashtra",
    "short_region": "16",
    "lat": "17.119000",
    "lon": "74.410600"
  },
  {
    "id": "320070",
    "country": "IN",
    "zipcode": "41630",
    "name": "Ghogaon",
    "region": "Maharashtra",
    "short_region": "16",
    "lat": "17.119000",
    "lon": "74.410600"
  },
  {
    "id": "320071",
    "country": "IN",
    "zipcode": "41631",
    "name": "Bambavade",
    "region": "Maharashtra",
    "short_region": "16",
    "lat": "17.088100",
    "lon": "74.457100"
  },
  {
    "id": "320072",
    "country": "IN",
    "zipcode": "41631",
    "name": "Morale",
    "region": "Maharashtra",
    "short_region": "16",
    "lat": "17.088100",
    "lon": "74.457100"
  },
  {
    "id": "320073",
    "country": "IN",
    "zipcode": "41631",
    "name": "Sawantpur",
    "region": "Maharashtra",
    "short_region": "16",
    "lat": "17.088100",
    "lon": "74.457100"
  },
  {
    "id": "320074",
    "country": "IN",
    "zipcode": "41631",
    "name": "Andhali",
    "region": "Maharashtra",
    "short_region": "16",
    "lat": "17.088100",
    "lon": "74.457100"
  },
  {
    "id": "320075",
    "country": "IN",
    "zipcode": "41631",
    "name": "Rajapur",
    "region": "Maharashtra",
    "short_region": "16",
    "lat": "17.112000",
    "lon": "74.769900"
  },
  {
    "id": "320076",
    "country": "IN",
    "zipcode": "41631",
    "name": "Palus",
    "region": "Maharashtra",
    "short_region": "16",
    "lat": "17.088100",
    "lon": "74.457100"
  },
  {
    "id": "320077",
    "country": "IN",
    "zipcode": "41631",
    "name": "Jarandi",
    "region": "Maharashtra",
    "short_region": "16",
    "lat": "17.112000",
    "lon": "74.769900"
  },
  {
    "id": "320078",
    "country": "IN",
    "zipcode": "41631",
    "name": "Anjani",
    "region": "Maharashtra",
    "short_region": "16",
    "lat": "17.112000",
    "lon": "74.769900"
  },
  {
    "id": "320079",
    "country": "IN",
    "zipcode": "41631",
    "name": "Khujgaon",
    "region": "Maharashtra",
    "short_region": "16",
    "lat": "19.307100",
    "lon": "75.397500"
  },
  {
    "id": "320080",
    "country": "IN",
    "zipcode": "41631",
    "name": "Vadgaon",
    "region": "Maharashtra",
    "short_region": "16",
    "lat": "17.112000",
    "lon": "74.769900"
  },
  {
    "id": "320081",
    "country": "IN",
    "zipcode": "41631",
    "name": "Dahiwadi",
    "region": "Maharashtra",
    "short_region": "16",
    "lat": "19.307100",
    "lon": "75.397500"
  },
  {
    "id": "320082",
    "country": "IN",
    "zipcode": "41631",
    "name": "Siddhewadi Savalaj",
    "region": "Maharashtra",
    "short_region": "16",
    "lat": "19.307100",
    "lon": "75.397500"
  },
  {
    "id": "320083",
    "country": "IN",
    "zipcode": "41631",
    "name": "Bastawade",
    "region": "Maharashtra",
    "short_region": "16",
    "lat": "19.307100",
    "lon": "75.397500"
  },
  {
    "id": "320084",
    "country": "IN",
    "zipcode": "41631",
    "name": "Dongarsoni",
    "region": "Maharashtra",
    "short_region": "16",
    "lat": "19.307100",
    "lon": "75.397500"
  },
  {
    "id": "320085",
    "country": "IN",
    "zipcode": "41631",
    "name": "Banur",
    "region": "Maharashtra",
    "short_region": "16",
    "lat": "19.307100",
    "lon": "75.397500"
  },
  {
    "id": "320086",
    "country": "IN",
    "zipcode": "41631",
    "name": "Savlaj",
    "region": "Maharashtra",
    "short_region": "16",
    "lat": "17.109400",
    "lon": "74.765800"
  },
  {
    "id": "320087",
    "country": "IN",
    "zipcode": "41631",
    "name": "Limb",
    "region": "Maharashtra",
    "short_region": "16",
    "lat": "19.076000",
    "lon": "75.105800"
  },
  {
    "id": "320088",
    "country": "IN",
    "zipcode": "41631",
    "name": "Gaurgaon",
    "region": "Maharashtra",
    "short_region": "16",
    "lat": "19.076000",
    "lon": "75.105800"
  },
  {
    "id": "320089",
    "country": "IN",
    "zipcode": "41631",
    "name": "Manjarde",
    "region": "Maharashtra",
    "short_region": "16",
    "lat": "19.076000",
    "lon": "75.105800"
  },
  {
    "id": "320090",
    "country": "IN",
    "zipcode": "41631",
    "name": "Arawade",
    "region": "Maharashtra",
    "short_region": "16",
    "lat": "19.076000",
    "lon": "75.105800"
  },
  {
    "id": "320091",
    "country": "IN",
    "zipcode": "41631",
    "name": "Nimblak",
    "region": "Maharashtra",
    "short_region": "16",
    "lat": "19.076000",
    "lon": "75.105800"
  },
  {
    "id": "320092",
    "country": "IN",
    "zipcode": "41631",
    "name": "Nimani",
    "region": "Maharashtra",
    "short_region": "16",
    "lat": "19.076000",
    "lon": "75.105800"
  },
  {
    "id": "320093",
    "country": "IN",
    "zipcode": "41631",
    "name": "Balagavade",
    "region": "Maharashtra",
    "short_region": "16",
    "lat": "19.076000",
    "lon": "75.105800"
  },
  {
    "id": "320094",
    "country": "IN",
    "zipcode": "41631",
    "name": "Biranwadi",
    "region": "Maharashtra",
    "short_region": "16",
    "lat": "19.076000",
    "lon": "75.105800"
  },
  {
    "id": "320095",
    "country": "IN",
    "zipcode": "41631",
    "name": "Borgaon (T)",
    "region": "Maharashtra",
    "short_region": "16",
    "lat": "19.076000",
    "lon": "75.105800"
  },
  {
    "id": "320096",
    "country": "IN",
    "zipcode": "41631",
    "name": "Chinchani (T)",
    "region": "Maharashtra",
    "short_region": "16",
    "lat": "19.076000",
    "lon": "75.105800"
  },
  {
    "id": "320097",
    "country": "IN",
    "zipcode": "41631",
    "name": "Lode",
    "region": "Maharashtra",
    "short_region": "16",
    "lat": "19.076000",
    "lon": "75.105800"
  },
  {
    "id": "320098",
    "country": "IN",
    "zipcode": "41631",
    "name": "Karanje",
    "region": "Maharashtra",
    "short_region": "16",
    "lat": "19.076000",
    "lon": "75.105800"
  },
  {
    "id": "320099",
    "country": "IN",
    "zipcode": "41631",
    "name": "Dhavali (T)",
    "region": "Maharashtra",
    "short_region": "16",
    "lat": "19.076000",
    "lon": "75.105800"
  },
  {
    "id": "320100",
    "country": "IN",
    "zipcode": "41631",
    "name": "Tasgaon M.D.G",
    "region": "Maharashtra",
    "short_region": "16",
    "lat": "19.076000",
    "lon": "75.105800"
  },
  {
    "id": "320101",
    "country": "IN",
    "zipcode": "41631",
    "name": "Turchi",
    "region": "Maharashtra",
    "short_region": "16",
    "lat": "19.076000",
    "lon": "75.105800"
  },
  {
    "id": "320102",
    "country": "IN",
    "zipcode": "41631",
    "name": "Punadi (T)",
    "region": "Maharashtra",
    "short_region": "16",
    "lat": "19.076000",
    "lon": "75.105800"
  },
  {
    "id": "320103",
    "country": "IN",
    "zipcode": "41631",
    "name": "Bendri",
    "region": "Maharashtra",
    "short_region": "16",
    "lat": "17.112000",
    "lon": "74.769900"
  },
  {
    "id": "320104",
    "country": "IN",
    "zipcode": "41631",
    "name": "Guruwar Peth,tasgaon",
    "region": "Maharashtra",
    "short_region": "16",
    "lat": "19.076000",
    "lon": "75.105800"
  },
  {
    "id": "320105",
    "country": "IN",
    "zipcode": "41631",
    "name": "Ped",
    "region": "Maharashtra",
    "short_region": "16",
    "lat": "19.076000",
    "lon": "75.105800"
  },
  {
    "id": "320106",
    "country": "IN",
    "zipcode": "41631",
    "name": "Waiphale",
    "region": "Maharashtra",
    "short_region": "16",
    "lat": "19.076000",
    "lon": "75.105800"
  },
  {
    "id": "320107",
    "country": "IN",
    "zipcode": "41631",
    "name": "Yamgarwadi",
    "region": "Maharashtra",
    "short_region": "16",
    "lat": "19.076000",
    "lon": "75.105800"
  },
  {
    "id": "320108",
    "country": "IN",
    "zipcode": "41631",
    "name": "Vasumbe (T)",
    "region": "Maharashtra",
    "short_region": "16",
    "lat": "19.076000",
    "lon": "75.105800"
  },
  {
    "id": "320109",
    "country": "IN",
    "zipcode": "41631",
    "name": "Nagthane",
    "region": "Maharashtra",
    "short_region": "16",
    "lat": "19.076000",
    "lon": "75.105800"
  },
  {
    "id": "320110",
    "country": "IN",
    "zipcode": "41631",
    "name": "Junekhed",
    "region": "Maharashtra",
    "short_region": "16",
    "lat": "19.076000",
    "lon": "75.105800"
  },
  {
    "id": "320111",
    "country": "IN",
    "zipcode": "41631",
    "name": "Walwa",
    "region": "Maharashtra",
    "short_region": "16",
    "lat": "19.076000",
    "lon": "75.105800"
  },
  {
    "id": "320112",
    "country": "IN",
    "zipcode": "41631",
    "name": "Padali",
    "region": "Maharashtra",
    "short_region": "16",
    "lat": "17.112000",
    "lon": "74.769900"
  },
  {
    "id": "320113",
    "country": "IN",
    "zipcode": "41631",
    "name": "Hatnur",
    "region": "Maharashtra",
    "short_region": "16",
    "lat": "17.112000",
    "lon": "74.769900"
  },
  {
    "id": "320114",
    "country": "IN",
    "zipcode": "41631",
    "name": "Khalsa Dhamni",
    "region": "Maharashtra",
    "short_region": "16",
    "lat": "19.670700",
    "lon": "74.626700"
  },
  {
    "id": "320115",
    "country": "IN",
    "zipcode": "41631",
    "name": "Visapur (Sangli)",
    "region": "Maharashtra",
    "short_region": "16",
    "lat": "17.116900",
    "lon": "74.586300"
  },
  {
    "id": "320116",
    "country": "IN",
    "zipcode": "41631",
    "name": "Hatnoli",
    "region": "Maharashtra",
    "short_region": "16",
    "lat": "19.670700",
    "lon": "74.626700"
  },
  {
    "id": "320117",
    "country": "IN",
    "zipcode": "41631",
    "name": "Malwadi",
    "region": "Maharashtra",
    "short_region": "16",
    "lat": "18.355300",
    "lon": "76.024800"
  },
  {
    "id": "320118",
    "country": "IN",
    "zipcode": "41631",
    "name": "Dudhgaon",
    "region": "Maharashtra",
    "short_region": "16",
    "lat": "17.112000",
    "lon": "74.769900"
  },
  {
    "id": "320119",
    "country": "IN",
    "zipcode": "41631",
    "name": "Ankalkhop",
    "region": "Maharashtra",
    "short_region": "16",
    "lat": "19.076000",
    "lon": "75.105800"
  },
  {
    "id": "320120",
    "country": "IN",
    "zipcode": "41640",
    "name": "Shindewadi",
    "region": "Maharashtra",
    "short_region": "16",
    "lat": "17.112000",
    "lon": "74.769900"
  },
  {
    "id": "320121",
    "country": "IN",
    "zipcode": "41640",
    "name": "Lingnoor",
    "region": "Maharashtra",
    "short_region": "16",
    "lat": "16.791000",
    "lon": "74.805100"
  },
  {
    "id": "320122",
    "country": "IN",
    "zipcode": "41640",
    "name": "Khatav",
    "region": "Maharashtra",
    "short_region": "16",
    "lat": "16.791000",
    "lon": "74.805100"
  },
  {
    "id": "320123",
    "country": "IN",
    "zipcode": "41640",
    "name": "Arag",
    "region": "Maharashtra",
    "short_region": "16",
    "lat": "16.791000",
    "lon": "74.805100"
  },
  {
    "id": "320124",
    "country": "IN",
    "zipcode": "41640",
    "name": "Washan",
    "region": "Maharashtra",
    "short_region": "16",
    "lat": "17.587000",
    "lon": "75.451700"
  },
  {
    "id": "320125",
    "country": "IN",
    "zipcode": "41640",
    "name": "Khalati",
    "region": "Maharashtra",
    "short_region": "16",
    "lat": "17.587000",
    "lon": "75.451700"
  },
  {
    "id": "320126",
    "country": "IN",
    "zipcode": "41640",
    "name": "Ankale",
    "region": "Maharashtra",
    "short_region": "16",
    "lat": "17.587000",
    "lon": "75.451700"
  },
  {
    "id": "320127",
    "country": "IN",
    "zipcode": "41640",
    "name": "Daphalapur",
    "region": "Maharashtra",
    "short_region": "16",
    "lat": "17.587000",
    "lon": "75.451700"
  },
  {
    "id": "320128",
    "country": "IN",
    "zipcode": "41640",
    "name": "Jirgyal",
    "region": "Maharashtra",
    "short_region": "16",
    "lat": "17.587000",
    "lon": "75.451700"
  },
  {
    "id": "320129",
    "country": "IN",
    "zipcode": "41640",
    "name": "Baj",
    "region": "Maharashtra",
    "short_region": "16",
    "lat": "17.587000",
    "lon": "75.451700"
  },
  {
    "id": "320130",
    "country": "IN",
    "zipcode": "41640",
    "name": "Dorli",
    "region": "Maharashtra",
    "short_region": "16",
    "lat": "17.112000",
    "lon": "74.769900"
  },
  {
    "id": "320131",
    "country": "IN",
    "zipcode": "41640",
    "name": "Kosari",
    "region": "Maharashtra",
    "short_region": "16",
    "lat": "17.112000",
    "lon": "74.769900"
  },
  {
    "id": "320132",
    "country": "IN",
    "zipcode": "41640",
    "name": "Dhavadwadi",
    "region": "Maharashtra",
    "short_region": "16",
    "lat": "17.127700",
    "lon": "75.026600"
  },
  {
    "id": "320133",
    "country": "IN",
    "zipcode": "41640",
    "name": "Chorochi",
    "region": "Maharashtra",
    "short_region": "16",
    "lat": "17.127700",
    "lon": "75.026600"
  },
  {
    "id": "320134",
    "country": "IN",
    "zipcode": "41640",
    "name": "Arewadi",
    "region": "Maharashtra",
    "short_region": "16",
    "lat": "17.127700",
    "lon": "75.026600"
  },
  {
    "id": "320135",
    "country": "IN",
    "zipcode": "41640",
    "name": "Kerewadi",
    "region": "Maharashtra",
    "short_region": "16",
    "lat": "17.127700",
    "lon": "75.026600"
  },
  {
    "id": "320136",
    "country": "IN",
    "zipcode": "41640",
    "name": "Ghorpadi",
    "region": "Maharashtra",
    "short_region": "16",
    "lat": "17.127700",
    "lon": "75.026600"
  },
  {
    "id": "320137",
    "country": "IN",
    "zipcode": "41640",
    "name": "Dhalgaon",
    "region": "Maharashtra",
    "short_region": "16",
    "lat": "17.127700",
    "lon": "75.026600"
  },
  {
    "id": "320138",
    "country": "IN",
    "zipcode": "41640",
    "name": "Agalgaon",
    "region": "Maharashtra",
    "short_region": "16",
    "lat": "17.127700",
    "lon": "75.026600"
  },
  {
    "id": "320139",
    "country": "IN",
    "zipcode": "41640",
    "name": "Kumbhari",
    "region": "Maharashtra",
    "short_region": "16",
    "lat": "17.110400",
    "lon": "75.116900"
  },
  {
    "id": "320140",
    "country": "IN",
    "zipcode": "41640",
    "name": "Nagaj",
    "region": "Maharashtra",
    "short_region": "16",
    "lat": "17.112000",
    "lon": "74.769900"
  },
  {
    "id": "320141",
    "country": "IN",
    "zipcode": "41640",
    "name": "Billur",
    "region": "Maharashtra",
    "short_region": "16",
    "lat": "17.083100",
    "lon": "75.249500"
  },
  {
    "id": "320142",
    "country": "IN",
    "zipcode": "41640",
    "name": "Vajrawad",
    "region": "Maharashtra",
    "short_region": "16",
    "lat": "17.083100",
    "lon": "75.249500"
  },
  {
    "id": "320143",
    "country": "IN",
    "zipcode": "41640",
    "name": "Umarani",
    "region": "Maharashtra",
    "short_region": "16",
    "lat": "17.083100",
    "lon": "75.249500"
  },
  {
    "id": "320144",
    "country": "IN",
    "zipcode": "41640",
    "name": "Sindur",
    "region": "Maharashtra",
    "short_region": "16",
    "lat": "17.083100",
    "lon": "75.249500"
  },
  {
    "id": "320145",
    "country": "IN",
    "zipcode": "41640",
    "name": "Shinganhalli",
    "region": "Maharashtra",
    "short_region": "16",
    "lat": "17.083100",
    "lon": "75.249500"
  },
  {
    "id": "320146",
    "country": "IN",
    "zipcode": "41640",
    "name": "Sanmadi",
    "region": "Maharashtra",
    "short_region": "16",
    "lat": "17.083100",
    "lon": "75.249500"
  },
  {
    "id": "320147",
    "country": "IN",
    "zipcode": "41640",
    "name": "Revnal",
    "region": "Maharashtra",
    "short_region": "16",
    "lat": "17.083100",
    "lon": "75.249500"
  },
  {
    "id": "320148",
    "country": "IN",
    "zipcode": "41640",
    "name": "Nigdi Khurd",
    "region": "Maharashtra",
    "short_region": "16",
    "lat": "17.083100",
    "lon": "75.249500"
  },
  {
    "id": "320149",
    "country": "IN",
    "zipcode": "41640",
    "name": "Muchandi",
    "region": "Maharashtra",
    "short_region": "16",
    "lat": "17.083100",
    "lon": "75.249500"
  },
  {
    "id": "320150",
    "country": "IN",
    "zipcode": "41640",
    "name": "Mendhigiri",
    "region": "Maharashtra",
    "short_region": "16",
    "lat": "17.083100",
    "lon": "75.249500"
  },
  {
    "id": "320151",
    "country": "IN",
    "zipcode": "41640",
    "name": "Kunikonnur",
    "region": "Maharashtra",
    "short_region": "16",
    "lat": "17.083100",
    "lon": "75.249500"
  },
  {
    "id": "320152",
    "country": "IN",
    "zipcode": "41640",
    "name": "Gugwad",
    "region": "Maharashtra",
    "short_region": "16",
    "lat": "17.083100",
    "lon": "75.249500"
  },
  {
    "id": "320153",
    "country": "IN",
    "zipcode": "41640",
    "name": "Bevnur",
    "region": "Maharashtra",
    "short_region": "16",
    "lat": "17.083100",
    "lon": "75.249500"
  },
  {
    "id": "320154",
    "country": "IN",
    "zipcode": "41640",
    "name": "Basargi",
    "region": "Maharashtra",
    "short_region": "16",
    "lat": "17.083100",
    "lon": "75.249500"
  },
  {
    "id": "320155",
    "country": "IN",
    "zipcode": "41640",
    "name": "Avandhi",
    "region": "Maharashtra",
    "short_region": "16",
    "lat": "17.083100",
    "lon": "75.249500"
  },
  {
    "id": "320156",
    "country": "IN",
    "zipcode": "41640",
    "name": "Antral",
    "region": "Maharashtra",
    "short_region": "16",
    "lat": "17.083100",
    "lon": "75.249500"
  },
  {
    "id": "320157",
    "country": "IN",
    "zipcode": "41640",
    "name": "Yelvi",
    "region": "Maharashtra",
    "short_region": "16",
    "lat": "17.083100",
    "lon": "75.249500"
  },
  {
    "id": "320158",
    "country": "IN",
    "zipcode": "41640",
    "name": "Walekhindi",
    "region": "Maharashtra",
    "short_region": "16",
    "lat": "17.083100",
    "lon": "75.249500"
  },
  {
    "id": "320159",
    "country": "IN",
    "zipcode": "41640",
    "name": "Jath",
    "region": "Maharashtra",
    "short_region": "16",
    "lat": "17.047600",
    "lon": "75.218200"
  },
  {
    "id": "320160",
    "country": "IN",
    "zipcode": "41640",
    "name": "Banali",
    "region": "Maharashtra",
    "short_region": "16",
    "lat": "17.142700",
    "lon": "75.214400"
  },
  {
    "id": "320161",
    "country": "IN",
    "zipcode": "41640",
    "name": "Shegaon",
    "region": "Maharashtra",
    "short_region": "16",
    "lat": "17.112000",
    "lon": "74.769900"
  },
  {
    "id": "320162",
    "country": "IN",
    "zipcode": "41640",
    "name": "Valsang",
    "region": "Maharashtra",
    "short_region": "16",
    "lat": "17.059000",
    "lon": "75.315900"
  },
  {
    "id": "320163",
    "country": "IN",
    "zipcode": "41640",
    "name": "Langarpeth",
    "region": "Maharashtra",
    "short_region": "16",
    "lat": "17.075300",
    "lon": "74.948000"
  },
  {
    "id": "320164",
    "country": "IN",
    "zipcode": "41640",
    "name": "Kuchi",
    "region": "Maharashtra",
    "short_region": "16",
    "lat": "17.060700",
    "lon": "74.864200"
  },
  {
    "id": "320165",
    "country": "IN",
    "zipcode": "41640",
    "name": "Shinganapur",
    "region": "Maharashtra",
    "short_region": "16",
    "lat": "17.112000",
    "lon": "74.769900"
  },
  {
    "id": "320166",
    "country": "IN",
    "zipcode": "41640",
    "name": "Ghatnandre",
    "region": "Maharashtra",
    "short_region": "16",
    "lat": "18.406300",
    "lon": "75.855700"
  },
  {
    "id": "320167",
    "country": "IN",
    "zipcode": "41640",
    "name": "Irali",
    "region": "Maharashtra",
    "short_region": "16",
    "lat": "18.406300",
    "lon": "75.855700"
  },
  {
    "id": "320168",
    "country": "IN",
    "zipcode": "41640",
    "name": "Jakhapur",
    "region": "Maharashtra",
    "short_region": "16",
    "lat": "18.406300",
    "lon": "75.855700"
  },
  {
    "id": "320169",
    "country": "IN",
    "zipcode": "41640",
    "name": "Karoli  T",
    "region": "Maharashtra",
    "short_region": "16",
    "lat": "18.406300",
    "lon": "75.855700"
  },
  {
    "id": "320170",
    "country": "IN",
    "zipcode": "41640",
    "name": "Kundalapur",
    "region": "Maharashtra",
    "short_region": "16",
    "lat": "18.406300",
    "lon": "75.855700"
  },
  {
    "id": "320171",
    "country": "IN",
    "zipcode": "41640",
    "name": "Nangole",
    "region": "Maharashtra",
    "short_region": "16",
    "lat": "18.406300",
    "lon": "75.855700"
  },
  {
    "id": "320172",
    "country": "IN",
    "zipcode": "41640",
    "name": "Tisangi",
    "region": "Maharashtra",
    "short_region": "16",
    "lat": "18.406300",
    "lon": "75.855700"
  },
  {
    "id": "320173",
    "country": "IN",
    "zipcode": "41640",
    "name": "Kokale",
    "region": "Maharashtra",
    "short_region": "16",
    "lat": "18.406300",
    "lon": "75.855700"
  },
  {
    "id": "320174",
    "country": "IN",
    "zipcode": "41640",
    "name": "Kavathe Mahankal",
    "region": "Maharashtra",
    "short_region": "16",
    "lat": "18.406300",
    "lon": "75.855700"
  },
  {
    "id": "320175",
    "country": "IN",
    "zipcode": "41640",
    "name": "Dhalewadi",
    "region": "Maharashtra",
    "short_region": "16",
    "lat": "18.406300",
    "lon": "75.855700"
  },
  {
    "id": "320176",
    "country": "IN",
    "zipcode": "41640",
    "name": "Hingangaon",
    "region": "Maharashtra",
    "short_region": "16",
    "lat": "17.112000",
    "lon": "74.769900"
  },
  {
    "id": "320177",
    "country": "IN",
    "zipcode": "41640",
    "name": "Madhavnagar",
    "region": "Maharashtra",
    "short_region": "16",
    "lat": "17.587000",
    "lon": "75.451700"
  },
  {
    "id": "320178",
    "country": "IN",
    "zipcode": "41640",
    "name": "Dongarwadi",
    "region": "Maharashtra",
    "short_region": "16",
    "lat": "17.112000",
    "lon": "74.769900"
  },
  {
    "id": "320179",
    "country": "IN",
    "zipcode": "41640",
    "name": "Gundewadi",
    "region": "Maharashtra",
    "short_region": "16",
    "lat": "17.112000",
    "lon": "74.769900"
  },
  {
    "id": "320180",
    "country": "IN",
    "zipcode": "41640",
    "name": "Malgaon",
    "region": "Maharashtra",
    "short_region": "16",
    "lat": "16.866700",
    "lon": "74.716700"
  },
  {
    "id": "320181",
    "country": "IN",
    "zipcode": "41640",
    "name": "Savarde",
    "region": "Maharashtra",
    "short_region": "16",
    "lat": "17.112000",
    "lon": "74.769900"
  },
  {
    "id": "320182",
    "country": "IN",
    "zipcode": "41640",
    "name": "Karoli (M)",
    "region": "Maharashtra",
    "short_region": "16",
    "lat": "16.500000",
    "lon": "74.457200"
  },
  {
    "id": "320183",
    "country": "IN",
    "zipcode": "41640",
    "name": "Gavan",
    "region": "Maharashtra",
    "short_region": "16",
    "lat": "16.500000",
    "lon": "74.457200"
  },
  {
    "id": "320184",
    "country": "IN",
    "zipcode": "41640",
    "name": "Manerajuri",
    "region": "Maharashtra",
    "short_region": "16",
    "lat": "17.023200",
    "lon": "74.698400"
  },
  {
    "id": "320185",
    "country": "IN",
    "zipcode": "41640",
    "name": "Mhaisal",
    "region": "Maharashtra",
    "short_region": "16",
    "lat": "17.587000",
    "lon": "75.451700"
  },
  {
    "id": "320186",
    "country": "IN",
    "zipcode": "41640",
    "name": "Narwad",
    "region": "Maharashtra",
    "short_region": "16",
    "lat": "17.587000",
    "lon": "75.451700"
  },
  {
    "id": "320187",
    "country": "IN",
    "zipcode": "41641",
    "name": "Miraj Audyogik Vasahat",
    "region": "Maharashtra",
    "short_region": "16",
    "lat": "17.724400",
    "lon": "75.126400"
  },
  {
    "id": "320188",
    "country": "IN",
    "zipcode": "41641",
    "name": "Brahmanpuri Miraj",
    "region": "Maharashtra",
    "short_region": "16",
    "lat": "17.724400",
    "lon": "75.126400"
  },
  {
    "id": "320189",
    "country": "IN",
    "zipcode": "41641",
    "name": "Govt.Medical College Miraj",
    "region": "Maharashtra",
    "short_region": "16",
    "lat": "17.724400",
    "lon": "75.126400"
  },
  {
    "id": "320190",
    "country": "IN",
    "zipcode": "41641",
    "name": "Khanbhag,sangli At Midc Miraj",
    "region": "Maharashtra",
    "short_region": "16",
    "lat": "17.724400",
    "lon": "75.126400"
  },
  {
    "id": "320191",
    "country": "IN",
    "zipcode": "41641",
    "name": "Shaniwar Peth Miraj",
    "region": "Maharashtra",
    "short_region": "16",
    "lat": "17.724400",
    "lon": "75.126400"
  },
  {
    "id": "320192",
    "country": "IN",
    "zipcode": "41641",
    "name": "Miraj Station Road",
    "region": "Maharashtra",
    "short_region": "16",
    "lat": "17.724400",
    "lon": "75.126400"
  },
  {
    "id": "320193",
    "country": "IN",
    "zipcode": "41641",
    "name": "Miraj H.O",
    "region": "Maharashtra",
    "short_region": "16",
    "lat": "17.724400",
    "lon": "75.126400"
  },
  {
    "id": "320194",
    "country": "IN",
    "zipcode": "41641",
    "name": "Lonarwadi",
    "region": "Maharashtra",
    "short_region": "16",
    "lat": "17.112000",
    "lon": "74.769900"
  },
  {
    "id": "320195",
    "country": "IN",
    "zipcode": "41641",
    "name": "Agran Dhulgaon",
    "region": "Maharashtra",
    "short_region": "16",
    "lat": "18.906000",
    "lon": "76.527100"
  },
  {
    "id": "320196",
    "country": "IN",
    "zipcode": "41641",
    "name": "Ranjani (Sangli)",
    "region": "Maharashtra",
    "short_region": "16",
    "lat": "18.906000",
    "lon": "76.527100"
  },
  {
    "id": "320197",
    "country": "IN",
    "zipcode": "41641",
    "name": "Alkud  (S)",
    "region": "Maharashtra",
    "short_region": "16",
    "lat": "18.906000",
    "lon": "76.527100"
  },
  {
    "id": "320198",
    "country": "IN",
    "zipcode": "41641",
    "name": "Asangi J",
    "region": "Maharashtra",
    "short_region": "16",
    "lat": "19.817000",
    "lon": "75.003200"
  },
  {
    "id": "320199",
    "country": "IN",
    "zipcode": "41641",
    "name": "Ankalagi",
    "region": "Maharashtra",
    "short_region": "16",
    "lat": "19.817000",
    "lon": "75.003200"
  },
  {
    "id": "320200",
    "country": "IN",
    "zipcode": "41641",
    "name": "Boblad K",
    "region": "Maharashtra",
    "short_region": "16",
    "lat": "19.817000",
    "lon": "75.003200"
  },
  {
    "id": "320201",
    "country": "IN",
    "zipcode": "41641",
    "name": "Asangi K",
    "region": "Maharashtra",
    "short_region": "16",
    "lat": "19.817000",
    "lon": "75.003200"
  },
  {
    "id": "320202",
    "country": "IN",
    "zipcode": "41641",
    "name": "Sankh",
    "region": "Maharashtra",
    "short_region": "16",
    "lat": "19.817000",
    "lon": "75.003200"
  },
  {
    "id": "320203",
    "country": "IN",
    "zipcode": "41641",
    "name": "Sidhnath",
    "region": "Maharashtra",
    "short_region": "16",
    "lat": "17.112000",
    "lon": "74.769900"
  },
  {
    "id": "320204",
    "country": "IN",
    "zipcode": "41641",
    "name": "Sordi",
    "region": "Maharashtra",
    "short_region": "16",
    "lat": "19.817000",
    "lon": "75.003200"
  },
  {
    "id": "320205",
    "country": "IN",
    "zipcode": "41641",
    "name": "Tikundi",
    "region": "Maharashtra",
    "short_region": "16",
    "lat": "19.817000",
    "lon": "75.003200"
  },
  {
    "id": "320206",
    "country": "IN",
    "zipcode": "41641",
    "name": "Daribadachi",
    "region": "Maharashtra",
    "short_region": "16",
    "lat": "19.817000",
    "lon": "75.003200"
  },
  {
    "id": "320207",
    "country": "IN",
    "zipcode": "41641",
    "name": "Vhaspet",
    "region": "Maharashtra",
    "short_region": "16",
    "lat": "17.724400",
    "lon": "75.126400"
  },
  {
    "id": "320208",
    "country": "IN",
    "zipcode": "41641",
    "name": "Utagi",
    "region": "Maharashtra",
    "short_region": "16",
    "lat": "17.724400",
    "lon": "75.126400"
  },
  {
    "id": "320209",
    "country": "IN",
    "zipcode": "41641",
    "name": "Suslad",
    "region": "Maharashtra",
    "short_region": "16",
    "lat": "17.724400",
    "lon": "75.126400"
  },
  {
    "id": "320210",
    "country": "IN",
    "zipcode": "41641",
    "name": "Borgi(Khurd)",
    "region": "Maharashtra",
    "short_region": "16",
    "lat": "17.724400",
    "lon": "75.126400"
  },
  {
    "id": "320211",
    "country": "IN",
    "zipcode": "41641",
    "name": "Madgyal",
    "region": "Maharashtra",
    "short_region": "16",
    "lat": "17.724400",
    "lon": "75.126400"
  },
  {
    "id": "320212",
    "country": "IN",
    "zipcode": "41641",
    "name": "Sonyal",
    "region": "Maharashtra",
    "short_region": "16",
    "lat": "17.724400",
    "lon": "75.126400"
  },
  {
    "id": "320213",
    "country": "IN",
    "zipcode": "41641",
    "name": "Girgaon",
    "region": "Maharashtra",
    "short_region": "16",
    "lat": "17.112000",
    "lon": "74.769900"
  },
  {
    "id": "320214",
    "country": "IN",
    "zipcode": "41641",
    "name": "Boblad Jadar",
    "region": "Maharashtra",
    "short_region": "16",
    "lat": "17.724400",
    "lon": "75.126400"
  },
  {
    "id": "320215",
    "country": "IN",
    "zipcode": "41641",
    "name": "Bellondagi",
    "region": "Maharashtra",
    "short_region": "16",
    "lat": "17.724400",
    "lon": "75.126400"
  },
  {
    "id": "320216",
    "country": "IN",
    "zipcode": "41641",
    "name": "Balgaon",
    "region": "Maharashtra",
    "short_region": "16",
    "lat": "17.724400",
    "lon": "75.126400"
  },
  {
    "id": "320217",
    "country": "IN",
    "zipcode": "41641",
    "name": "Umadi",
    "region": "Maharashtra",
    "short_region": "16",
    "lat": "17.724400",
    "lon": "75.126400"
  },
  {
    "id": "320218",
    "country": "IN",
    "zipcode": "41641",
    "name": "Kalambi",
    "region": "Maharashtra",
    "short_region": "16",
    "lat": "17.112000",
    "lon": "74.769900"
  },
  {
    "id": "320219",
    "country": "IN",
    "zipcode": "41641",
    "name": "Tanang",
    "region": "Maharashtra",
    "short_region": "16",
    "lat": "16.884000",
    "lon": "74.610500"
  },
  {
    "id": "320220",
    "country": "IN",
    "zipcode": "41641",
    "name": "Vaddi",
    "region": "Maharashtra",
    "short_region": "16",
    "lat": "16.884000",
    "lon": "74.610500"
  },
  {
    "id": "320221",
    "country": "IN",
    "zipcode": "41641",
    "name": "Shipur",
    "region": "Maharashtra",
    "short_region": "16",
    "lat": "16.884000",
    "lon": "74.610500"
  },
  {
    "id": "320222",
    "country": "IN",
    "zipcode": "41641",
    "name": "Payyappachiwadi",
    "region": "Maharashtra",
    "short_region": "16",
    "lat": "16.884000",
    "lon": "74.610500"
  },
  {
    "id": "320223",
    "country": "IN",
    "zipcode": "41641",
    "name": "Mallewadi",
    "region": "Maharashtra",
    "short_region": "16",
    "lat": "16.884000",
    "lon": "74.610500"
  },
  {
    "id": "320224",
    "country": "IN",
    "zipcode": "41641",
    "name": "Kharshing",
    "region": "Maharashtra",
    "short_region": "16",
    "lat": "16.884000",
    "lon": "74.610500"
  },
  {
    "id": "320225",
    "country": "IN",
    "zipcode": "41641",
    "name": "Siddhewadi",
    "region": "Maharashtra",
    "short_region": "16",
    "lat": "16.884000",
    "lon": "74.610500"
  },
  {
    "id": "320226",
    "country": "IN",
    "zipcode": "41641",
    "name": "Yerandoli",
    "region": "Maharashtra",
    "short_region": "16",
    "lat": "16.884000",
    "lon": "74.610500"
  },
  {
    "id": "320227",
    "country": "IN",
    "zipcode": "41641",
    "name": "Deshing",
    "region": "Maharashtra",
    "short_region": "16",
    "lat": "16.884000",
    "lon": "74.610500"
  },
  {
    "id": "320228",
    "country": "IN",
    "zipcode": "41641",
    "name": "Bedag",
    "region": "Maharashtra",
    "short_region": "16",
    "lat": "16.884000",
    "lon": "74.610500"
  },
  {
    "id": "320229",
    "country": "IN",
    "zipcode": "41641",
    "name": "Bolwad",
    "region": "Maharashtra",
    "short_region": "16",
    "lat": "16.884000",
    "lon": "74.610500"
  },
  {
    "id": "320230",
    "country": "IN",
    "zipcode": "41641",
    "name": "Khanderajuri",
    "region": "Maharashtra",
    "short_region": "16",
    "lat": "16.884000",
    "lon": "74.610500"
  },
  {
    "id": "320231",
    "country": "IN",
    "zipcode": "41641",
    "name": "Wanlsswadi",
    "region": "Maharashtra",
    "short_region": "16",
    "lat": "16.884000",
    "lon": "74.610500"
  },
  {
    "id": "320232",
    "country": "IN",
    "zipcode": "41641",
    "name": "Banewadi",
    "region": "Maharashtra",
    "short_region": "16",
    "lat": "16.884000",
    "lon": "74.610500"
  },
  {
    "id": "320233",
    "country": "IN",
    "zipcode": "41641",
    "name": "Dhavali",
    "region": "Maharashtra",
    "short_region": "16",
    "lat": "16.906600",
    "lon": "74.351600"
  },
  {
    "id": "320234",
    "country": "IN",
    "zipcode": "41641",
    "name": "Belanki",
    "region": "Maharashtra",
    "short_region": "16",
    "lat": "16.861400",
    "lon": "74.869500"
  },
  {
    "id": "320235",
    "country": "IN",
    "zipcode": "41641",
    "name": "Karnal",
    "region": "Maharashtra",
    "short_region": "16",
    "lat": "17.724400",
    "lon": "75.126400"
  },
  {
    "id": "320236",
    "country": "IN",
    "zipcode": "41641",
    "name": "Samdolii",
    "region": "Maharashtra",
    "short_region": "16",
    "lat": "17.724400",
    "lon": "75.126400"
  },
  {
    "id": "320237",
    "country": "IN",
    "zipcode": "41641",
    "name": "Padmale",
    "region": "Maharashtra",
    "short_region": "16",
    "lat": "17.724400",
    "lon": "75.126400"
  },
  {
    "id": "320238",
    "country": "IN",
    "zipcode": "41641",
    "name": "Mouje Digraj",
    "region": "Maharashtra",
    "short_region": "16",
    "lat": "17.724400",
    "lon": "75.126400"
  },
  {
    "id": "320239",
    "country": "IN",
    "zipcode": "41641",
    "name": "Haripur",
    "region": "Maharashtra",
    "short_region": "16",
    "lat": "17.724400",
    "lon": "75.126400"
  },
  {
    "id": "320240",
    "country": "IN",
    "zipcode": "41641",
    "name": "Vasgade",
    "region": "Maharashtra",
    "short_region": "16",
    "lat": "17.724400",
    "lon": "75.126400"
  },
  {
    "id": "320241",
    "country": "IN",
    "zipcode": "41641",
    "name": "Yelavi",
    "region": "Maharashtra",
    "short_region": "16",
    "lat": "17.724400",
    "lon": "75.126400"
  },
  {
    "id": "320242",
    "country": "IN",
    "zipcode": "41641",
    "name": "Inam Dhamni",
    "region": "Maharashtra",
    "short_region": "16",
    "lat": "17.724400",
    "lon": "75.126400"
  },
  {
    "id": "320243",
    "country": "IN",
    "zipcode": "41641",
    "name": "Brahmanal",
    "region": "Maharashtra",
    "short_region": "16",
    "lat": "17.724400",
    "lon": "75.126400"
  },
  {
    "id": "320244",
    "country": "IN",
    "zipcode": "41641",
    "name": "Ankali",
    "region": "Maharashtra",
    "short_region": "16",
    "lat": "17.724400",
    "lon": "75.126400"
  },
  {
    "id": "320245",
    "country": "IN",
    "zipcode": "41641",
    "name": "Govt. Colony",
    "region": "Maharashtra",
    "short_region": "16",
    "lat": "17.724400",
    "lon": "75.126400"
  },
  {
    "id": "320246",
    "country": "IN",
    "zipcode": "41641",
    "name": "Nandre",
    "region": "Maharashtra",
    "short_region": "16",
    "lat": "17.112000",
    "lon": "74.769900"
  },
  {
    "id": "320247",
    "country": "IN",
    "zipcode": "41641",
    "name": "Willingdon College Sangli",
    "region": "Maharashtra",
    "short_region": "16",
    "lat": "17.724400",
    "lon": "75.126400"
  },
  {
    "id": "320248",
    "country": "IN",
    "zipcode": "41641",
    "name": "Sangalwadi",
    "region": "Maharashtra",
    "short_region": "16",
    "lat": "17.724400",
    "lon": "75.126400"
  },
  {
    "id": "320249",
    "country": "IN",
    "zipcode": "41641",
    "name": "R K Extension Sangli",
    "region": "Maharashtra",
    "short_region": "16",
    "lat": "16.854400",
    "lon": "74.564200"
  },
  {
    "id": "320250",
    "country": "IN",
    "zipcode": "41641",
    "name": "Gajanan Mills Sangli",
    "region": "Maharashtra",
    "short_region": "16",
    "lat": "16.854400",
    "lon": "74.564200"
  },
  {
    "id": "320251",
    "country": "IN",
    "zipcode": "41641",
    "name": "Factory Area Sangli",
    "region": "Maharashtra",
    "short_region": "16",
    "lat": "16.854400",
    "lon": "74.564200"
  },
  {
    "id": "320252",
    "country": "IN",
    "zipcode": "41641",
    "name": "Ganpati Peth Sangli",
    "region": "Maharashtra",
    "short_region": "16",
    "lat": "16.854400",
    "lon": "74.564200"
  },
  {
    "id": "320253",
    "country": "IN",
    "zipcode": "41641",
    "name": "S S K Sangli",
    "region": "Maharashtra",
    "short_region": "16",
    "lat": "16.854400",
    "lon": "74.564200"
  },
  {
    "id": "320254",
    "country": "IN",
    "zipcode": "41641",
    "name": "Market Yard Sangli",
    "region": "Maharashtra",
    "short_region": "16",
    "lat": "16.854400",
    "lon": "74.564200"
  },
  {
    "id": "320255",
    "country": "IN",
    "zipcode": "41641",
    "name": "Sangli H.O",
    "region": "Maharashtra",
    "short_region": "16",
    "lat": "16.854400",
    "lon": "74.564200"
  },
  {
    "id": "320256",
    "country": "IN",
    "zipcode": "41641",
    "name": "Sangli City",
    "region": "Maharashtra",
    "short_region": "16",
    "lat": "16.854400",
    "lon": "74.564200"
  },
  {
    "id": "320257",
    "country": "IN",
    "zipcode": "41641",
    "name": "Kavathe Piran",
    "region": "Maharashtra",
    "short_region": "16",
    "lat": "17.724400",
    "lon": "75.126400"
  },
  {
    "id": "320258",
    "country": "IN",
    "zipcode": "41641",
    "name": "Kuktoli",
    "region": "Maharashtra",
    "short_region": "16",
    "lat": "16.923200",
    "lon": "74.840300"
  },
  {
    "id": "320259",
    "country": "IN",
    "zipcode": "41641",
    "name": "Kognoli",
    "region": "Maharashtra",
    "short_region": "16",
    "lat": "16.906700",
    "lon": "74.874700"
  },
  {
    "id": "320260",
    "country": "IN",
    "zipcode": "41641",
    "name": "Salgare",
    "region": "Maharashtra",
    "short_region": "16",
    "lat": "16.890300",
    "lon": "74.909000"
  },
  {
    "id": "320261",
    "country": "IN",
    "zipcode": "41641",
    "name": "Malangaon",
    "region": "Maharashtra",
    "short_region": "16",
    "lat": "17.112000",
    "lon": "74.769900"
  },
  {
    "id": "320262",
    "country": "IN",
    "zipcode": "41641",
    "name": "Borgaon",
    "region": "Maharashtra",
    "short_region": "16",
    "lat": "17.112000",
    "lon": "74.769900"
  },
  {
    "id": "320263",
    "country": "IN",
    "zipcode": "41641",
    "name": "Landgewadi",
    "region": "Maharashtra",
    "short_region": "16",
    "lat": "18.636600",
    "lon": "75.946300"
  },
  {
    "id": "320264",
    "country": "IN",
    "zipcode": "41641",
    "name": "Jaigavan",
    "region": "Maharashtra",
    "short_region": "16",
    "lat": "18.636600",
    "lon": "75.946300"
  },
  {
    "id": "320265",
    "country": "IN",
    "zipcode": "41641",
    "name": "Alkud (M)",
    "region": "Maharashtra",
    "short_region": "16",
    "lat": "18.636600",
    "lon": "75.946300"
  },
  {
    "id": "320266",
    "country": "IN",
    "zipcode": "41641",
    "name": "Shirdhon",
    "region": "Maharashtra",
    "short_region": "16",
    "lat": "18.636600",
    "lon": "75.946300"
  },
  {
    "id": "320267",
    "country": "IN",
    "zipcode": "41642",
    "name": "Dhulgaon",
    "region": "Maharashtra",
    "short_region": "16",
    "lat": "17.112000",
    "lon": "74.769900"
  },
  {
    "id": "320268",
    "country": "IN",
    "zipcode": "41642",
    "name": "Bhose",
    "region": "Maharashtra",
    "short_region": "16",
    "lat": "17.634800",
    "lon": "75.338500"
  },
  {
    "id": "320269",
    "country": "IN",
    "zipcode": "41642",
    "name": "Soni",
    "region": "Maharashtra",
    "short_region": "16",
    "lat": "17.112000",
    "lon": "74.769900"
  },
  {
    "id": "320270",
    "country": "IN",
    "zipcode": "41643",
    "name": "Bamnoli",
    "region": "Maharashtra",
    "short_region": "16",
    "lat": "17.634800",
    "lon": "75.338500"
  },
  {
    "id": "320271",
    "country": "IN",
    "zipcode": "41643",
    "name": "Kupwad",
    "region": "Maharashtra",
    "short_region": "16",
    "lat": "17.634800",
    "lon": "75.338500"
  },
  {
    "id": "320272",
    "country": "IN",
    "zipcode": "41643",
    "name": "Kupwad MIDC Area",
    "region": "Maharashtra",
    "short_region": "16",
    "lat": "17.634800",
    "lon": "75.338500"
  },
  {
    "id": "320273",
    "country": "IN",
    "zipcode": "41643",
    "name": "Subhashnagar",
    "region": "Maharashtra",
    "short_region": "16",
    "lat": "17.112000",
    "lon": "74.769900"
  },
  {
    "id": "320274",
    "country": "IN",
    "zipcode": "40002",
    "name": "Elephanta Caves Po",
    "region": "Maharashtra",
    "short_region": "16",
    "lat": "18.927400",
    "lon": "72.824100"
  },
  {
    "id": "320275",
    "country": "IN",
    "zipcode": "40070",
    "name": "Chanje",
    "region": "Maharashtra",
    "short_region": "16",
    "lat": "18.897500",
    "lon": "72.940700"
  },
  {
    "id": "320276",
    "country": "IN",
    "zipcode": "40070",
    "name": "ONGC-dronagiri",
    "region": "Maharashtra",
    "short_region": "16",
    "lat": "18.897500",
    "lon": "72.940700"
  },
  {
    "id": "320277",
    "country": "IN",
    "zipcode": "40070",
    "name": "Uran",
    "region": "Maharashtra",
    "short_region": "16",
    "lat": "18.878100",
    "lon": "72.939200"
  },
  {
    "id": "320278",
    "country": "IN",
    "zipcode": "40070",
    "name": "Sheva",
    "region": "Maharashtra",
    "short_region": "16",
    "lat": "18.943600",
    "lon": "72.957700"
  },
  {
    "id": "320279",
    "country": "IN",
    "zipcode": "40070",
    "name": "Bokadvira",
    "region": "Maharashtra",
    "short_region": "16",
    "lat": "18.887000",
    "lon": "72.976600"
  },
  {
    "id": "320280",
    "country": "IN",
    "zipcode": "40070",
    "name": "Karanja",
    "region": "Maharashtra",
    "short_region": "16",
    "lat": "18.883300",
    "lon": "72.916700"
  },
  {
    "id": "320281",
    "country": "IN",
    "zipcode": "40070",
    "name": "Kegaon",
    "region": "Maharashtra",
    "short_region": "16",
    "lat": "18.895700",
    "lon": "72.913100"
  },
  {
    "id": "320282",
    "country": "IN",
    "zipcode": "40070",
    "name": "N.S.Karanja",
    "region": "Maharashtra",
    "short_region": "16",
    "lat": "18.908600",
    "lon": "72.929900"
  },
  {
    "id": "320283",
    "country": "IN",
    "zipcode": "40070",
    "name": "Mora",
    "region": "Maharashtra",
    "short_region": "16",
    "lat": "18.908600",
    "lon": "72.929900"
  },
  {
    "id": "320284",
    "country": "IN",
    "zipcode": "40070",
    "name": "Jaskhar",
    "region": "Maharashtra",
    "short_region": "16",
    "lat": "18.989400",
    "lon": "72.961000"
  },
  {
    "id": "320285",
    "country": "IN",
    "zipcode": "40070",
    "name": "Jnpt",
    "region": "Maharashtra",
    "short_region": "16",
    "lat": "18.989400",
    "lon": "72.961000"
  },
  {
    "id": "320286",
    "country": "IN",
    "zipcode": "40070",
    "name": "Navghar",
    "region": "Maharashtra",
    "short_region": "16",
    "lat": "18.989400",
    "lon": "72.961000"
  },
  {
    "id": "320287",
    "country": "IN",
    "zipcode": "40210",
    "name": "Limpniwave",
    "region": "Maharashtra",
    "short_region": "16",
    "lat": "18.974200",
    "lon": "73.769800"
  },
  {
    "id": "320288",
    "country": "IN",
    "zipcode": "40210",
    "name": "Ambet",
    "region": "Maharashtra",
    "short_region": "16",
    "lat": "18.974200",
    "lon": "73.769800"
  },
  {
    "id": "320289",
    "country": "IN",
    "zipcode": "40210",
    "name": "Pangloli",
    "region": "Maharashtra",
    "short_region": "16",
    "lat": "18.974200",
    "lon": "73.769800"
  },
  {
    "id": "320290",
    "country": "IN",
    "zipcode": "40210",
    "name": "Sanderi",
    "region": "Maharashtra",
    "short_region": "16",
    "lat": "18.974200",
    "lon": "73.769800"
  },
  {
    "id": "320291",
    "country": "IN",
    "zipcode": "40210",
    "name": "TolBudruk",
    "region": "Maharashtra",
    "short_region": "16",
    "lat": "17.851600",
    "lon": "73.261500"
  },
  {
    "id": "320292",
    "country": "IN",
    "zipcode": "40210",
    "name": "Veer",
    "region": "Maharashtra",
    "short_region": "16",
    "lat": "17.851600",
    "lon": "73.261500"
  },
  {
    "id": "320293",
    "country": "IN",
    "zipcode": "40210",
    "name": "Dabhol",
    "region": "Maharashtra",
    "short_region": "16",
    "lat": "17.589700",
    "lon": "73.180000"
  },
  {
    "id": "320294",
    "country": "IN",
    "zipcode": "40210",
    "name": "Dasgaon",
    "region": "Maharashtra",
    "short_region": "16",
    "lat": "18.113500",
    "lon": "73.343000"
  },
  {
    "id": "320295",
    "country": "IN",
    "zipcode": "40210",
    "name": "Devali",
    "region": "Maharashtra",
    "short_region": "16",
    "lat": "18.974200",
    "lon": "73.769800"
  },
  {
    "id": "320296",
    "country": "IN",
    "zipcode": "40210",
    "name": "Nandvi",
    "region": "Maharashtra",
    "short_region": "16",
    "lat": "18.974200",
    "lon": "73.769800"
  },
  {
    "id": "320297",
    "country": "IN",
    "zipcode": "40210",
    "name": "Purar",
    "region": "Maharashtra",
    "short_region": "16",
    "lat": "18.974200",
    "lon": "73.769800"
  },
  {
    "id": "320298",
    "country": "IN",
    "zipcode": "40210",
    "name": "Usarghar",
    "region": "Maharashtra",
    "short_region": "16",
    "lat": "18.974200",
    "lon": "73.769800"
  },
  {
    "id": "320299",
    "country": "IN",
    "zipcode": "40210",
    "name": "Harkol",
    "region": "Maharashtra",
    "short_region": "16",
    "lat": "18.974200",
    "lon": "73.769800"
  },
  {
    "id": "320300",
    "country": "IN",
    "zipcode": "40210",
    "name": "Lonere",
    "region": "Maharashtra",
    "short_region": "16",
    "lat": "18.974200",
    "lon": "73.769800"
  },
  {
    "id": "320301",
    "country": "IN",
    "zipcode": "40210",
    "name": "Goregaon (Raigarh(MH))",
    "region": "Maharashtra",
    "short_region": "16",
    "lat": "18.974200",
    "lon": "73.769800"
  },
  {
    "id": "320302",
    "country": "IN",
    "zipcode": "40210",
    "name": "Wadvali",
    "region": "Maharashtra",
    "short_region": "16",
    "lat": "18.974200",
    "lon": "73.769800"
  },
  {
    "id": "320303",
    "country": "IN",
    "zipcode": "40210",
    "name": "Panhalghar",
    "region": "Maharashtra",
    "short_region": "16",
    "lat": "18.974200",
    "lon": "73.769800"
  },
  {
    "id": "320304",
    "country": "IN",
    "zipcode": "40210",
    "name": "Adhi",
    "region": "Maharashtra",
    "short_region": "16",
    "lat": "18.974200",
    "lon": "73.769800"
  },
  {
    "id": "320305",
    "country": "IN",
    "zipcode": "40210",
    "name": "Mangarul",
    "region": "Maharashtra",
    "short_region": "16",
    "lat": "18.974200",
    "lon": "73.769800"
  },
  {
    "id": "320306",
    "country": "IN",
    "zipcode": "40210",
    "name": "Nagaon",
    "region": "Maharashtra",
    "short_region": "16",
    "lat": "18.974200",
    "lon": "73.769800"
  },
  {
    "id": "320307",
    "country": "IN",
    "zipcode": "40210",
    "name": "Lonshi",
    "region": "Maharashtra",
    "short_region": "16",
    "lat": "18.974200",
    "lon": "73.769800"
  },
  {
    "id": "320308",
    "country": "IN",
    "zipcode": "40210",
    "name": "Bamnoli",
    "region": "Maharashtra",
    "short_region": "16",
    "lat": "18.974200",
    "lon": "73.769800"
  },
  {
    "id": "320309",
    "country": "IN",
    "zipcode": "40210",
    "name": "Mangaon (Raigarh(MH))",
    "region": "Maharashtra",
    "short_region": "16",
    "lat": "18.974200",
    "lon": "73.769800"
  },
  {
    "id": "320310",
    "country": "IN",
    "zipcode": "40210",
    "name": "Talegaon Tarfe Goregaon",
    "region": "Maharashtra",
    "short_region": "16",
    "lat": "18.974200",
    "lon": "73.769800"
  },
  {
    "id": "320311",
    "country": "IN",
    "zipcode": "40210",
    "name": "Unegaon",
    "region": "Maharashtra",
    "short_region": "16",
    "lat": "18.974200",
    "lon": "73.769800"
  },
  {
    "id": "320312",
    "country": "IN",
    "zipcode": "40210",
    "name": "Usar Khurd",
    "region": "Maharashtra",
    "short_region": "16",
    "lat": "18.974200",
    "lon": "73.769800"
  },
  {
    "id": "320313",
    "country": "IN",
    "zipcode": "40210",
    "name": "Pen Tarfe Tale",
    "region": "Maharashtra",
    "short_region": "16",
    "lat": "18.974200",
    "lon": "73.769800"
  },
  {
    "id": "320314",
    "country": "IN",
    "zipcode": "40210",
    "name": "Kavil Vahal",
    "region": "Maharashtra",
    "short_region": "16",
    "lat": "18.974200",
    "lon": "73.769800"
  },
  {
    "id": "320315",
    "country": "IN",
    "zipcode": "40210",
    "name": "Kharavali",
    "region": "Maharashtra",
    "short_region": "16",
    "lat": "18.974200",
    "lon": "73.769800"
  },
  {
    "id": "320316",
    "country": "IN",
    "zipcode": "40210",
    "name": "Tempale",
    "region": "Maharashtra",
    "short_region": "16",
    "lat": "18.974200",
    "lon": "73.769800"
  },
  {
    "id": "320317",
    "country": "IN",
    "zipcode": "40210",
    "name": "Hodgaon",
    "region": "Maharashtra",
    "short_region": "16",
    "lat": "18.974200",
    "lon": "73.769800"
  },
  {
    "id": "320318",
    "country": "IN",
    "zipcode": "40210",
    "name": "Palasgaon Khurd",
    "region": "Maharashtra",
    "short_region": "16",
    "lat": "18.974200",
    "lon": "73.769800"
  },
  {
    "id": "320319",
    "country": "IN",
    "zipcode": "40210",
    "name": "Khamgaon",
    "region": "Maharashtra",
    "short_region": "16",
    "lat": "20.184100",
    "lon": "75.492300"
  },
  {
    "id": "320320",
    "country": "IN",
    "zipcode": "40210",
    "name": "Mhasla",
    "region": "Maharashtra",
    "short_region": "16",
    "lat": "21.030000",
    "lon": "75.207800"
  },
  {
    "id": "320321",
    "country": "IN",
    "zipcode": "40210",
    "name": "Kharsai",
    "region": "Maharashtra",
    "short_region": "16",
    "lat": "20.607100",
    "lon": "75.350000"
  },
  {
    "id": "320322",
    "country": "IN",
    "zipcode": "40210",
    "name": "Kelte",
    "region": "Maharashtra",
    "short_region": "16",
    "lat": "20.607100",
    "lon": "75.350000"
  },
  {
    "id": "320323",
    "country": "IN",
    "zipcode": "40210",
    "name": "Chikhlap",
    "region": "Maharashtra",
    "short_region": "16",
    "lat": "20.607100",
    "lon": "75.350000"
  },
  {
    "id": "320324",
    "country": "IN",
    "zipcode": "40210",
    "name": "Gondghar",
    "region": "Maharashtra",
    "short_region": "16",
    "lat": "20.607100",
    "lon": "75.350000"
  },
  {
    "id": "320325",
    "country": "IN",
    "zipcode": "40210",
    "name": "Kolwat",
    "region": "Maharashtra",
    "short_region": "16",
    "lat": "20.607100",
    "lon": "75.350000"
  },
  {
    "id": "320326",
    "country": "IN",
    "zipcode": "40210",
    "name": "Majgaon Tamhane",
    "region": "Maharashtra",
    "short_region": "16",
    "lat": "20.607100",
    "lon": "75.350000"
  },
  {
    "id": "320327",
    "country": "IN",
    "zipcode": "40210",
    "name": "Mendadi",
    "region": "Maharashtra",
    "short_region": "16",
    "lat": "20.607100",
    "lon": "75.350000"
  },
  {
    "id": "320328",
    "country": "IN",
    "zipcode": "40210",
    "name": "Pabhre",
    "region": "Maharashtra",
    "short_region": "16",
    "lat": "20.607100",
    "lon": "75.350000"
  },
  {
    "id": "320329",
    "country": "IN",
    "zipcode": "40210",
    "name": "Talavade",
    "region": "Maharashtra",
    "short_region": "16",
    "lat": "20.607100",
    "lon": "75.350000"
  },
  {
    "id": "320330",
    "country": "IN",
    "zipcode": "40210",
    "name": "Varvatane",
    "region": "Maharashtra",
    "short_region": "16",
    "lat": "20.607100",
    "lon": "75.350000"
  },
  {
    "id": "320331",
    "country": "IN",
    "zipcode": "40210",
    "name": "Salvinde",
    "region": "Maharashtra",
    "short_region": "16",
    "lat": "20.607100",
    "lon": "75.350000"
  },
  {
    "id": "320332",
    "country": "IN",
    "zipcode": "40210",
    "name": "Bense",
    "region": "Maharashtra",
    "short_region": "16",
    "lat": "18.974200",
    "lon": "73.769800"
  },
  {
    "id": "320333",
    "country": "IN",
    "zipcode": "40210",
    "name": "Pigonde",
    "region": "Maharashtra",
    "short_region": "16",
    "lat": "18.974200",
    "lon": "73.769800"
  },
  {
    "id": "320334",
    "country": "IN",
    "zipcode": "40210",
    "name": "Amtem",
    "region": "Maharashtra",
    "short_region": "16",
    "lat": "18.974200",
    "lon": "73.769800"
  },
  {
    "id": "320335",
    "country": "IN",
    "zipcode": "40210",
    "name": "Wakanfata",
    "region": "Maharashtra",
    "short_region": "16",
    "lat": "18.974200",
    "lon": "73.769800"
  },
  {
    "id": "320336",
    "country": "IN",
    "zipcode": "40210",
    "name": "Nagothane",
    "region": "Maharashtra",
    "short_region": "16",
    "lat": "18.974200",
    "lon": "73.769800"
  },
  {
    "id": "320337",
    "country": "IN",
    "zipcode": "40210",
    "name": "Palas",
    "region": "Maharashtra",
    "short_region": "16",
    "lat": "18.974200",
    "lon": "73.769800"
  },
  {
    "id": "320338",
    "country": "IN",
    "zipcode": "40210",
    "name": "Kamarli",
    "region": "Maharashtra",
    "short_region": "16",
    "lat": "18.837500",
    "lon": "73.255000"
  },
  {
    "id": "320339",
    "country": "IN",
    "zipcode": "40210",
    "name": "Kandale",
    "region": "Maharashtra",
    "short_region": "16",
    "lat": "18.837500",
    "lon": "73.255000"
  },
  {
    "id": "320340",
    "country": "IN",
    "zipcode": "40210",
    "name": "Kasu",
    "region": "Maharashtra",
    "short_region": "16",
    "lat": "18.837500",
    "lon": "73.255000"
  },
  {
    "id": "320341",
    "country": "IN",
    "zipcode": "40210",
    "name": "Johe",
    "region": "Maharashtra",
    "short_region": "16",
    "lat": "18.837500",
    "lon": "73.255000"
  },
  {
    "id": "320342",
    "country": "IN",
    "zipcode": "40210",
    "name": "Ambeghar",
    "region": "Maharashtra",
    "short_region": "16",
    "lat": "18.837500",
    "lon": "73.255000"
  },
  {
    "id": "320343",
    "country": "IN",
    "zipcode": "40210",
    "name": "Washi",
    "region": "Maharashtra",
    "short_region": "16",
    "lat": "18.837500",
    "lon": "73.255000"
  },
  {
    "id": "320344",
    "country": "IN",
    "zipcode": "40210",
    "name": "Varsai",
    "region": "Maharashtra",
    "short_region": "16",
    "lat": "18.837500",
    "lon": "73.255000"
  },
  {
    "id": "320345",
    "country": "IN",
    "zipcode": "40210",
    "name": "Vadkhal",
    "region": "Maharashtra",
    "short_region": "16",
    "lat": "18.837500",
    "lon": "73.255000"
  },
  {
    "id": "320346",
    "country": "IN",
    "zipcode": "40210",
    "name": "Shirki",
    "region": "Maharashtra",
    "short_region": "16",
    "lat": "18.837500",
    "lon": "73.255000"
  },
  {
    "id": "320347",
    "country": "IN",
    "zipcode": "40210",
    "name": "Ransai",
    "region": "Maharashtra",
    "short_region": "16",
    "lat": "18.837500",
    "lon": "73.255000"
  },
  {
    "id": "320348",
    "country": "IN",
    "zipcode": "40210",
    "name": "Koproli",
    "region": "Maharashtra",
    "short_region": "16",
    "lat": "18.837500",
    "lon": "73.255000"
  },
  {
    "id": "320349",
    "country": "IN",
    "zipcode": "40210",
    "name": "Balavali",
    "region": "Maharashtra",
    "short_region": "16",
    "lat": "18.837500",
    "lon": "73.255000"
  },
  {
    "id": "320350",
    "country": "IN",
    "zipcode": "40210",
    "name": "Dolvi",
    "region": "Maharashtra",
    "short_region": "16",
    "lat": "18.837500",
    "lon": "73.255000"
  },
  {
    "id": "320351",
    "country": "IN",
    "zipcode": "40210",
    "name": "Sawarsai",
    "region": "Maharashtra",
    "short_region": "16",
    "lat": "18.837500",
    "lon": "73.255000"
  },
  {
    "id": "320352",
    "country": "IN",
    "zipcode": "40210",
    "name": "Kharpale",
    "region": "Maharashtra",
    "short_region": "16",
    "lat": "18.837500",
    "lon": "73.255000"
  },
  {
    "id": "320353",
    "country": "IN",
    "zipcode": "40210",
    "name": "Hamrapur",
    "region": "Maharashtra",
    "short_region": "16",
    "lat": "18.837500",
    "lon": "73.255000"
  },
  {
    "id": "320354",
    "country": "IN",
    "zipcode": "40210",
    "name": "Jite",
    "region": "Maharashtra",
    "short_region": "16",
    "lat": "18.837500",
    "lon": "73.255000"
  },
  {
    "id": "320355",
    "country": "IN",
    "zipcode": "40210",
    "name": "Tarankhop",
    "region": "Maharashtra",
    "short_region": "16",
    "lat": "18.837500",
    "lon": "73.255000"
  },
  {
    "id": "320356",
    "country": "IN",
    "zipcode": "40210",
    "name": "Pen",
    "region": "Maharashtra",
    "short_region": "16",
    "lat": "18.737300",
    "lon": "73.096000"
  },
  {
    "id": "320357",
    "country": "IN",
    "zipcode": "40210",
    "name": "Dadar",
    "region": "Maharashtra",
    "short_region": "16",
    "lat": "19.020100",
    "lon": "72.838100"
  },
  {
    "id": "320358",
    "country": "IN",
    "zipcode": "40210",
    "name": "Vadhav",
    "region": "Maharashtra",
    "short_region": "16",
    "lat": "18.761800",
    "lon": "73.032000"
  },
  {
    "id": "320359",
    "country": "IN",
    "zipcode": "40210",
    "name": "Pabal",
    "region": "Maharashtra",
    "short_region": "16",
    "lat": "18.830700",
    "lon": "74.053700"
  },
  {
    "id": "320360",
    "country": "IN",
    "zipcode": "40210",
    "name": "Rave",
    "region": "Maharashtra",
    "short_region": "16",
    "lat": "18.837500",
    "lon": "73.255000"
  },
  {
    "id": "320361",
    "country": "IN",
    "zipcode": "40210",
    "name": "Gagode Budruk",
    "region": "Maharashtra",
    "short_region": "16",
    "lat": "18.837500",
    "lon": "73.255000"
  },
  {
    "id": "320362",
    "country": "IN",
    "zipcode": "40210",
    "name": "Gadab",
    "region": "Maharashtra",
    "short_region": "16",
    "lat": "18.837500",
    "lon": "73.255000"
  },
  {
    "id": "320363",
    "country": "IN",
    "zipcode": "40210",
    "name": "Sonkhar",
    "region": "Maharashtra",
    "short_region": "16",
    "lat": "18.837500",
    "lon": "73.255000"
  },
  {
    "id": "320364",
    "country": "IN",
    "zipcode": "40210",
    "name": "Shahabaj",
    "region": "Maharashtra",
    "short_region": "16",
    "lat": "19.452300",
    "lon": "73.325700"
  },
  {
    "id": "320365",
    "country": "IN",
    "zipcode": "40210",
    "name": "Poynad",
    "region": "Maharashtra",
    "short_region": "16",
    "lat": "19.452300",
    "lon": "73.325700"
  },
  {
    "id": "320366",
    "country": "IN",
    "zipcode": "40210",
    "name": "Kusumbale",
    "region": "Maharashtra",
    "short_region": "16",
    "lat": "19.452300",
    "lon": "73.325700"
  },
  {
    "id": "320367",
    "country": "IN",
    "zipcode": "40210",
    "name": "Kurdus",
    "region": "Maharashtra",
    "short_region": "16",
    "lat": "19.452300",
    "lon": "73.325700"
  },
  {
    "id": "320368",
    "country": "IN",
    "zipcode": "40210",
    "name": "Shahapur",
    "region": "Maharashtra",
    "short_region": "16",
    "lat": "19.452300",
    "lon": "73.325700"
  },
  {
    "id": "320369",
    "country": "IN",
    "zipcode": "40210",
    "name": "Roha",
    "region": "Maharashtra",
    "short_region": "16",
    "lat": "18.436900",
    "lon": "73.119600"
  },
  {
    "id": "320370",
    "country": "IN",
    "zipcode": "40210",
    "name": "Medha",
    "region": "Maharashtra",
    "short_region": "16",
    "lat": "17.794100",
    "lon": "73.828700"
  },
  {
    "id": "320371",
    "country": "IN",
    "zipcode": "40210",
    "name": "Khargaon",
    "region": "Maharashtra",
    "short_region": "16",
    "lat": "18.815600",
    "lon": "73.829800"
  },
  {
    "id": "320372",
    "country": "IN",
    "zipcode": "40210",
    "name": "Shenwai",
    "region": "Maharashtra",
    "short_region": "16",
    "lat": "18.815600",
    "lon": "73.829800"
  },
  {
    "id": "320373",
    "country": "IN",
    "zipcode": "40210",
    "name": "Chanera",
    "region": "Maharashtra",
    "short_region": "16",
    "lat": "18.815600",
    "lon": "73.829800"
  },
  {
    "id": "320374",
    "country": "IN",
    "zipcode": "40210",
    "name": "Ghosale",
    "region": "Maharashtra",
    "short_region": "16",
    "lat": "18.815600",
    "lon": "73.829800"
  },
  {
    "id": "320375",
    "country": "IN",
    "zipcode": "40210",
    "name": "Khaire Budruk",
    "region": "Maharashtra",
    "short_region": "16",
    "lat": "18.815600",
    "lon": "73.829800"
  },
  {
    "id": "320376",
    "country": "IN",
    "zipcode": "40210",
    "name": "Kokban",
    "region": "Maharashtra",
    "short_region": "16",
    "lat": "18.815600",
    "lon": "73.829800"
  },
  {
    "id": "320377",
    "country": "IN",
    "zipcode": "40210",
    "name": "Tambadi",
    "region": "Maharashtra",
    "short_region": "16",
    "lat": "18.815600",
    "lon": "73.829800"
  },
  {
    "id": "320378",
    "country": "IN",
    "zipcode": "40210",
    "name": "Virjoli",
    "region": "Maharashtra",
    "short_region": "16",
    "lat": "18.815600",
    "lon": "73.829800"
  },
  {
    "id": "320379",
    "country": "IN",
    "zipcode": "40210",
    "name": "Shedsai",
    "region": "Maharashtra",
    "short_region": "16",
    "lat": "18.815600",
    "lon": "73.829800"
  },
  {
    "id": "320380",
    "country": "IN",
    "zipcode": "40210",
    "name": "Sanegaon",
    "region": "Maharashtra",
    "short_region": "16",
    "lat": "18.815600",
    "lon": "73.829800"
  },
  {
    "id": "320381",
    "country": "IN",
    "zipcode": "40210",
    "name": "Pingalsai",
    "region": "Maharashtra",
    "short_region": "16",
    "lat": "18.815600",
    "lon": "73.829800"
  },
  {
    "id": "320382",
    "country": "IN",
    "zipcode": "40210",
    "name": "Wali",
    "region": "Maharashtra",
    "short_region": "16",
    "lat": "18.815600",
    "lon": "73.829800"
  },
  {
    "id": "320383",
    "country": "IN",
    "zipcode": "40210",
    "name": "Chordhe",
    "region": "Maharashtra",
    "short_region": "16",
    "lat": "18.815600",
    "lon": "73.829800"
  },
  {
    "id": "320384",
    "country": "IN",
    "zipcode": "40210",
    "name": "Dhamansai",
    "region": "Maharashtra",
    "short_region": "16",
    "lat": "18.815600",
    "lon": "73.829800"
  },
  {
    "id": "320385",
    "country": "IN",
    "zipcode": "40210",
    "name": "Chandgaon",
    "region": "Maharashtra",
    "short_region": "16",
    "lat": "20.173600",
    "lon": "74.477000"
  },
  {
    "id": "320386",
    "country": "IN",
    "zipcode": "40210",
    "name": "Nhave",
    "region": "Maharashtra",
    "short_region": "16",
    "lat": "18.950000",
    "lon": "72.966700"
  },
  {
    "id": "320387",
    "country": "IN",
    "zipcode": "40210",
    "name": "Bhalgaon",
    "region": "Maharashtra",
    "short_region": "16",
    "lat": "19.101700",
    "lon": "75.455600"
  },
  {
    "id": "320388",
    "country": "IN",
    "zipcode": "40210",
    "name": "Ashtami",
    "region": "Maharashtra",
    "short_region": "16",
    "lat": "18.437100",
    "lon": "73.131000"
  },
  {
    "id": "320389",
    "country": "IN",
    "zipcode": "40210",
    "name": "Sarsoli",
    "region": "Maharashtra",
    "short_region": "16",
    "lat": "18.815600",
    "lon": "73.829800"
  },
  {
    "id": "320390",
    "country": "IN",
    "zipcode": "40211",
    "name": "Vadshetvave",
    "region": "Maharashtra",
    "short_region": "16",
    "lat": "18.670400",
    "lon": "73.379100"
  },
  {
    "id": "320391",
    "country": "IN",
    "zipcode": "40211",
    "name": "Shriwardhan",
    "region": "Maharashtra",
    "short_region": "16",
    "lat": "18.670400",
    "lon": "73.379100"
  },
  {
    "id": "320392",
    "country": "IN",
    "zipcode": "40211",
    "name": "Bhoste",
    "region": "Maharashtra",
    "short_region": "16",
    "lat": "18.670400",
    "lon": "73.379100"
  },
  {
    "id": "320393",
    "country": "IN",
    "zipcode": "40211",
    "name": "Galsure",
    "region": "Maharashtra",
    "short_region": "16",
    "lat": "18.670400",
    "lon": "73.379100"
  },
  {
    "id": "320394",
    "country": "IN",
    "zipcode": "40211",
    "name": "Hareshwar",
    "region": "Maharashtra",
    "short_region": "16",
    "lat": "18.670400",
    "lon": "73.379100"
  },
  {
    "id": "320395",
    "country": "IN",
    "zipcode": "40211",
    "name": "Jasawali",
    "region": "Maharashtra",
    "short_region": "16",
    "lat": "18.670400",
    "lon": "73.379100"
  },
  {
    "id": "320396",
    "country": "IN",
    "zipcode": "40211",
    "name": "Vadghar",
    "region": "Maharashtra",
    "short_region": "16",
    "lat": "18.670400",
    "lon": "73.379100"
  },
  {
    "id": "320397",
    "country": "IN",
    "zipcode": "40211",
    "name": "Ranawali",
    "region": "Maharashtra",
    "short_region": "16",
    "lat": "18.670400",
    "lon": "73.379100"
  },
  {
    "id": "320398",
    "country": "IN",
    "zipcode": "40211",
    "name": "Saigaon",
    "region": "Maharashtra",
    "short_region": "16",
    "lat": "18.670400",
    "lon": "73.379100"
  },
  {
    "id": "320399",
    "country": "IN",
    "zipcode": "40211",
    "name": "Talegaon",
    "region": "Maharashtra",
    "short_region": "16",
    "lat": "19.695500",
    "lon": "74.297900"
  },
  {
    "id": "320400",
    "country": "IN",
    "zipcode": "40211",
    "name": "Bhonang",
    "region": "Maharashtra",
    "short_region": "16",
    "lat": "18.541100",
    "lon": "72.988400"
  },
  {
    "id": "320401",
    "country": "IN",
    "zipcode": "40211",
    "name": "Pitsai",
    "region": "Maharashtra",
    "short_region": "16",
    "lat": "19.118300",
    "lon": "73.643100"
  },
  {
    "id": "320402",
    "country": "IN",
    "zipcode": "40211",
    "name": "Tala (Raigarh(MH))",
    "region": "Maharashtra",
    "short_region": "16",
    "lat": "19.118300",
    "lon": "73.643100"
  },
  {
    "id": "320403",
    "country": "IN",
    "zipcode": "40211",
    "name": "Borghar Haveli",
    "region": "Maharashtra",
    "short_region": "16",
    "lat": "19.118300",
    "lon": "73.643100"
  },
  {
    "id": "320404",
    "country": "IN",
    "zipcode": "40211",
    "name": "Mandad",
    "region": "Maharashtra",
    "short_region": "16",
    "lat": "19.118300",
    "lon": "73.643100"
  },
  {
    "id": "320405",
    "country": "IN",
    "zipcode": "40211",
    "name": "Tokarde",
    "region": "Maharashtra",
    "short_region": "16",
    "lat": "19.118300",
    "lon": "73.643100"
  },
  {
    "id": "320406",
    "country": "IN",
    "zipcode": "40211",
    "name": "Rahatad",
    "region": "Maharashtra",
    "short_region": "16",
    "lat": "19.118300",
    "lon": "73.643100"
  },
  {
    "id": "320407",
    "country": "IN",
    "zipcode": "40211",
    "name": "Wighawali",
    "region": "Maharashtra",
    "short_region": "16",
    "lat": "18.354200",
    "lon": "73.231300"
  },
  {
    "id": "320408",
    "country": "IN",
    "zipcode": "40211",
    "name": "Muthavali Tarfe Tala",
    "region": "Maharashtra",
    "short_region": "16",
    "lat": "18.354200",
    "lon": "73.231300"
  },
  {
    "id": "320409",
    "country": "IN",
    "zipcode": "40211",
    "name": "Talashet",
    "region": "Maharashtra",
    "short_region": "16",
    "lat": "18.354200",
    "lon": "73.231300"
  },
  {
    "id": "320410",
    "country": "IN",
    "zipcode": "40211",
    "name": "Wavediwali",
    "region": "Maharashtra",
    "short_region": "16",
    "lat": "18.354200",
    "lon": "73.231300"
  },
  {
    "id": "320411",
    "country": "IN",
    "zipcode": "40211",
    "name": "Mahagaon",
    "region": "Maharashtra",
    "short_region": "16",
    "lat": "18.354200",
    "lon": "73.231300"
  },
  {
    "id": "320412",
    "country": "IN",
    "zipcode": "40211",
    "name": "Ratwad",
    "region": "Maharashtra",
    "short_region": "16",
    "lat": "18.354200",
    "lon": "73.231300"
  },
  {
    "id": "320413",
    "country": "IN",
    "zipcode": "40211",
    "name": "Walwati",
    "region": "Maharashtra",
    "short_region": "16",
    "lat": "18.090800",
    "lon": "72.998900"
  },
  {
    "id": "320414",
    "country": "IN",
    "zipcode": "40211",
    "name": "Shekhadi",
    "region": "Maharashtra",
    "short_region": "16",
    "lat": "18.090800",
    "lon": "72.998900"
  },
  {
    "id": "320415",
    "country": "IN",
    "zipcode": "40211",
    "name": "Chikhlap",
    "region": "Maharashtra",
    "short_region": "16",
    "lat": "18.090800",
    "lon": "72.998900"
  },
  {
    "id": "320416",
    "country": "IN",
    "zipcode": "40211",
    "name": "Aravi",
    "region": "Maharashtra",
    "short_region": "16",
    "lat": "18.090800",
    "lon": "72.998900"
  },
  {
    "id": "320417",
    "country": "IN",
    "zipcode": "40211",
    "name": "Bagmandla",
    "region": "Maharashtra",
    "short_region": "16",
    "lat": "18.670400",
    "lon": "73.379100"
  },
  {
    "id": "320418",
    "country": "IN",
    "zipcode": "40211",
    "name": "Kolmandla",
    "region": "Maharashtra",
    "short_region": "16",
    "lat": "18.670400",
    "lon": "73.379100"
  },
  {
    "id": "320419",
    "country": "IN",
    "zipcode": "40211",
    "name": "Ravdhal",
    "region": "Maharashtra",
    "short_region": "16",
    "lat": "18.670400",
    "lon": "73.379100"
  },
  {
    "id": "320420",
    "country": "IN",
    "zipcode": "40211",
    "name": "Jui Budruk",
    "region": "Maharashtra",
    "short_region": "16",
    "lat": "18.670400",
    "lon": "73.379100"
  },
  {
    "id": "320421",
    "country": "IN",
    "zipcode": "40211",
    "name": "Narvan",
    "region": "Maharashtra",
    "short_region": "16",
    "lat": "18.670400",
    "lon": "73.379100"
  },
  {
    "id": "320422",
    "country": "IN",
    "zipcode": "40211",
    "name": "Upper Tudul",
    "region": "Maharashtra",
    "short_region": "16",
    "lat": "18.670400",
    "lon": "73.379100"
  },
  {
    "id": "320423",
    "country": "IN",
    "zipcode": "40211",
    "name": "Walang",
    "region": "Maharashtra",
    "short_region": "16",
    "lat": "18.670400",
    "lon": "73.379100"
  },
  {
    "id": "320424",
    "country": "IN",
    "zipcode": "40211",
    "name": "Roth Khurd",
    "region": "Maharashtra",
    "short_region": "16",
    "lat": "18.670400",
    "lon": "73.379100"
  },
  {
    "id": "320425",
    "country": "IN",
    "zipcode": "40211",
    "name": "Roha AV",
    "region": "Maharashtra",
    "short_region": "16",
    "lat": "18.670400",
    "lon": "73.379100"
  },
  {
    "id": "320426",
    "country": "IN",
    "zipcode": "40211",
    "name": "Dahivali",
    "region": "Maharashtra",
    "short_region": "16",
    "lat": "18.670400",
    "lon": "73.379100"
  },
  {
    "id": "320427",
    "country": "IN",
    "zipcode": "40211",
    "name": "Degaon",
    "region": "Maharashtra",
    "short_region": "16",
    "lat": "18.670400",
    "lon": "73.379100"
  },
  {
    "id": "320428",
    "country": "IN",
    "zipcode": "40211",
    "name": "Morba",
    "region": "Maharashtra",
    "short_region": "16",
    "lat": "18.670400",
    "lon": "73.379100"
  },
  {
    "id": "320429",
    "country": "IN",
    "zipcode": "40212",
    "name": "Nizampur (Raigarh(MH))",
    "region": "Maharashtra",
    "short_region": "16",
    "lat": "19.980800",
    "lon": "77.699700"
  },
  {
    "id": "320430",
    "country": "IN",
    "zipcode": "40212",
    "name": "Shirawali",
    "region": "Maharashtra",
    "short_region": "16",
    "lat": "19.980800",
    "lon": "77.699700"
  },
  {
    "id": "320431",
    "country": "IN",
    "zipcode": "40212",
    "name": "Jite",
    "region": "Maharashtra",
    "short_region": "16",
    "lat": "19.980800",
    "lon": "77.699700"
  },
  {
    "id": "320432",
    "country": "IN",
    "zipcode": "40212",
    "name": "Borwadi",
    "region": "Maharashtra",
    "short_region": "16",
    "lat": "19.980800",
    "lon": "77.699700"
  },
  {
    "id": "320433",
    "country": "IN",
    "zipcode": "40212",
    "name": "Koste Khurd",
    "region": "Maharashtra",
    "short_region": "16",
    "lat": "19.980800",
    "lon": "77.699700"
  },
  {
    "id": "320434",
    "country": "IN",
    "zipcode": "40212",
    "name": "Bhale",
    "region": "Maharashtra",
    "short_region": "16",
    "lat": "19.980800",
    "lon": "77.699700"
  },
  {
    "id": "320435",
    "country": "IN",
    "zipcode": "40212",
    "name": "Sai",
    "region": "Maharashtra",
    "short_region": "16",
    "lat": "19.980800",
    "lon": "77.699700"
  },
  {
    "id": "320436",
    "country": "IN",
    "zipcode": "40212",
    "name": "Govele",
    "region": "Maharashtra",
    "short_region": "16",
    "lat": "19.980800",
    "lon": "77.699700"
  },
  {
    "id": "320437",
    "country": "IN",
    "zipcode": "40212",
    "name": "Manjaravane",
    "region": "Maharashtra",
    "short_region": "16",
    "lat": "19.980800",
    "lon": "77.699700"
  },
  {
    "id": "320438",
    "country": "IN",
    "zipcode": "40212",
    "name": "Chandore",
    "region": "Maharashtra",
    "short_region": "16",
    "lat": "19.980800",
    "lon": "77.699700"
  },
  {
    "id": "320439",
    "country": "IN",
    "zipcode": "40212",
    "name": "PCTS Nagothane",
    "region": "Maharashtra",
    "short_region": "16",
    "lat": "19.980800",
    "lon": "77.699700"
  },
  {
    "id": "320440",
    "country": "IN",
    "zipcode": "40212",
    "name": "Pipenagar",
    "region": "Maharashtra",
    "short_region": "16",
    "lat": "19.980800",
    "lon": "77.699700"
  },
  {
    "id": "320441",
    "country": "IN",
    "zipcode": "40212",
    "name": "Ainghar",
    "region": "Maharashtra",
    "short_region": "16",
    "lat": "19.980800",
    "lon": "77.699700"
  },
  {
    "id": "320442",
    "country": "IN",
    "zipcode": "40220",
    "name": "Alibag H.O",
    "region": "Maharashtra",
    "short_region": "16",
    "lat": "18.803700",
    "lon": "72.887300"
  },
  {
    "id": "320443",
    "country": "IN",
    "zipcode": "40220",
    "name": "Revdanda",
    "region": "Maharashtra",
    "short_region": "16",
    "lat": "18.553600",
    "lon": "72.925600"
  },
  {
    "id": "320444",
    "country": "IN",
    "zipcode": "40220",
    "name": "Korlai",
    "region": "Maharashtra",
    "short_region": "16",
    "lat": "18.516700",
    "lon": "72.900000"
  },
  {
    "id": "320445",
    "country": "IN",
    "zipcode": "40220",
    "name": "Vikram Baug",
    "region": "Maharashtra",
    "short_region": "16",
    "lat": "18.535200",
    "lon": "72.912800"
  },
  {
    "id": "320446",
    "country": "IN",
    "zipcode": "40220",
    "name": "Borlimandla",
    "region": "Maharashtra",
    "short_region": "16",
    "lat": "18.535200",
    "lon": "72.912800"
  },
  {
    "id": "320447",
    "country": "IN",
    "zipcode": "40220",
    "name": "Walke",
    "region": "Maharashtra",
    "short_region": "16",
    "lat": "18.535200",
    "lon": "72.912800"
  },
  {
    "id": "320448",
    "country": "IN",
    "zipcode": "40220",
    "name": "Ramraj",
    "region": "Maharashtra",
    "short_region": "16",
    "lat": "19.993400",
    "lon": "72.748100"
  },
  {
    "id": "320449",
    "country": "IN",
    "zipcode": "40220",
    "name": "Usar",
    "region": "Maharashtra",
    "short_region": "16",
    "lat": "19.993400",
    "lon": "72.748100"
  },
  {
    "id": "320450",
    "country": "IN",
    "zipcode": "40220",
    "name": "Chaul",
    "region": "Maharashtra",
    "short_region": "16",
    "lat": "19.993400",
    "lon": "72.748100"
  },
  {
    "id": "320451",
    "country": "IN",
    "zipcode": "40220",
    "name": "Malyan",
    "region": "Maharashtra",
    "short_region": "16",
    "lat": "19.993400",
    "lon": "72.748100"
  },
  {
    "id": "320452",
    "country": "IN",
    "zipcode": "40220",
    "name": "Chinchoti",
    "region": "Maharashtra",
    "short_region": "16",
    "lat": "19.993400",
    "lon": "72.748100"
  },
  {
    "id": "320453",
    "country": "IN",
    "zipcode": "40220",
    "name": "Bapale",
    "region": "Maharashtra",
    "short_region": "16",
    "lat": "19.993400",
    "lon": "72.748100"
  },
  {
    "id": "320454",
    "country": "IN",
    "zipcode": "40220",
    "name": "Agrav",
    "region": "Maharashtra",
    "short_region": "16",
    "lat": "19.993400",
    "lon": "72.748100"
  },
  {
    "id": "320455",
    "country": "IN",
    "zipcode": "40220",
    "name": "Sudkoli",
    "region": "Maharashtra",
    "short_region": "16",
    "lat": "19.993400",
    "lon": "72.748100"
  },
  {
    "id": "320456",
    "country": "IN",
    "zipcode": "40220",
    "name": "Akshi",
    "region": "Maharashtra",
    "short_region": "16",
    "lat": "18.749700",
    "lon": "72.933500"
  },
  {
    "id": "320457",
    "country": "IN",
    "zipcode": "40220",
    "name": "Bamangaon",
    "region": "Maharashtra",
    "short_region": "16",
    "lat": "18.627200",
    "lon": "72.940600"
  },
  {
    "id": "320458",
    "country": "IN",
    "zipcode": "40220",
    "name": "Nagaon",
    "region": "Maharashtra",
    "short_region": "16",
    "lat": "18.872100",
    "lon": "72.926400"
  },
  {
    "id": "320459",
    "country": "IN",
    "zipcode": "40220",
    "name": "Thal (Raigarh(MH))",
    "region": "Maharashtra",
    "short_region": "16",
    "lat": "18.803700",
    "lon": "72.887300"
  },
  {
    "id": "320460",
    "country": "IN",
    "zipcode": "40220",
    "name": "Mapgaon",
    "region": "Maharashtra",
    "short_region": "16",
    "lat": "18.740400",
    "lon": "72.879100"
  },
  {
    "id": "320461",
    "country": "IN",
    "zipcode": "40220",
    "name": "Navedar Navagaon",
    "region": "Maharashtra",
    "short_region": "16",
    "lat": "18.740400",
    "lon": "72.879100"
  },
  {
    "id": "320462",
    "country": "IN",
    "zipcode": "40220",
    "name": "Dhokawade",
    "region": "Maharashtra",
    "short_region": "16",
    "lat": "18.740400",
    "lon": "72.879100"
  },
  {
    "id": "320463",
    "country": "IN",
    "zipcode": "40220",
    "name": "Saswane",
    "region": "Maharashtra",
    "short_region": "16",
    "lat": "18.740400",
    "lon": "72.879100"
  },
  {
    "id": "320464",
    "country": "IN",
    "zipcode": "40220",
    "name": "RCF Thal",
    "region": "Maharashtra",
    "short_region": "16",
    "lat": "18.740400",
    "lon": "72.879100"
  },
  {
    "id": "320465",
    "country": "IN",
    "zipcode": "40220",
    "name": "Chondhi",
    "region": "Maharashtra",
    "short_region": "16",
    "lat": "18.740400",
    "lon": "72.879100"
  },
  {
    "id": "320466",
    "country": "IN",
    "zipcode": "40220",
    "name": "Awas",
    "region": "Maharashtra",
    "short_region": "16",
    "lat": "18.740400",
    "lon": "72.879100"
  },
  {
    "id": "320467",
    "country": "IN",
    "zipcode": "40220",
    "name": "Kihim",
    "region": "Maharashtra",
    "short_region": "16",
    "lat": "18.726100",
    "lon": "72.868200"
  },
  {
    "id": "320468",
    "country": "IN",
    "zipcode": "40220",
    "name": "Zirad",
    "region": "Maharashtra",
    "short_region": "16",
    "lat": "18.754700",
    "lon": "72.890000"
  },
  {
    "id": "320469",
    "country": "IN",
    "zipcode": "40220",
    "name": "Varsoli",
    "region": "Maharashtra",
    "short_region": "16",
    "lat": "18.666500",
    "lon": "72.869200"
  },
  {
    "id": "320470",
    "country": "IN",
    "zipcode": "40220",
    "name": "Veshvi",
    "region": "Maharashtra",
    "short_region": "16",
    "lat": "18.652800",
    "lon": "72.893300"
  },
  {
    "id": "320471",
    "country": "IN",
    "zipcode": "40220",
    "name": "Hashiware",
    "region": "Maharashtra",
    "short_region": "16",
    "lat": "18.664300",
    "lon": "72.891400"
  },
  {
    "id": "320472",
    "country": "IN",
    "zipcode": "40220",
    "name": "Kurul",
    "region": "Maharashtra",
    "short_region": "16",
    "lat": "18.664300",
    "lon": "72.891400"
  },
  {
    "id": "320473",
    "country": "IN",
    "zipcode": "40220",
    "name": "Kamarle",
    "region": "Maharashtra",
    "short_region": "16",
    "lat": "18.664300",
    "lon": "72.891400"
  },
  {
    "id": "320474",
    "country": "IN",
    "zipcode": "40220",
    "name": "Kurul RCF Colony",
    "region": "Maharashtra",
    "short_region": "16",
    "lat": "18.664300",
    "lon": "72.891400"
  },
  {
    "id": "320475",
    "country": "IN",
    "zipcode": "40220",
    "name": "Khandale",
    "region": "Maharashtra",
    "short_region": "16",
    "lat": "18.673500",
    "lon": "72.911800"
  },
  {
    "id": "320476",
    "country": "IN",
    "zipcode": "40220",
    "name": "Saral",
    "region": "Maharashtra",
    "short_region": "16",
    "lat": "18.664300",
    "lon": "72.891400"
  },
  {
    "id": "320477",
    "country": "IN",
    "zipcode": "40220",
    "name": "Narangi",
    "region": "Maharashtra",
    "short_region": "16",
    "lat": "18.664300",
    "lon": "72.891400"
  },
  {
    "id": "320478",
    "country": "IN",
    "zipcode": "40230",
    "name": "Underi",
    "region": "Maharashtra",
    "short_region": "16",
    "lat": "18.348400",
    "lon": "73.160300"
  },
  {
    "id": "320479",
    "country": "IN",
    "zipcode": "40230",
    "name": "Sawad",
    "region": "Maharashtra",
    "short_region": "16",
    "lat": "18.348400",
    "lon": "73.160300"
  },
  {
    "id": "320480",
    "country": "IN",
    "zipcode": "40230",
    "name": "Natondi",
    "region": "Maharashtra",
    "short_region": "16",
    "lat": "18.348400",
    "lon": "73.160300"
  },
  {
    "id": "320481",
    "country": "IN",
    "zipcode": "40230",
    "name": "Sav",
    "region": "Maharashtra",
    "short_region": "16",
    "lat": "18.348400",
    "lon": "73.160300"
  },
  {
    "id": "320482",
    "country": "IN",
    "zipcode": "40230",
    "name": "Wahoor",
    "region": "Maharashtra",
    "short_region": "16",
    "lat": "18.348400",
    "lon": "73.160300"
  },
  {
    "id": "320483",
    "country": "IN",
    "zipcode": "40230",
    "name": "Kotheri",
    "region": "Maharashtra",
    "short_region": "16",
    "lat": "18.348400",
    "lon": "73.160300"
  },
  {
    "id": "320484",
    "country": "IN",
    "zipcode": "40230",
    "name": "Kurle",
    "region": "Maharashtra",
    "short_region": "16",
    "lat": "18.348400",
    "lon": "73.160300"
  },
  {
    "id": "320485",
    "country": "IN",
    "zipcode": "40230",
    "name": "Mumurshi",
    "region": "Maharashtra",
    "short_region": "16",
    "lat": "18.348400",
    "lon": "73.160300"
  },
  {
    "id": "320486",
    "country": "IN",
    "zipcode": "40230",
    "name": "Chandhave Budruk",
    "region": "Maharashtra",
    "short_region": "16",
    "lat": "18.348400",
    "lon": "73.160300"
  },
  {
    "id": "320487",
    "country": "IN",
    "zipcode": "40230",
    "name": "Chochinde",
    "region": "Maharashtra",
    "short_region": "16",
    "lat": "18.348400",
    "lon": "73.160300"
  },
  {
    "id": "320488",
    "country": "IN",
    "zipcode": "40230",
    "name": "Gondale",
    "region": "Maharashtra",
    "short_region": "16",
    "lat": "18.348400",
    "lon": "73.160300"
  },
  {
    "id": "320489",
    "country": "IN",
    "zipcode": "40230",
    "name": "Karanjadi",
    "region": "Maharashtra",
    "short_region": "16",
    "lat": "18.348400",
    "lon": "73.160300"
  },
  {
    "id": "320490",
    "country": "IN",
    "zipcode": "40230",
    "name": "Dharavali",
    "region": "Maharashtra",
    "short_region": "16",
    "lat": "18.348400",
    "lon": "73.160300"
  },
  {
    "id": "320491",
    "country": "IN",
    "zipcode": "40230",
    "name": "Revtale",
    "region": "Maharashtra",
    "short_region": "16",
    "lat": "18.348400",
    "lon": "73.160300"
  },
  {
    "id": "320492",
    "country": "IN",
    "zipcode": "40230",
    "name": "Navipeth Mahad",
    "region": "Maharashtra",
    "short_region": "16",
    "lat": "18.348400",
    "lon": "73.160300"
  },
  {
    "id": "320493",
    "country": "IN",
    "zipcode": "40230",
    "name": "Salvadnaka Mahad No Dly.",
    "region": "Maharashtra",
    "short_region": "16",
    "lat": "18.348400",
    "lon": "73.160300"
  },
  {
    "id": "320494",
    "country": "IN",
    "zipcode": "40230",
    "name": "Kemburli",
    "region": "Maharashtra",
    "short_region": "16",
    "lat": "18.348400",
    "lon": "73.160300"
  },
  {
    "id": "320495",
    "country": "IN",
    "zipcode": "40230",
    "name": "Kinjaloli Budruk",
    "region": "Maharashtra",
    "short_region": "16",
    "lat": "18.348400",
    "lon": "73.160300"
  },
  {
    "id": "320496",
    "country": "IN",
    "zipcode": "40230",
    "name": "Ambivali",
    "region": "Maharashtra",
    "short_region": "16",
    "lat": "18.348400",
    "lon": "73.160300"
  },
  {
    "id": "320497",
    "country": "IN",
    "zipcode": "40230",
    "name": "Kalavali",
    "region": "Maharashtra",
    "short_region": "16",
    "lat": "18.348400",
    "lon": "73.160300"
  },
  {
    "id": "320498",
    "country": "IN",
    "zipcode": "40230",
    "name": "Mahad",
    "region": "Maharashtra",
    "short_region": "16",
    "lat": "18.083300",
    "lon": "73.416700"
  },