[
  {
    "id": "250001",
    "country": "GB",
    "zipcode": "B90",
    "name": "Solihull Lodge",
    "region": "England",
    "short_region": "EN",
    "lat": "52.410700",
    "lon": "-1.819500"
  },
  {
    "id": "250002",
    "country": "GB",
    "zipcode": "B91",
    "name": "Solihull",
    "region": "England",
    "short_region": "EN",
    "lat": "52.414300",
    "lon": "-1.780900"
  },
  {
    "id": "250003",
    "country": "GB",
    "zipcode": "B91",
    "name": "Blossomfield",
    "region": "England",
    "short_region": "EN",
    "lat": "52.414300",
    "lon": "-1.780900"
  },
  {
    "id": "250004",
    "country": "GB",
    "zipcode": "B92",
    "name": "Kineton Green",
    "region": "England",
    "short_region": "EN",
    "lat": "52.436900",
    "lon": "-1.774700"
  },
  {
    "id": "250005",
    "country": "GB",
    "zipcode": "B92",
    "name": "Hampton in Arden",
    "region": "England",
    "short_region": "EN",
    "lat": "52.425400",
    "lon": "-1.702700"
  },
  {
    "id": "250006",
    "country": "GB",
    "zipcode": "B92",
    "name": "Bickenhill",
    "region": "England",
    "short_region": "EN",
    "lat": "52.439700",
    "lon": "-1.725500"
  },
  {
    "id": "250007",
    "country": "GB",
    "zipcode": "B92",
    "name": "Elmdon Heath",
    "region": "England",
    "short_region": "EN",
    "lat": "52.436900",
    "lon": "-1.774700"
  },
  {
    "id": "250008",
    "country": "GB",
    "zipcode": "B92",
    "name": "Eastcote",
    "region": "England",
    "short_region": "EN",
    "lat": "52.436900",
    "lon": "-1.774700"
  },
  {
    "id": "250009",
    "country": "GB",
    "zipcode": "B92",
    "name": "Olton",
    "region": "England",
    "short_region": "EN",
    "lat": "52.438300",
    "lon": "-1.805100"
  },
  {
    "id": "250010",
    "country": "GB",
    "zipcode": "B93",
    "name": "Chadwick End",
    "region": "England",
    "short_region": "EN",
    "lat": "52.385300",
    "lon": "-1.727300"
  },
  {
    "id": "250011",
    "country": "GB",
    "zipcode": "B93",
    "name": "Barston",
    "region": "England",
    "short_region": "EN",
    "lat": "52.399900",
    "lon": "-1.695500"
  },
  {
    "id": "250012",
    "country": "GB",
    "zipcode": "B93",
    "name": "Knowle",
    "region": "England",
    "short_region": "EN",
    "lat": "52.383300",
    "lon": "-1.733300"
  },
  {
    "id": "250013",
    "country": "GB",
    "zipcode": "B93",
    "name": "Bentley Heath",
    "region": "England",
    "short_region": "EN",
    "lat": "52.385300",
    "lon": "-1.727300"
  },
  {
    "id": "250014",
    "country": "GB",
    "zipcode": "B93",
    "name": "Copt Heath",
    "region": "England",
    "short_region": "EN",
    "lat": "52.385300",
    "lon": "-1.727300"
  },
  {
    "id": "250015",
    "country": "GB",
    "zipcode": "B93",
    "name": "Dorridge",
    "region": "England",
    "short_region": "EN",
    "lat": "52.372600",
    "lon": "-1.753200"
  },
  {
    "id": "250016",
    "country": "GB",
    "zipcode": "B94",
    "name": "Hockley Heath",
    "region": "England",
    "short_region": "EN",
    "lat": "52.354800",
    "lon": "-1.780300"
  },
  {
    "id": "250017",
    "country": "GB",
    "zipcode": "B99",
    "name": "Birmingham",
    "region": "England",
    "short_region": "EN",
    "lat": "52.481400",
    "lon": "-1.899800"
  },
  {
    "id": "250018",
    "country": "GB",
    "zipcode": "CV1",
    "name": "Coventry",
    "region": "England",
    "short_region": "EN",
    "lat": "52.406600",
    "lon": "-1.512200"
  },
  {
    "id": "250019",
    "country": "GB",
    "zipcode": "CV2",
    "name": "Upper Stoke",
    "region": "England",
    "short_region": "EN",
    "lat": "52.424200",
    "lon": "-1.463800"
  },
  {
    "id": "250020",
    "country": "GB",
    "zipcode": "CV2",
    "name": "Stoke",
    "region": "England",
    "short_region": "EN",
    "lat": "52.424200",
    "lon": "-1.463800"
  },
  {
    "id": "250021",
    "country": "GB",
    "zipcode": "CV2",
    "name": "Walsgrave on Sowe",
    "region": "England",
    "short_region": "EN",
    "lat": "52.425500",
    "lon": "-1.445300"
  },
  {
    "id": "250022",
    "country": "GB",
    "zipcode": "CV2",
    "name": "Alderman's Green",
    "region": "England",
    "short_region": "EN",
    "lat": "52.424200",
    "lon": "-1.463800"
  },
  {
    "id": "250023",
    "country": "GB",
    "zipcode": "CV3",
    "name": "Stivichall",
    "region": "England",
    "short_region": "EN",
    "lat": "52.385000",
    "lon": "-1.513200"
  },
  {
    "id": "250024",
    "country": "GB",
    "zipcode": "CV3",
    "name": "Binley",
    "region": "England",
    "short_region": "EN",
    "lat": "52.394200",
    "lon": "-1.480700"
  },
  {
    "id": "250025",
    "country": "GB",
    "zipcode": "CV3",
    "name": "Willenhall",
    "region": "England",
    "short_region": "EN",
    "lat": "52.394200",
    "lon": "-1.480700"
  },
  {
    "id": "250026",
    "country": "GB",
    "zipcode": "CV5",
    "name": "Chapel Fields",
    "region": "England",
    "short_region": "EN",
    "lat": "52.426000",
    "lon": "-1.571600"
  },
  {
    "id": "250027",
    "country": "GB",
    "zipcode": "CV5",
    "name": "Upper Eastern Green",
    "region": "England",
    "short_region": "EN",
    "lat": "52.426000",
    "lon": "-1.571600"
  },
  {
    "id": "250028",
    "country": "GB",
    "zipcode": "CV5",
    "name": "Allesley",
    "region": "England",
    "short_region": "EN",
    "lat": "52.426000",
    "lon": "-1.571600"
  },
  {
    "id": "250029",
    "country": "GB",
    "zipcode": "CV5",
    "name": "Hawkes End",
    "region": "England",
    "short_region": "EN",
    "lat": "52.426000",
    "lon": "-1.571600"
  },
  {
    "id": "250030",
    "country": "GB",
    "zipcode": "CV5",
    "name": "Brownshill Green",
    "region": "England",
    "short_region": "EN",
    "lat": "52.426000",
    "lon": "-1.571600"
  },
  {
    "id": "250031",
    "country": "GB",
    "zipcode": "CV5",
    "name": "Pickford Green",
    "region": "England",
    "short_region": "EN",
    "lat": "52.426000",
    "lon": "-1.571600"
  },
  {
    "id": "250032",
    "country": "GB",
    "zipcode": "CV5",
    "name": "Earlsdon",
    "region": "England",
    "short_region": "EN",
    "lat": "52.426000",
    "lon": "-1.571600"
  },
  {
    "id": "250033",
    "country": "GB",
    "zipcode": "CV6",
    "name": "Foleshill",
    "region": "England",
    "short_region": "EN",
    "lat": "52.439300",
    "lon": "-1.483000"
  },
  {
    "id": "250034",
    "country": "GB",
    "zipcode": "CV6",
    "name": "Great Heath",
    "region": "England",
    "short_region": "EN",
    "lat": "52.441400",
    "lon": "-1.499900"
  },
  {
    "id": "250035",
    "country": "GB",
    "zipcode": "CV6",
    "name": "Longford",
    "region": "England",
    "short_region": "EN",
    "lat": "52.433300",
    "lon": "-1.483300"
  },
  {
    "id": "250036",
    "country": "GB",
    "zipcode": "CV6",
    "name": "Keresley",
    "region": "England",
    "short_region": "EN",
    "lat": "52.451600",
    "lon": "-1.533200"
  },
  {
    "id": "250037",
    "country": "GB",
    "zipcode": "CV6",
    "name": "Court House Green",
    "region": "England",
    "short_region": "EN",
    "lat": "52.441400",
    "lon": "-1.499900"
  },
  {
    "id": "250038",
    "country": "GB",
    "zipcode": "CV6",
    "name": "Radford",
    "region": "England",
    "short_region": "EN",
    "lat": "52.441400",
    "lon": "-1.499900"
  },
  {
    "id": "250039",
    "country": "GB",
    "zipcode": "CV6",
    "name": "Little Heath",
    "region": "England",
    "short_region": "EN",
    "lat": "52.441400",
    "lon": "-1.499900"
  },
  {
    "id": "250040",
    "country": "GB",
    "zipcode": "CV7",
    "name": "Berkswell",
    "region": "England",
    "short_region": "EN",
    "lat": "52.409000",
    "lon": "-1.642200"
  },
  {
    "id": "250041",
    "country": "GB",
    "zipcode": "CV7",
    "name": "Balsall Common",
    "region": "England",
    "short_region": "EN",
    "lat": "52.391900",
    "lon": "-1.650400"
  },
  {
    "id": "250042",
    "country": "GB",
    "zipcode": "CV7",
    "name": "Meriden",
    "region": "England",
    "short_region": "EN",
    "lat": "52.437700",
    "lon": "-1.643700"
  },
  {
    "id": "250043",
    "country": "GB",
    "zipcode": "CV7",
    "name": "Balsall",
    "region": "England",
    "short_region": "EN",
    "lat": "52.389300",
    "lon": "-1.654800"
  },
  {
    "id": "250044",
    "country": "GB",
    "zipcode": "CV7",
    "name": "Four Oaks",
    "region": "England",
    "short_region": "EN",
    "lat": "52.445900",
    "lon": "-1.566800"
  },
  {
    "id": "250045",
    "country": "GB",
    "zipcode": "DY1",
    "name": "Dudley",
    "region": "England",
    "short_region": "EN",
    "lat": "52.500000",
    "lon": "-2.083300"
  },
  {
    "id": "250046",
    "country": "GB",
    "zipcode": "DY2",
    "name": "Netherton",
    "region": "England",
    "short_region": "EN",
    "lat": "52.483300",
    "lon": "-2.083300"
  },
  {
    "id": "250047",
    "country": "GB",
    "zipcode": "DY3",
    "name": "Sedgley",
    "region": "England",
    "short_region": "EN",
    "lat": "52.541500",
    "lon": "-2.122100"
  },
  {
    "id": "250048",
    "country": "GB",
    "zipcode": "DY3",
    "name": "Gornalwood",
    "region": "England",
    "short_region": "EN",
    "lat": "52.516700",
    "lon": "-2.133300"
  },
  {
    "id": "250049",
    "country": "GB",
    "zipcode": "DY3",
    "name": "Gospel End",
    "region": "England",
    "short_region": "EN",
    "lat": "52.530600",
    "lon": "-2.130400"
  },
  {
    "id": "250050",
    "country": "GB",
    "zipcode": "DY3",
    "name": "Upper Gornal",
    "region": "England",
    "short_region": "EN",
    "lat": "52.530600",
    "lon": "-2.130400"
  },
  {
    "id": "250051",
    "country": "GB",
    "zipcode": "DY4",
    "name": "Tipton",
    "region": "England",
    "short_region": "EN",
    "lat": "52.529600",
    "lon": "-2.067700"
  },
  {
    "id": "250052",
    "country": "GB",
    "zipcode": "DY4",
    "name": "Dudley Port",
    "region": "England",
    "short_region": "EN",
    "lat": "52.529600",
    "lon": "-2.067700"
  },
  {
    "id": "250053",
    "country": "GB",
    "zipcode": "DY4",
    "name": "Princes End",
    "region": "England",
    "short_region": "EN",
    "lat": "52.529600",
    "lon": "-2.067700"
  },
  {
    "id": "250054",
    "country": "GB",
    "zipcode": "DY5",
    "name": "Pensnett",
    "region": "England",
    "short_region": "EN",
    "lat": "52.490900",
    "lon": "-2.119000"
  },
  {
    "id": "250055",
    "country": "GB",
    "zipcode": "DY5",
    "name": "Quarry Bank",
    "region": "England",
    "short_region": "EN",
    "lat": "52.490900",
    "lon": "-2.119000"
  },
  {
    "id": "250056",
    "country": "GB",
    "zipcode": "DY5",
    "name": "Brierley Hill",
    "region": "England",
    "short_region": "EN",
    "lat": "52.481700",
    "lon": "-2.121400"
  },
  {
    "id": "250057",
    "country": "GB",
    "zipcode": "DY5",
    "name": "Woodside",
    "region": "England",
    "short_region": "EN",
    "lat": "52.500000",
    "lon": "-2.116700"
  },
  {
    "id": "250058",
    "country": "GB",
    "zipcode": "DY6",
    "name": "Wall Heath",
    "region": "England",
    "short_region": "EN",
    "lat": "52.497600",
    "lon": "-2.168900"
  },
  {
    "id": "250059",
    "country": "GB",
    "zipcode": "DY6",
    "name": "Kingswinford",
    "region": "England",
    "short_region": "EN",
    "lat": "52.497600",
    "lon": "-2.168900"
  },
  {
    "id": "250060",
    "country": "GB",
    "zipcode": "DY8",
    "name": "Old Swinford",
    "region": "England",
    "short_region": "EN",
    "lat": "52.460800",
    "lon": "-2.155600"
  },
  {
    "id": "250061",
    "country": "GB",
    "zipcode": "DY8",
    "name": "Stourbridge",
    "region": "England",
    "short_region": "EN",
    "lat": "52.456100",
    "lon": "-2.143200"
  },
  {
    "id": "250062",
    "country": "GB",
    "zipcode": "DY8",
    "name": "Wollaston",
    "region": "England",
    "short_region": "EN",
    "lat": "52.450000",
    "lon": "-2.166700"
  },
  {
    "id": "250063",
    "country": "GB",
    "zipcode": "DY8",
    "name": "Amblecote",
    "region": "England",
    "short_region": "EN",
    "lat": "52.464100",
    "lon": "-2.150200"
  },
  {
    "id": "250064",
    "country": "GB",
    "zipcode": "DY8",
    "name": "Wordsley",
    "region": "England",
    "short_region": "EN",
    "lat": "52.481200",
    "lon": "-2.165000"
  },
  {
    "id": "250065",
    "country": "GB",
    "zipcode": "DY8",
    "name": "Norton",
    "region": "England",
    "short_region": "EN",
    "lat": "52.460800",
    "lon": "-2.155600"
  },
  {
    "id": "250066",
    "country": "GB",
    "zipcode": "DY9",
    "name": "Pedmore",
    "region": "England",
    "short_region": "EN",
    "lat": "52.438500",
    "lon": "-2.132900"
  },
  {
    "id": "250067",
    "country": "GB",
    "zipcode": "DY9",
    "name": "Lye",
    "region": "England",
    "short_region": "EN",
    "lat": "52.458400",
    "lon": "-2.117000"
  },
  {
    "id": "250068",
    "country": "GB",
    "zipcode": "DY9",
    "name": "Drayton",
    "region": "England",
    "short_region": "EN",
    "lat": "52.434500",
    "lon": "-2.122600"
  },
  {
    "id": "250069",
    "country": "GB",
    "zipcode": "WS1",
    "name": "Maw Green",
    "region": "England",
    "short_region": "EN",
    "lat": "52.585300",
    "lon": "-1.984000"
  },
  {
    "id": "250070",
    "country": "GB",
    "zipcode": "WS1",
    "name": "Walsall",
    "region": "England",
    "short_region": "EN",
    "lat": "52.585300",
    "lon": "-1.984000"
  },
  {
    "id": "250071",
    "country": "GB",
    "zipcode": "WS10",
    "name": "Darlaston",
    "region": "England",
    "short_region": "EN",
    "lat": "52.566700",
    "lon": "-2.033300"
  },
  {
    "id": "250072",
    "country": "GB",
    "zipcode": "WS10",
    "name": "Wednesbury",
    "region": "England",
    "short_region": "EN",
    "lat": "52.551400",
    "lon": "-2.023600"
  },
  {
    "id": "250073",
    "country": "GB",
    "zipcode": "WS10",
    "name": "Moxley",
    "region": "England",
    "short_region": "EN",
    "lat": "52.559000",
    "lon": "-2.028400"
  },
  {
    "id": "250074",
    "country": "GB",
    "zipcode": "WS10",
    "name": "King's Hill",
    "region": "England",
    "short_region": "EN",
    "lat": "52.559000",
    "lon": "-2.028400"
  },
  {
    "id": "250075",
    "country": "GB",
    "zipcode": "WS2",
    "name": "Walsall",
    "region": "England",
    "short_region": "EN",
    "lat": "52.585300",
    "lon": "-1.984000"
  },
  {
    "id": "250076",
    "country": "GB",
    "zipcode": "WS3",
    "name": "Pelsall",
    "region": "England",
    "short_region": "EN",
    "lat": "52.629100",
    "lon": "-1.967400"
  },
  {
    "id": "250077",
    "country": "GB",
    "zipcode": "WS3",
    "name": "Bloxwich",
    "region": "England",
    "short_region": "EN",
    "lat": "52.618100",
    "lon": "-2.004300"
  },
  {
    "id": "250078",
    "country": "GB",
    "zipcode": "WS3",
    "name": "Little Wyrley",
    "region": "England",
    "short_region": "EN",
    "lat": "52.623600",
    "lon": "-1.985800"
  },
  {
    "id": "250079",
    "country": "GB",
    "zipcode": "WS4",
    "name": "Rushall",
    "region": "England",
    "short_region": "EN",
    "lat": "52.600000",
    "lon": "-1.950000"
  },
  {
    "id": "250080",
    "country": "GB",
    "zipcode": "WS4",
    "name": "Shelfield",
    "region": "England",
    "short_region": "EN",
    "lat": "52.600000",
    "lon": "-1.950000"
  },
  {
    "id": "250081",
    "country": "GB",
    "zipcode": "WS5",
    "name": "Walsall",
    "region": "England",
    "short_region": "EN",
    "lat": "52.585300",
    "lon": "-1.984000"
  },
  {
    "id": "250082",
    "country": "GB",
    "zipcode": "WS8",
    "name": "Clayhanger",
    "region": "England",
    "short_region": "EN",
    "lat": "52.633300",
    "lon": "-1.933300"
  },
  {
    "id": "250083",
    "country": "GB",
    "zipcode": "WS8",
    "name": "Shire Oak",
    "region": "England",
    "short_region": "EN",
    "lat": "52.633300",
    "lon": "-1.933300"
  },
  {
    "id": "250084",
    "country": "GB",
    "zipcode": "WS8",
    "name": "Brownhills",
    "region": "England",
    "short_region": "EN",
    "lat": "52.633300",
    "lon": "-1.933300"
  },
  {
    "id": "250085",
    "country": "GB",
    "zipcode": "WS9",
    "name": "Thornes",
    "region": "England",
    "short_region": "EN",
    "lat": "52.609900",
    "lon": "-1.918800"
  },
  {
    "id": "250086",
    "country": "GB",
    "zipcode": "WS9",
    "name": "Aldridge",
    "region": "England",
    "short_region": "EN",
    "lat": "52.605500",
    "lon": "-1.917100"
  },
  {
    "id": "250087",
    "country": "GB",
    "zipcode": "WS9",
    "name": "Walsall Wood",
    "region": "England",
    "short_region": "EN",
    "lat": "52.626800",
    "lon": "-1.931600"
  },
  {
    "id": "250088",
    "country": "GB",
    "zipcode": "WS9",
    "name": "Vigo",
    "region": "England",
    "short_region": "EN",
    "lat": "52.609900",
    "lon": "-1.918800"
  },
  {
    "id": "250089",
    "country": "GB",
    "zipcode": "WV1",
    "name": "Monmore Green",
    "region": "England",
    "short_region": "EN",
    "lat": "52.577200",
    "lon": "-2.107900"
  },
  {
    "id": "250090",
    "country": "GB",
    "zipcode": "WV1",
    "name": "Wolverhampton",
    "region": "England",
    "short_region": "EN",
    "lat": "52.585500",
    "lon": "-2.123000"
  },
  {
    "id": "250091",
    "country": "GB",
    "zipcode": "WV10",
    "name": "Bushbury",
    "region": "England",
    "short_region": "EN",
    "lat": "52.620400",
    "lon": "-2.114500"
  },
  {
    "id": "250092",
    "country": "GB",
    "zipcode": "WV11",
    "name": "Wednesfield",
    "region": "England",
    "short_region": "EN",
    "lat": "52.600000",
    "lon": "-2.083300"
  },
  {
    "id": "250093",
    "country": "GB",
    "zipcode": "WV12",
    "name": "New Invention",
    "region": "England",
    "short_region": "EN",
    "lat": "52.606000",
    "lon": "-2.040600"
  },
  {
    "id": "250094",
    "country": "GB",
    "zipcode": "WV13",
    "name": "Willenhall",
    "region": "England",
    "short_region": "EN",
    "lat": "52.600000",
    "lon": "-2.033300"
  },
  {
    "id": "250095",
    "country": "GB",
    "zipcode": "WV14",
    "name": "Coseley",
    "region": "England",
    "short_region": "EN",
    "lat": "52.544800",
    "lon": "-2.085500"
  },
  {
    "id": "250096",
    "country": "GB",
    "zipcode": "WV14",
    "name": "Bradley",
    "region": "England",
    "short_region": "EN",
    "lat": "52.557300",
    "lon": "-2.079100"
  },
  {
    "id": "250097",
    "country": "GB",
    "zipcode": "WV14",
    "name": "Bilston",
    "region": "England",
    "short_region": "EN",
    "lat": "52.566700",
    "lon": "-2.066700"
  },
  {
    "id": "250098",
    "country": "GB",
    "zipcode": "WV2",
    "name": "Blakenhall",
    "region": "England",
    "short_region": "EN",
    "lat": "52.574100",
    "lon": "-2.119500"
  },
  {
    "id": "250099",
    "country": "GB",
    "zipcode": "WV3",
    "name": "Bradmore",
    "region": "England",
    "short_region": "EN",
    "lat": "52.579100",
    "lon": "-2.156100"
  },
  {
    "id": "250100",
    "country": "GB",
    "zipcode": "WV4",
    "name": "Ettingshall",
    "region": "England",
    "short_region": "EN",
    "lat": "52.561600",
    "lon": "-2.144300"
  },
  {
    "id": "250101",
    "country": "GB",
    "zipcode": "WV4",
    "name": "Penn",
    "region": "England",
    "short_region": "EN",
    "lat": "52.561600",
    "lon": "-2.144300"
  },
  {
    "id": "250102",
    "country": "GB",
    "zipcode": "WV6",
    "name": "Ackleton",
    "region": "England",
    "short_region": "EN",
    "lat": "52.596900",
    "lon": "-2.182100"
  },
  {
    "id": "250103",
    "country": "GB",
    "zipcode": "WV6",
    "name": "Shipley",
    "region": "England",
    "short_region": "EN",
    "lat": "52.596900",
    "lon": "-2.182100"
  },
  {
    "id": "250104",
    "country": "GB",
    "zipcode": "WV6",
    "name": "Tettenhall",
    "region": "England",
    "short_region": "EN",
    "lat": "52.602100",
    "lon": "-2.165300"
  },
  {
    "id": "250105",
    "country": "GB",
    "zipcode": "WV6",
    "name": "Tettenhall Wood",
    "region": "England",
    "short_region": "EN",
    "lat": "52.596900",
    "lon": "-2.182100"
  },
  {
    "id": "250106",
    "country": "GB",
    "zipcode": "WV6",
    "name": "Wergs",
    "region": "England",
    "short_region": "EN",
    "lat": "52.596900",
    "lon": "-2.182100"
  },
  {
    "id": "250107",
    "country": "GB",
    "zipcode": "WV6",
    "name": "Nurton",
    "region": "England",
    "short_region": "EN",
    "lat": "52.596900",
    "lon": "-2.182100"
  },
  {
    "id": "250108",
    "country": "GB",
    "zipcode": "DH3",
    "name": "Birtley",
    "region": "England",
    "short_region": "EN",
    "lat": "54.883300",
    "lon": "-1.566700"
  },
  {
    "id": "250109",
    "country": "GB",
    "zipcode": "DH4",
    "name": "Shiney Row",
    "region": "England",
    "short_region": "EN",
    "lat": "54.864300",
    "lon": "-1.497600"
  },
  {
    "id": "250110",
    "country": "GB",
    "zipcode": "DH4",
    "name": "Penshaw",
    "region": "England",
    "short_region": "EN",
    "lat": "54.883300",
    "lon": "-1.483300"
  },
  {
    "id": "250111",
    "country": "GB",
    "zipcode": "DH4",
    "name": "Houghton le Spring",
    "region": "England",
    "short_region": "EN",
    "lat": "54.840300",
    "lon": "-1.464300"
  },
  {
    "id": "250112",
    "country": "GB",
    "zipcode": "DH4",
    "name": "Fence Houses",
    "region": "England",
    "short_region": "EN",
    "lat": "54.851200",
    "lon": "-1.486300"
  },
  {
    "id": "250113",
    "country": "GB",
    "zipcode": "DH4",
    "name": "Colliery Row",
    "region": "England",
    "short_region": "EN",
    "lat": "54.851200",
    "lon": "-1.486300"
  },
  {
    "id": "250114",
    "country": "GB",
    "zipcode": "DH5",
    "name": "Easington Lane",
    "region": "England",
    "short_region": "EN",
    "lat": "54.805800",
    "lon": "-1.434800"
  },
  {
    "id": "250115",
    "country": "GB",
    "zipcode": "DH5",
    "name": "East Rainton",
    "region": "England",
    "short_region": "EN",
    "lat": "54.811200",
    "lon": "-1.442400"
  },
  {
    "id": "250116",
    "country": "GB",
    "zipcode": "DH5",
    "name": "Hetton-le-Hole",
    "region": "England",
    "short_region": "EN",
    "lat": "54.816700",
    "lon": "-1.450000"
  },
  {
    "id": "250117",
    "country": "GB",
    "zipcode": "DH6",
    "name": "Pittington",
    "region": "England",
    "short_region": "EN",
    "lat": "54.800000",
    "lon": "-1.483300"
  },
  {
    "id": "250118",
    "country": "GB",
    "zipcode": "NE1",
    "name": "Newcastle upon Tyne",
    "region": "England",
    "short_region": "EN",
    "lat": "54.973300",
    "lon": "-1.614000"
  },
  {
    "id": "250119",
    "country": "GB",
    "zipcode": "NE10",
    "name": "Pelaw",
    "region": "England",
    "short_region": "EN",
    "lat": "54.953000",
    "lon": "-1.571500"
  },
  {
    "id": "250120",
    "country": "GB",
    "zipcode": "NE10",
    "name": "Felling",
    "region": "England",
    "short_region": "EN",
    "lat": "54.953000",
    "lon": "-1.571500"
  },
  {
    "id": "250121",
    "country": "GB",
    "zipcode": "NE11",
    "name": "Kibblesworth",
    "region": "England",
    "short_region": "EN",
    "lat": "54.932800",
    "lon": "-1.629700"
  },
  {
    "id": "250122",
    "country": "GB",
    "zipcode": "NE11",
    "name": "Team Valley",
    "region": "England",
    "short_region": "EN",
    "lat": "54.932800",
    "lon": "-1.629700"
  },
  {
    "id": "250123",
    "country": "GB",
    "zipcode": "NE11",
    "name": "Dunston",
    "region": "England",
    "short_region": "EN",
    "lat": "54.950000",
    "lon": "-1.650000"
  },
  {
    "id": "250124",
    "country": "GB",
    "zipcode": "NE11",
    "name": "Lamesley",
    "region": "England",
    "short_region": "EN",
    "lat": "54.915700",
    "lon": "-1.609500"
  },
  {
    "id": "250125",
    "country": "GB",
    "zipcode": "NE12",
    "name": "Benton Square",
    "region": "England",
    "short_region": "EN",
    "lat": "55.029000",
    "lon": "-1.567600"
  },
  {
    "id": "250126",
    "country": "GB",
    "zipcode": "NE12",
    "name": "Killingworth",
    "region": "England",
    "short_region": "EN",
    "lat": "55.036000",
    "lon": "-1.564300"
  },
  {
    "id": "250127",
    "country": "GB",
    "zipcode": "NE12",
    "name": "Forest Hall",
    "region": "England",
    "short_region": "EN",
    "lat": "55.022000",
    "lon": "-1.570900"
  },
  {
    "id": "250128",
    "country": "GB",
    "zipcode": "NE13",
    "name": "Wide Open",
    "region": "England",
    "short_region": "EN",
    "lat": "55.052300",
    "lon": "-1.647400"
  },
  {
    "id": "250129",
    "country": "GB",
    "zipcode": "NE13",
    "name": "Seaton Burn",
    "region": "England",
    "short_region": "EN",
    "lat": "55.061300",
    "lon": "-1.627500"
  },
  {
    "id": "250130",
    "country": "GB",
    "zipcode": "NE13",
    "name": "Hazlerigg",
    "region": "England",
    "short_region": "EN",
    "lat": "55.041300",
    "lon": "-1.639100"
  },
  {
    "id": "250131",
    "country": "GB",
    "zipcode": "NE13",
    "name": "Brenkley",
    "region": "England",
    "short_region": "EN",
    "lat": "55.052300",
    "lon": "-1.647400"
  },
  {
    "id": "250132",
    "country": "GB",
    "zipcode": "NE13",
    "name": "New Horton Grange",
    "region": "England",
    "short_region": "EN",
    "lat": "55.052300",
    "lon": "-1.647400"
  },
  {
    "id": "250133",
    "country": "GB",
    "zipcode": "NE13",
    "name": "Dinnington",
    "region": "England",
    "short_region": "EN",
    "lat": "55.054300",
    "lon": "-1.675400"
  },
  {
    "id": "250134",
    "country": "GB",
    "zipcode": "NE15",
    "name": "Newburn",
    "region": "England",
    "short_region": "EN",
    "lat": "54.987600",
    "lon": "-1.744100"
  },
  {
    "id": "250135",
    "country": "GB",
    "zipcode": "NE15",
    "name": "Throckley",
    "region": "England",
    "short_region": "EN",
    "lat": "54.994800",
    "lon": "-1.755400"
  },
  {
    "id": "250136",
    "country": "GB",
    "zipcode": "NE15",
    "name": "Lemington",
    "region": "England",
    "short_region": "EN",
    "lat": "54.978400",
    "lon": "-1.709400"
  },
  {
    "id": "250137",
    "country": "GB",
    "zipcode": "NE16",
    "name": "Marley Hill",
    "region": "England",
    "short_region": "EN",
    "lat": "54.916800",
    "lon": "-1.681400"
  },
  {
    "id": "250138",
    "country": "GB",
    "zipcode": "NE16",
    "name": "Swalwell",
    "region": "England",
    "short_region": "EN",
    "lat": "54.953300",
    "lon": "-1.681600"
  },
  {
    "id": "250139",
    "country": "GB",
    "zipcode": "NE16",
    "name": "Whickham",
    "region": "England",
    "short_region": "EN",
    "lat": "54.945600",
    "lon": "-1.676400"
  },
  {
    "id": "250140",
    "country": "GB",
    "zipcode": "NE16",
    "name": "Sunniside",
    "region": "England",
    "short_region": "EN",
    "lat": "54.930500",
    "lon": "-1.691000"
  },
  {
    "id": "250141",
    "country": "GB",
    "zipcode": "NE16",
    "name": "Hobson",
    "region": "England",
    "short_region": "EN",
    "lat": "54.930500",
    "lon": "-1.691000"
  },
  {
    "id": "250142",
    "country": "GB",
    "zipcode": "NE17",
    "name": "Leadgate",
    "region": "England",
    "short_region": "EN",
    "lat": "54.913500",
    "lon": "-1.817600"
  },
  {
    "id": "250143",
    "country": "GB",
    "zipcode": "NE17",
    "name": "Chopwell",
    "region": "England",
    "short_region": "EN",
    "lat": "54.913500",
    "lon": "-1.817600"
  },
  {
    "id": "250144",
    "country": "GB",
    "zipcode": "NE17",
    "name": "Hamsterley",
    "region": "England",
    "short_region": "EN",
    "lat": "54.913500",
    "lon": "-1.817600"
  },
  {
    "id": "250145",
    "country": "GB",
    "zipcode": "NE2",
    "name": "Heaton",
    "region": "England",
    "short_region": "EN",
    "lat": "54.983300",
    "lon": "-1.583300"
  },
  {
    "id": "250146",
    "country": "GB",
    "zipcode": "NE2",
    "name": "Jesmond",
    "region": "England",
    "short_region": "EN",
    "lat": "54.990100",
    "lon": "-1.600700"
  },
  {
    "id": "250147",
    "country": "GB",
    "zipcode": "NE21",
    "name": "Winlaton",
    "region": "England",
    "short_region": "EN",
    "lat": "54.953200",
    "lon": "-1.719200"
  },
  {
    "id": "250148",
    "country": "GB",
    "zipcode": "NE21",
    "name": "Barlow",
    "region": "England",
    "short_region": "EN",
    "lat": "54.957700",
    "lon": "-1.721300"
  },
  {
    "id": "250149",
    "country": "GB",
    "zipcode": "NE21",
    "name": "Stella",
    "region": "England",
    "short_region": "EN",
    "lat": "54.957700",
    "lon": "-1.721300"
  },
  {
    "id": "250150",
    "country": "GB",
    "zipcode": "NE21",
    "name": "Blaydon",
    "region": "England",
    "short_region": "EN",
    "lat": "54.964600",
    "lon": "-1.713900"
  },
  {
    "id": "250151",
    "country": "GB",
    "zipcode": "NE25",
    "name": "Monkseaton",
    "region": "England",
    "short_region": "EN",
    "lat": "55.042300",
    "lon": "-1.465900"
  },
  {
    "id": "250152",
    "country": "GB",
    "zipcode": "NE25",
    "name": "Earsdon",
    "region": "England",
    "short_region": "EN",
    "lat": "55.046000",
    "lon": "-1.499000"
  },
  {
    "id": "250153",
    "country": "GB",
    "zipcode": "NE26",
    "name": "Seaton",
    "region": "England",
    "short_region": "EN",
    "lat": "55.051800",
    "lon": "-1.458700"
  },
  {
    "id": "250154",
    "country": "GB",
    "zipcode": "NE26",
    "name": "Whitley Bay",
    "region": "England",
    "short_region": "EN",
    "lat": "55.039700",
    "lon": "-1.447100"
  },
  {
    "id": "250155",
    "country": "GB",
    "zipcode": "NE26",
    "name": "Seaton Sluice",
    "region": "England",
    "short_region": "EN",
    "lat": "55.051800",
    "lon": "-1.458700"
  },
  {
    "id": "250156",
    "country": "GB",
    "zipcode": "NE27",
    "name": "Shiremoor",
    "region": "England",
    "short_region": "EN",
    "lat": "55.035400",
    "lon": "-1.509500"
  },
  {
    "id": "250157",
    "country": "GB",
    "zipcode": "NE27",
    "name": "New York",
    "region": "England",
    "short_region": "EN",
    "lat": "55.032400",
    "lon": "-1.512200"
  },
  {
    "id": "250158",
    "country": "GB",
    "zipcode": "NE28",
    "name": "Willington",
    "region": "England",
    "short_region": "EN",
    "lat": "55.000100",
    "lon": "-1.520100"
  },
  {
    "id": "250159",
    "country": "GB",
    "zipcode": "NE28",
    "name": "Wallsend",
    "region": "England",
    "short_region": "EN",
    "lat": "54.991100",
    "lon": "-1.534000"
  },
  {
    "id": "250160",
    "country": "GB",
    "zipcode": "NE29",
    "name": "North Shields",
    "region": "England",
    "short_region": "EN",
    "lat": "55.016500",
    "lon": "-1.449300"
  },
  {
    "id": "250161",
    "country": "GB",
    "zipcode": "NE3",
    "name": "Gosforth",
    "region": "England",
    "short_region": "EN",
    "lat": "55.000000",
    "lon": "-1.616700"
  },
  {
    "id": "250162",
    "country": "GB",
    "zipcode": "NE3",
    "name": "Kenton",
    "region": "England",
    "short_region": "EN",
    "lat": "55.006300",
    "lon": "-1.651100"
  },
  {
    "id": "250163",
    "country": "GB",
    "zipcode": "NE3",
    "name": "Fawdon",
    "region": "England",
    "short_region": "EN",
    "lat": "55.003200",
    "lon": "-1.633900"
  },
  {
    "id": "250164",
    "country": "GB",
    "zipcode": "NE3",
    "name": "Kingston Park",
    "region": "England",
    "short_region": "EN",
    "lat": "55.003200",
    "lon": "-1.633900"
  },
  {
    "id": "250165",
    "country": "GB",
    "zipcode": "NE30",
    "name": "Cullercoats",
    "region": "England",
    "short_region": "EN",
    "lat": "55.031600",
    "lon": "-1.431000"
  },
  {
    "id": "250166",
    "country": "GB",
    "zipcode": "NE30",
    "name": "Preston",
    "region": "England",
    "short_region": "EN",
    "lat": "55.021200",
    "lon": "-1.439400"
  },
  {
    "id": "250167",
    "country": "GB",
    "zipcode": "NE30",
    "name": "North Shields",
    "region": "England",
    "short_region": "EN",
    "lat": "55.016500",
    "lon": "-1.449300"
  },
  {
    "id": "250168",
    "country": "GB",
    "zipcode": "NE30",
    "name": "Marden",
    "region": "England",
    "short_region": "EN",
    "lat": "55.021200",
    "lon": "-1.439400"
  },
  {
    "id": "250169",
    "country": "GB",
    "zipcode": "NE30",
    "name": "Tynemouth",
    "region": "England",
    "short_region": "EN",
    "lat": "55.017900",
    "lon": "-1.425600"
  },
  {
    "id": "250170",
    "country": "GB",
    "zipcode": "NE31",
    "name": "Hebburn",
    "region": "England",
    "short_region": "EN",
    "lat": "54.973000",
    "lon": "-1.515500"
  },
  {
    "id": "250171",
    "country": "GB",
    "zipcode": "NE32",
    "name": "Jarrow",
    "region": "England",
    "short_region": "EN",
    "lat": "54.980400",
    "lon": "-1.484200"
  },
  {
    "id": "250172",
    "country": "GB",
    "zipcode": "NE32",
    "name": "Monkton",
    "region": "England",
    "short_region": "EN",
    "lat": "54.967700",
    "lon": "-1.484300"
  },
  {
    "id": "250173",
    "country": "GB",
    "zipcode": "NE33",
    "name": "South Shields",
    "region": "England",
    "short_region": "EN",
    "lat": "54.998600",
    "lon": "-1.432300"
  },
  {
    "id": "250174",
    "country": "GB",
    "zipcode": "NE34",
    "name": "Harton",
    "region": "England",
    "short_region": "EN",
    "lat": "54.966700",
    "lon": "-1.400000"
  },
  {
    "id": "250175",
    "country": "GB",
    "zipcode": "NE35",
    "name": "Boldon Colliery",
    "region": "England",
    "short_region": "EN",
    "lat": "54.950300",
    "lon": "-1.469000"
  },
  {
    "id": "250176",
    "country": "GB",
    "zipcode": "NE36",
    "name": "Boldon",
    "region": "England",
    "short_region": "EN",
    "lat": "54.942600",
    "lon": "-1.453500"
  },
  {
    "id": "250177",
    "country": "GB",
    "zipcode": "NE36",
    "name": "West Boldon",
    "region": "England",
    "short_region": "EN",
    "lat": "54.945600",
    "lon": "-1.450500"
  },
  {
    "id": "250178",
    "country": "GB",
    "zipcode": "NE36",
    "name": "East Boldon",
    "region": "England",
    "short_region": "EN",
    "lat": "54.944500",
    "lon": "-1.428100"
  },
  {
    "id": "250179",
    "country": "GB",
    "zipcode": "NE37",
    "name": "Washington",
    "region": "England",
    "short_region": "EN",
    "lat": "54.900000",
    "lon": "-1.516700"
  },
  {
    "id": "250180",
    "country": "GB",
    "zipcode": "NE38",
    "name": "Washington",
    "region": "England",
    "short_region": "EN",
    "lat": "54.900000",
    "lon": "-1.516700"
  },
  {
    "id": "250181",
    "country": "GB",
    "zipcode": "NE38",
    "name": "Fatfield",
    "region": "England",
    "short_region": "EN",
    "lat": "54.900000",
    "lon": "-1.516700"
  },
  {
    "id": "250182",
    "country": "GB",
    "zipcode": "NE39",
    "name": "Highfield",
    "region": "England",
    "short_region": "EN",
    "lat": "54.924100",
    "lon": "-1.760100"
  },
  {
    "id": "250183",
    "country": "GB",
    "zipcode": "NE39",
    "name": "Rowlands Gill",
    "region": "England",
    "short_region": "EN",
    "lat": "54.919200",
    "lon": "-1.744900"
  },
  {
    "id": "250184",
    "country": "GB",
    "zipcode": "NE39",
    "name": "Winlaton Mill",
    "region": "England",
    "short_region": "EN",
    "lat": "54.924100",
    "lon": "-1.760100"
  },
  {
    "id": "250185",
    "country": "GB",
    "zipcode": "NE39",
    "name": "High Spen",
    "region": "England",
    "short_region": "EN",
    "lat": "54.924100",
    "lon": "-1.760100"
  },
  {
    "id": "250186",
    "country": "GB",
    "zipcode": "NE39",
    "name": "Lintzford",
    "region": "England",
    "short_region": "EN",
    "lat": "54.924100",
    "lon": "-1.760100"
  },
  {
    "id": "250187",
    "country": "GB",
    "zipcode": "NE4",
    "name": "Blakelaw",
    "region": "England",
    "short_region": "EN",
    "lat": "54.974000",
    "lon": "-1.644700"
  },
  {
    "id": "250188",
    "country": "GB",
    "zipcode": "NE40",
    "name": "Greenside",
    "region": "England",
    "short_region": "EN",
    "lat": "54.974000",
    "lon": "-1.763100"
  },
  {
    "id": "250189",
    "country": "GB",
    "zipcode": "NE40",
    "name": "Ryton",
    "region": "England",
    "short_region": "EN",
    "lat": "54.974000",
    "lon": "-1.763100"
  },
  {
    "id": "250190",
    "country": "GB",
    "zipcode": "NE40",
    "name": "Crawcrook",
    "region": "England",
    "short_region": "EN",
    "lat": "54.974000",
    "lon": "-1.763100"
  },
  {
    "id": "250191",
    "country": "GB",
    "zipcode": "NE40",
    "name": "Coalburns",
    "region": "England",
    "short_region": "EN",
    "lat": "54.974000",
    "lon": "-1.763100"
  },
  {
    "id": "250192",
    "country": "GB",
    "zipcode": "NE5",
    "name": "Callerton Lane End",
    "region": "England",
    "short_region": "EN",
    "lat": "54.996000",
    "lon": "-1.688900"
  },
  {
    "id": "250193",
    "country": "GB",
    "zipcode": "NE5",
    "name": "Wallbottle",
    "region": "England",
    "short_region": "EN",
    "lat": "54.996000",
    "lon": "-1.688900"
  },
  {
    "id": "250194",
    "country": "GB",
    "zipcode": "NE5",
    "name": "Black Callerton",
    "region": "England",
    "short_region": "EN",
    "lat": "54.996000",
    "lon": "-1.688900"
  },
  {
    "id": "250195",
    "country": "GB",
    "zipcode": "NE6",
    "name": "Byker",
    "region": "England",
    "short_region": "EN",
    "lat": "54.977500",
    "lon": "-1.565600"
  },
  {
    "id": "250196",
    "country": "GB",
    "zipcode": "NE6",
    "name": "Walker",
    "region": "England",
    "short_region": "EN",
    "lat": "54.977500",
    "lon": "-1.565600"
  },
  {
    "id": "250197",
    "country": "GB",
    "zipcode": "NE7",
    "name": "Longbenton",
    "region": "England",
    "short_region": "EN",
    "lat": "55.017800",
    "lon": "-1.569400"
  },
  {
    "id": "250198",
    "country": "GB",
    "zipcode": "NE8",
    "name": "Gateshead",
    "region": "England",
    "short_region": "EN",
    "lat": "54.962100",
    "lon": "-1.601700"
  },
  {
    "id": "250199",
    "country": "GB",
    "zipcode": "NE82",
    "name": "Gateshead",
    "region": "England",
    "short_region": "EN",
    "lat": "54.962100",
    "lon": "-1.601700"
  },
  {
    "id": "250200",
    "country": "GB",
    "zipcode": "NE83",
    "name": "Gateshead",
    "region": "England",
    "short_region": "EN",
    "lat": "54.934600",
    "lon": "-1.615100"
  },
  {
    "id": "250201",
    "country": "GB",
    "zipcode": "NE85",
    "name": "Gateshead",
    "region": "England",
    "short_region": "EN",
    "lat": "54.928700",
    "lon": "-1.574700"
  },
  {
    "id": "250202",
    "country": "GB",
    "zipcode": "NE85",
    "name": "Sunderland",
    "region": "England",
    "short_region": "EN",
    "lat": "54.928700",
    "lon": "-1.574700"
  },
  {
    "id": "250203",
    "country": "GB",
    "zipcode": "NE88",
    "name": "Gateshead",
    "region": "England",
    "short_region": "EN",
    "lat": "54.962100",
    "lon": "-1.601700"
  },
  {
    "id": "250204",
    "country": "GB",
    "zipcode": "NE9",
    "name": "Wrekenton",
    "region": "England",
    "short_region": "EN",
    "lat": "54.931300",
    "lon": "-1.585500"
  },
  {
    "id": "250205",
    "country": "GB",
    "zipcode": "NE9",
    "name": "Springwell",
    "region": "England",
    "short_region": "EN",
    "lat": "54.931300",
    "lon": "-1.585500"
  },
  {
    "id": "250206",
    "country": "GB",
    "zipcode": "NE92",
    "name": "Gateshead",
    "region": "England",
    "short_region": "EN",
    "lat": "54.962100",
    "lon": "-1.601700"
  },
  {
    "id": "250207",
    "country": "GB",
    "zipcode": "NE98",
    "name": "Gateshead",
    "region": "England",
    "short_region": "EN",
    "lat": "54.962100",
    "lon": "-1.601700"
  },
  {
    "id": "250208",
    "country": "GB",
    "zipcode": "NE98",
    "name": "Newcastle upon Tyne",
    "region": "England",
    "short_region": "EN",
    "lat": "54.973300",
    "lon": "-1.614000"
  },
  {
    "id": "250209",
    "country": "GB",
    "zipcode": "NE99",
    "name": "Newcastle upon Tyne (PO Boxes)",
    "region": "England",
    "short_region": "EN",
    "lat": "54.965800",
    "lon": "-1.605800"
  },
  {
    "id": "250210",
    "country": "GB",
    "zipcode": "SR1",
    "name": "Sunderland",
    "region": "England",
    "short_region": "EN",
    "lat": "54.904600",
    "lon": "-1.382200"
  },
  {
    "id": "250211",
    "country": "GB",
    "zipcode": "SR2",
    "name": "Ryhope",
    "region": "England",
    "short_region": "EN",
    "lat": "54.871400",
    "lon": "-1.370000"
  },
  {
    "id": "250212",
    "country": "GB",
    "zipcode": "SR2",
    "name": "Hendon",
    "region": "England",
    "short_region": "EN",
    "lat": "54.887000",
    "lon": "-1.377300"
  },
  {
    "id": "250213",
    "country": "GB",
    "zipcode": "SR3",
    "name": "Herrington",
    "region": "England",
    "short_region": "EN",
    "lat": "54.877200",
    "lon": "-1.416800"
  },
  {
    "id": "250214",
    "country": "GB",
    "zipcode": "SR3",
    "name": "New Silksworth",
    "region": "England",
    "short_region": "EN",
    "lat": "54.875300",
    "lon": "-1.408200"
  },
  {
    "id": "250215",
    "country": "GB",
    "zipcode": "SR3",
    "name": "Silksworth",
    "region": "England",
    "short_region": "EN",
    "lat": "54.870200",
    "lon": "-1.421100"
  },
  {
    "id": "250216",
    "country": "GB",
    "zipcode": "SR4",
    "name": "South Hylton",
    "region": "England",
    "short_region": "EN",
    "lat": "54.900400",
    "lon": "-1.425500"
  },
  {
    "id": "250217",
    "country": "GB",
    "zipcode": "SR5",
    "name": "Fulwell",
    "region": "England",
    "short_region": "EN",
    "lat": "54.922700",
    "lon": "-1.424100"
  },
  {
    "id": "250218",
    "country": "GB",
    "zipcode": "SR5",
    "name": "Castletown",
    "region": "England",
    "short_region": "EN",
    "lat": "54.922700",
    "lon": "-1.424100"
  },
  {
    "id": "250219",
    "country": "GB",
    "zipcode": "SR5",
    "name": "Southwick",
    "region": "England",
    "short_region": "EN",
    "lat": "54.918700",
    "lon": "-1.402000"
  },
  {
    "id": "250220",
    "country": "GB",
    "zipcode": "SR6",
    "name": "Monkwearmouth",
    "region": "England",
    "short_region": "EN",
    "lat": "54.914600",
    "lon": "-1.382300"
  },
  {
    "id": "250221",
    "country": "GB",
    "zipcode": "SR6",
    "name": "Roker",
    "region": "England",
    "short_region": "EN",
    "lat": "54.944900",
    "lon": "-1.372500"
  },
  {
    "id": "250222",
    "country": "GB",
    "zipcode": "SR6",
    "name": "Whitburn",
    "region": "England",
    "short_region": "EN",
    "lat": "54.953300",
    "lon": "-1.368600"
  },
  {
    "id": "250223",
    "country": "GB",
    "zipcode": "SR6",
    "name": "Cleadon",
    "region": "England",
    "short_region": "EN",
    "lat": "54.944900",
    "lon": "-1.372500"
  },
  {
    "id": "250224",
    "country": "GB",
    "zipcode": "SR6",
    "name": "Marsden",
    "region": "England",
    "short_region": "EN",
    "lat": "54.966700",
    "lon": "-1.366700"
  },
  {
    "id": "250225",
    "country": "GB",
    "zipcode": "SR9",
    "name": "Sunderland",
    "region": "England",
    "short_region": "EN",
    "lat": "54.904600",
    "lon": "-1.382200"
  },
  {
    "id": "250226",
    "country": "GB",
    "zipcode": "DN1",
    "name": "Doncaster",
    "region": "England",
    "short_region": "EN",
    "lat": "53.522800",
    "lon": "-1.131200"
  },
  {
    "id": "250227",
    "country": "GB",
    "zipcode": "DN10",
    "name": "Bawtry",
    "region": "England",
    "short_region": "EN",
    "lat": "53.431500",
    "lon": "-1.018800"
  },
  {
    "id": "250228",
    "country": "GB",
    "zipcode": "DN10",
    "name": "Austerfield",
    "region": "England",
    "short_region": "EN",
    "lat": "53.446000",
    "lon": "-1.005600"
  },
  {
    "id": "250229",
    "country": "GB",
    "zipcode": "DN11",
    "name": "New Rossington",
    "region": "England",
    "short_region": "EN",
    "lat": "53.443700",
    "lon": "-1.094800"
  },
  {
    "id": "250230",
    "country": "GB",
    "zipcode": "DN11",
    "name": "Loversall",
    "region": "England",
    "short_region": "EN",
    "lat": "53.481500",
    "lon": "-1.136500"
  },
  {
    "id": "250231",
    "country": "GB",
    "zipcode": "DN11",
    "name": "Wadworth",
    "region": "England",
    "short_region": "EN",
    "lat": "53.467300",
    "lon": "-1.142600"
  },
  {
    "id": "250232",
    "country": "GB",
    "zipcode": "DN11",
    "name": "Rossington",
    "region": "England",
    "short_region": "EN",
    "lat": "53.479300",
    "lon": "-1.061900"
  },
  {
    "id": "250233",
    "country": "GB",
    "zipcode": "DN11",
    "name": "Tickhill",
    "region": "England",
    "short_region": "EN",
    "lat": "53.431900",
    "lon": "-1.108600"
  },
  {
    "id": "250234",
    "country": "GB",
    "zipcode": "DN12",
    "name": "New Edlington",
    "region": "England",
    "short_region": "EN",
    "lat": "53.487900",
    "lon": "-1.262300"
  },
  {
    "id": "250235",
    "country": "GB",
    "zipcode": "DN12",
    "name": "Denaby",
    "region": "England",
    "short_region": "EN",
    "lat": "53.482700",
    "lon": "-1.224500"
  },
  {
    "id": "250236",
    "country": "GB",
    "zipcode": "DN12",
    "name": "Denaby Main",
    "region": "England",
    "short_region": "EN",
    "lat": "53.487900",
    "lon": "-1.262300"
  },
  {
    "id": "250237",
    "country": "GB",
    "zipcode": "DN12",
    "name": "Conisbrough",
    "region": "England",
    "short_region": "EN",
    "lat": "53.481900",
    "lon": "-1.232100"
  },
  {
    "id": "250238",
    "country": "GB",
    "zipcode": "DN14",
    "name": "Sykehouse",
    "region": "England",
    "short_region": "EN",
    "lat": "53.644800",
    "lon": "-1.049400"
  },
  {
    "id": "250239",
    "country": "GB",
    "zipcode": "DN2",
    "name": "Doncaster",
    "region": "England",
    "short_region": "EN",
    "lat": "53.533400",
    "lon": "-1.102700"
  },
  {
    "id": "250240",
    "country": "GB",
    "zipcode": "DN3",
    "name": "Armthorpe",
    "region": "England",
    "short_region": "EN",
    "lat": "53.535200",
    "lon": "-1.053400"
  },
  {
    "id": "250241",
    "country": "GB",
    "zipcode": "DN3",
    "name": "Nutwell",
    "region": "England",
    "short_region": "EN",
    "lat": "53.546700",
    "lon": "-1.058900"
  },
  {
    "id": "250242",
    "country": "GB",
    "zipcode": "DN3",
    "name": "Branton",
    "region": "England",
    "short_region": "EN",
    "lat": "53.546700",
    "lon": "-1.058900"
  },
  {
    "id": "250243",
    "country": "GB",
    "zipcode": "DN3",
    "name": "Edenthorpe",
    "region": "England",
    "short_region": "EN",
    "lat": "53.553300",
    "lon": "-1.068100"
  },
  {
    "id": "250244",
    "country": "GB",
    "zipcode": "DN3",
    "name": "Kirk Sandall",
    "region": "England",
    "short_region": "EN",
    "lat": "53.562100",
    "lon": "-1.068800"
  },
  {
    "id": "250245",
    "country": "GB",
    "zipcode": "DN3",
    "name": "Barnby Dun",
    "region": "England",
    "short_region": "EN",
    "lat": "53.577500",
    "lon": "-1.068600"
  },
  {
    "id": "250246",
    "country": "GB",
    "zipcode": "DN3",
    "name": "Cantley",
    "region": "England",
    "short_region": "EN",
    "lat": "53.546700",
    "lon": "-1.058900"
  },
  {
    "id": "250247",
    "country": "GB",
    "zipcode": "DN4",
    "name": "Bessacarr",
    "region": "England",
    "short_region": "EN",
    "lat": "53.497000",
    "lon": "-1.182100"
  },
  {
    "id": "250248",
    "country": "GB",
    "zipcode": "DN4",
    "name": "Warmsworth",
    "region": "England",
    "short_region": "EN",
    "lat": "53.497000",
    "lon": "-1.182100"
  },
  {
    "id": "250249",
    "country": "GB",
    "zipcode": "DN5",
    "name": "Bentley",
    "region": "England",
    "short_region": "EN",
    "lat": "53.533300",
    "lon": "-1.150000"
  },
  {
    "id": "250250",
    "country": "GB",
    "zipcode": "DN5",
    "name": "Marr",
    "region": "England",
    "short_region": "EN",
    "lat": "53.543000",
    "lon": "-1.220500"
  },
  {
    "id": "250251",
    "country": "GB",
    "zipcode": "DN5",
    "name": "High Melton",
    "region": "England",
    "short_region": "EN",
    "lat": "53.513200",
    "lon": "-1.236400"
  },
  {
    "id": "250252",
    "country": "GB",
    "zipcode": "DN5",
    "name": "Arksey",
    "region": "England",
    "short_region": "EN",
    "lat": "53.553900",
    "lon": "-1.128700"
  },
  {
    "id": "250253",
    "country": "GB",
    "zipcode": "DN5",
    "name": "Clayton",
    "region": "England",
    "short_region": "EN",
    "lat": "53.550000",
    "lon": "-1.316700"
  },
  {
    "id": "250254",
    "country": "GB",
    "zipcode": "DN5",
    "name": "Cadeby",
    "region": "England",
    "short_region": "EN",
    "lat": "53.499000",
    "lon": "-1.223100"
  },
  {
    "id": "250255",
    "country": "GB",
    "zipcode": "DN5",
    "name": "Sprotbrough",
    "region": "England",
    "short_region": "EN",
    "lat": "53.513900",
    "lon": "-1.188500"
  },
  {
    "id": "250256",
    "country": "GB",
    "zipcode": "DN5",
    "name": "Hickleton",
    "region": "England",
    "short_region": "EN",
    "lat": "53.542300",
    "lon": "-1.276300"
  },
  {
    "id": "250257",
    "country": "GB",
    "zipcode": "DN5",
    "name": "Brodsworth",
    "region": "England",
    "short_region": "EN",
    "lat": "53.560200",
    "lon": "-1.236000"
  },
  {
    "id": "250258",
    "country": "GB",
    "zipcode": "DN5",
    "name": "Barnburgh",
    "region": "England",
    "short_region": "EN",
    "lat": "53.521400",
    "lon": "-1.272500"
  },
  {
    "id": "250259",
    "country": "GB",
    "zipcode": "DN5",
    "name": "Hooton Pagnell",
    "region": "England",
    "short_region": "EN",
    "lat": "53.563400",
    "lon": "-1.271100"
  },
  {
    "id": "250260",
    "country": "GB",
    "zipcode": "DN55",
    "name": "Doncaster",
    "region": "England",
    "short_region": "EN",
    "lat": "53.522800",
    "lon": "-1.131200"
  },
  {
    "id": "250261",
    "country": "GB",
    "zipcode": "DN6",
    "name": "Thorpe in Balne",
    "region": "England",
    "short_region": "EN",
    "lat": "53.593800",
    "lon": "-1.098200"
  },
  {
    "id": "250262",
    "country": "GB",
    "zipcode": "DN6",
    "name": "Fenwick",
    "region": "England",
    "short_region": "EN",
    "lat": "53.638700",
    "lon": "-1.097600"
  },
  {
    "id": "250263",
    "country": "GB",
    "zipcode": "DN6",
    "name": "Norton",
    "region": "England",
    "short_region": "EN",
    "lat": "53.625300",
    "lon": "-1.176200"
  },
  {
    "id": "250264",
    "country": "GB",
    "zipcode": "DN6",
    "name": "Walden Stubbs",
    "region": "England",
    "short_region": "EN",
    "lat": "53.642800",
    "lon": "-1.154500"
  },
  {
    "id": "250265",
    "country": "GB",
    "zipcode": "DN6",
    "name": "Sutton",
    "region": "England",
    "short_region": "EN",
    "lat": "53.597800",
    "lon": "-1.178400"
  },
  {
    "id": "250266",
    "country": "GB",
    "zipcode": "DN6",
    "name": "Askern",
    "region": "England",
    "short_region": "EN",
    "lat": "53.616400",
    "lon": "-1.152400"
  },
  {
    "id": "250267",
    "country": "GB",
    "zipcode": "DN6",
    "name": "Skellow",
    "region": "England",
    "short_region": "EN",
    "lat": "53.587400",
    "lon": "-1.205600"
  },
  {
    "id": "250268",
    "country": "GB",
    "zipcode": "DN6",
    "name": "Moss",
    "region": "England",
    "short_region": "EN",
    "lat": "53.616700",
    "lon": "-1.100000"
  },
  {
    "id": "250269",
    "country": "GB",
    "zipcode": "DN6",
    "name": "Carcroft",
    "region": "England",
    "short_region": "EN",
    "lat": "53.582800",
    "lon": "-1.176500"
  },
  {
    "id": "250270",
    "country": "GB",
    "zipcode": "DN6",
    "name": "Hampole",
    "region": "England",
    "short_region": "EN",
    "lat": "53.592800",
    "lon": "-1.230800"
  },
  {
    "id": "250271",
    "country": "GB",
    "zipcode": "DN6",
    "name": "Burghwallis",
    "region": "England",
    "short_region": "EN",
    "lat": "53.601100",
    "lon": "-1.194600"
  },
  {
    "id": "250272",
    "country": "GB",
    "zipcode": "DN6",
    "name": "Adwick le Street",
    "region": "England",
    "short_region": "EN",
    "lat": "53.570800",
    "lon": "-1.184500"
  },
  {
    "id": "250273",
    "country": "GB",
    "zipcode": "DN6",
    "name": "Campsall",
    "region": "England",
    "short_region": "EN",
    "lat": "53.619200",
    "lon": "-1.180000"
  },
  {
    "id": "250274",
    "country": "GB",
    "zipcode": "DN7",
    "name": "Dunscroft",
    "region": "England",
    "short_region": "EN",
    "lat": "53.590000",
    "lon": "-1.026100"
  },
  {
    "id": "250275",
    "country": "GB",
    "zipcode": "DN7",
    "name": "Braithwaite",
    "region": "England",
    "short_region": "EN",
    "lat": "53.590000",
    "lon": "-1.026100"
  },
  {
    "id": "250276",
    "country": "GB",
    "zipcode": "DN7",
    "name": "Dunsville",
    "region": "England",
    "short_region": "EN",
    "lat": "53.562800",
    "lon": "-1.023500"
  },
  {
    "id": "250277",
    "country": "GB",
    "zipcode": "DN7",
    "name": "Stainforth",
    "region": "England",
    "short_region": "EN",
    "lat": "53.600000",
    "lon": "-1.033300"
  },
  {
    "id": "250278",
    "country": "GB",
    "zipcode": "DN7",
    "name": "Hatfield Woodhouse",
    "region": "England",
    "short_region": "EN",
    "lat": "53.590000",
    "lon": "-1.026100"
  },
  {
    "id": "250279",
    "country": "GB",
    "zipcode": "DN7",
    "name": "Fishlake",
    "region": "England",
    "short_region": "EN",
    "lat": "53.610600",
    "lon": "-1.011000"
  },
  {
    "id": "250280",
    "country": "GB",
    "zipcode": "DN7",
    "name": "Hatfield",
    "region": "England",
    "short_region": "EN",
    "lat": "53.577900",
    "lon": "-0.999200"
  },
  {
    "id": "250281",
    "country": "GB",
    "zipcode": "DN7",
    "name": "Kirk Bramwith",
    "region": "England",
    "short_region": "EN",
    "lat": "53.598900",
    "lon": "-1.063200"
  },
  {
    "id": "250282",
    "country": "GB",
    "zipcode": "DN8",
    "name": "Thorne",
    "region": "England",
    "short_region": "EN",
    "lat": "53.611200",
    "lon": "-0.963100"
  },
  {
    "id": "250283",
    "country": "GB",
    "zipcode": "DN8",
    "name": "Moorends",
    "region": "England",
    "short_region": "EN",
    "lat": "53.587500",
    "lon": "-0.921000"
  },
  {
    "id": "250284",
    "country": "GB",
    "zipcode": "DN9",
    "name": "Blaxton",
    "region": "England",
    "short_region": "EN",
    "lat": "53.487000",
    "lon": "-0.990800"
  },
  {
    "id": "250285",
    "country": "GB",
    "zipcode": "DN9",
    "name": "Auckley",
    "region": "England",
    "short_region": "EN",
    "lat": "53.503900",
    "lon": "-1.021700"
  },
  {
    "id": "250286",
    "country": "GB",
    "zipcode": "S1",
    "name": "Sheffield",
    "region": "England",
    "short_region": "EN",
    "lat": "53.383000",
    "lon": "-1.465900"
  },
  {
    "id": "250287",
    "country": "GB",
    "zipcode": "S10",
    "name": "Fulwood",
    "region": "England",
    "short_region": "EN",
    "lat": "53.350000",
    "lon": "-1.550000"
  },
  {
    "id": "250288",
    "country": "GB",
    "zipcode": "S11",
    "name": "Sheffield",
    "region": "England",
    "short_region": "EN",
    "lat": "53.360800",
    "lon": "-1.508400"
  },
  {
    "id": "250289",
    "country": "GB",
    "zipcode": "S12",
    "name": "Highlane",
    "region": "England",
    "short_region": "EN",
    "lat": "53.348500",
    "lon": "-1.406800"
  },
  {
    "id": "250290",
    "country": "GB",
    "zipcode": "S12",
    "name": "Ridgeway",
    "region": "England",
    "short_region": "EN",
    "lat": "53.348500",
    "lon": "-1.406800"
  },
  {
    "id": "250291",
    "country": "GB",
    "zipcode": "S12",
    "name": "Gleadless",
    "region": "England",
    "short_region": "EN",
    "lat": "53.348500",
    "lon": "-1.406800"
  },
  {
    "id": "250292",
    "country": "GB",
    "zipcode": "S12",
    "name": "Hackenthorpe",
    "region": "England",
    "short_region": "EN",
    "lat": "53.348500",
    "lon": "-1.406800"
  },
  {
    "id": "250293",
    "country": "GB",
    "zipcode": "S12",
    "name": "Intake",
    "region": "England",
    "short_region": "EN",
    "lat": "53.348500",
    "lon": "-1.406800"
  },
  {
    "id": "250294",
    "country": "GB",
    "zipcode": "S13",
    "name": "Woodhouse",
    "region": "England",
    "short_region": "EN",
    "lat": "53.357600",
    "lon": "-1.372800"
  },
  {
    "id": "250295",
    "country": "GB",
    "zipcode": "S13",
    "name": "Handsworth",
    "region": "England",
    "short_region": "EN",
    "lat": "53.370800",
    "lon": "-1.376200"
  },
  {
    "id": "250296",
    "country": "GB",
    "zipcode": "S14",
    "name": "Sheffield",
    "region": "England",
    "short_region": "EN",
    "lat": "53.346200",
    "lon": "-1.444500"
  },
  {
    "id": "250297",
    "country": "GB",
    "zipcode": "S17",
    "name": "Dore",
    "region": "England",
    "short_region": "EN",
    "lat": "53.326900",
    "lon": "-1.540300"
  },
  {
    "id": "250298",
    "country": "GB",
    "zipcode": "S17",
    "name": "Totley",
    "region": "England",
    "short_region": "EN",
    "lat": "53.314100",
    "lon": "-1.540800"
  },
  {
    "id": "250299",
    "country": "GB",
    "zipcode": "S2",
    "name": "Sheffield",
    "region": "England",
    "short_region": "EN",
    "lat": "53.383000",
    "lon": "-1.465900"
  },
  {
    "id": "250300",
    "country": "GB",
    "zipcode": "S20",
    "name": "Sheffield",
    "region": "England",
    "short_region": "EN",
    "lat": "53.334700",
    "lon": "-1.352000"
  },
  {
    "id": "250301",
    "country": "GB",
    "zipcode": "S25",
    "name": "Sheffield",
    "region": "England",
    "short_region": "EN",
    "lat": "53.365600",
    "lon": "-1.217700"
  },
  {
    "id": "250302",
    "country": "GB",
    "zipcode": "S26",
    "name": "Sheffield",
    "region": "England",
    "short_region": "EN",
    "lat": "53.352900",
    "lon": "-1.291500"
  },
  {
    "id": "250303",
    "country": "GB",
    "zipcode": "S3",
    "name": "Sheffield",
    "region": "England",
    "short_region": "EN",
    "lat": "53.383000",
    "lon": "-1.465900"
  },
  {
    "id": "250304",
    "country": "GB",
    "zipcode": "S35",
    "name": "Chapeltown",
    "region": "England",
    "short_region": "EN",
    "lat": "53.458100",
    "lon": "-1.497400"
  },
  {
    "id": "250305",
    "country": "GB",
    "zipcode": "S36",
    "name": "Sheffield",
    "region": "England",
    "short_region": "EN",
    "lat": "53.505200",
    "lon": "-1.616100"
  },
  {
    "id": "250306",
    "country": "GB",
    "zipcode": "S4",
    "name": "Sheffield",
    "region": "England",
    "short_region": "EN",
    "lat": "53.383000",
    "lon": "-1.465900"
  },
  {
    "id": "250307",
    "country": "GB",
    "zipcode": "S6",
    "name": "Low Bradfield",
    "region": "England",
    "short_region": "EN",
    "lat": "53.393100",
    "lon": "-1.545200"
  },
  {
    "id": "250308",
    "country": "GB",
    "zipcode": "S6",
    "name": "High Bradfield",
    "region": "England",
    "short_region": "EN",
    "lat": "53.393100",
    "lon": "-1.545200"
  },
  {
    "id": "250309",
    "country": "GB",
    "zipcode": "S6",
    "name": "Birley Carr",
    "region": "England",
    "short_region": "EN",
    "lat": "53.393100",
    "lon": "-1.545200"
  },
  {
    "id": "250310",
    "country": "GB",
    "zipcode": "S6",
    "name": "Stannington",
    "region": "England",
    "short_region": "EN",
    "lat": "53.393100",
    "lon": "-1.545200"
  },
  {
    "id": "250311",
    "country": "GB",
    "zipcode": "S60",
    "name": "Rotherham",
    "region": "England",
    "short_region": "EN",
    "lat": "53.430100",
    "lon": "-1.356800"
  },
  {
    "id": "250312",
    "country": "GB",
    "zipcode": "S60",
    "name": "Catcliffe",
    "region": "England",
    "short_region": "EN",
    "lat": "53.393200",
    "lon": "-1.362100"
  },
  {
    "id": "250313",
    "country": "GB",
    "zipcode": "S60",
    "name": "Treeton",
    "region": "England",
    "short_region": "EN",
    "lat": "53.385600",
    "lon": "-1.351900"
  },
  {
    "id": "250314",
    "country": "GB",
    "zipcode": "S60",
    "name": "Brinsworth",
    "region": "England",
    "short_region": "EN",
    "lat": "53.404400",
    "lon": "-1.346500"
  },
  {
    "id": "250315",
    "country": "GB",
    "zipcode": "S60",
    "name": "Whiston",
    "region": "England",
    "short_region": "EN",
    "lat": "53.408500",
    "lon": "-1.315100"
  },
  {
    "id": "250316",
    "country": "GB",
    "zipcode": "S61",
    "name": "Greasbrough",
    "region": "England",
    "short_region": "EN",
    "lat": "53.456700",
    "lon": "-1.373800"
  },
  {
    "id": "250317",
    "country": "GB",
    "zipcode": "S61",
    "name": "Thorpe Hesley",
    "region": "England",
    "short_region": "EN",
    "lat": "53.456700",
    "lon": "-1.373800"
  },
  {
    "id": "250318",
    "country": "GB",
    "zipcode": "S62",
    "name": "Parkgate",
    "region": "England",
    "short_region": "EN",
    "lat": "53.465800",
    "lon": "-1.347600"
  },
  {
    "id": "250319",
    "country": "GB",
    "zipcode": "S62",
    "name": "Rawmarsh",
    "region": "England",
    "short_region": "EN",
    "lat": "53.460600",
    "lon": "-1.344400"
  },
  {
    "id": "250320",
    "country": "GB",
    "zipcode": "S62",
    "name": "Nether Haugh",
    "region": "England",
    "short_region": "EN",
    "lat": "53.465800",
    "lon": "-1.347600"
  },
  {
    "id": "250321",
    "country": "GB",
    "zipcode": "S62",
    "name": "Wentworth",
    "region": "England",
    "short_region": "EN",
    "lat": "53.466700",
    "lon": "-1.416700"
  },
  {
    "id": "250322",
    "country": "GB",
    "zipcode": "S63",
    "name": "Goldthorpe",
    "region": "England",
    "short_region": "EN",
    "lat": "53.507900",
    "lon": "-1.340200"
  },
  {
    "id": "250323",
    "country": "GB",
    "zipcode": "S63",
    "name": "Bolton upon Dearne",
    "region": "England",
    "short_region": "EN",
    "lat": "53.516700",
    "lon": "-1.316700"
  },
  {
    "id": "250324",
    "country": "GB",
    "zipcode": "S63",
    "name": "West Melton",
    "region": "England",
    "short_region": "EN",
    "lat": "53.504100",
    "lon": "-1.358000"
  },
  {
    "id": "250325",
    "country": "GB",
    "zipcode": "S63",
    "name": "Thurnscoe",
    "region": "England",
    "short_region": "EN",
    "lat": "53.507900",
    "lon": "-1.340200"
  },
  {
    "id": "250326",
    "country": "GB",
    "zipcode": "S63",
    "name": "Wath upon Dearne",
    "region": "England",
    "short_region": "EN",
    "lat": "53.502900",
    "lon": "-1.345800"
  },
  {
    "id": "250327",
    "country": "GB",
    "zipcode": "S64",
    "name": "Swinton",
    "region": "England",
    "short_region": "EN",
    "lat": "53.483300",
    "lon": "-1.316700"
  },
  {
    "id": "250328",
    "country": "GB",
    "zipcode": "S64",
    "name": "Mexborough",
    "region": "England",
    "short_region": "EN",
    "lat": "53.493900",
    "lon": "-1.292400"
  },
  {
    "id": "250329",
    "country": "GB",
    "zipcode": "S64",
    "name": "Kilnhurst",
    "region": "England",
    "short_region": "EN",
    "lat": "53.470600",
    "lon": "-1.303700"
  },
  {
    "id": "250330",
    "country": "GB",
    "zipcode": "S64",
    "name": "Adwick upon Dearne",
    "region": "England",
    "short_region": "EN",
    "lat": "53.482600",
    "lon": "-1.304300"
  },
  {
    "id": "250331",
    "country": "GB",
    "zipcode": "S65",
    "name": "Ravenfield",
    "region": "England",
    "short_region": "EN",
    "lat": "53.441300",
    "lon": "-1.265100"
  },
  {
    "id": "250332",
    "country": "GB",
    "zipcode": "S65",
    "name": "Dalton",
    "region": "England",
    "short_region": "EN",
    "lat": "53.436400",
    "lon": "-1.310900"
  },
  {
    "id": "250333",
    "country": "GB",
    "zipcode": "S65",
    "name": "Thrybergh",
    "region": "England",
    "short_region": "EN",
    "lat": "53.449000",
    "lon": "-1.299300"
  },
  {
    "id": "250334",
    "country": "GB",
    "zipcode": "S65",
    "name": "Hooton Roberts",
    "region": "England",
    "short_region": "EN",
    "lat": "53.467000",
    "lon": "-1.273400"
  },
  {
    "id": "250335",
    "country": "GB",
    "zipcode": "S66",
    "name": "Bramley",
    "region": "England",
    "short_region": "EN",
    "lat": "53.416700",
    "lon": "-1.266700"
  },
  {
    "id": "250336",
    "country": "GB",
    "zipcode": "S66",
    "name": "Hooton Levitt",
    "region": "England",
    "short_region": "EN",
    "lat": "53.420500",
    "lon": "-1.231300"
  },
  {
    "id": "250337",
    "country": "GB",
    "zipcode": "S66",
    "name": "Braithwell",
    "region": "England",
    "short_region": "EN",
    "lat": "53.446700",
    "lon": "-1.201500"
  },
  {
    "id": "250338",
    "country": "GB",
    "zipcode": "S66",
    "name": "Wickersley",
    "region": "England",
    "short_region": "EN",
    "lat": "53.421300",
    "lon": "-1.281100"
  },
  {
    "id": "250339",
    "country": "GB",
    "zipcode": "S66",
    "name": "Brampton en le Morthen",
    "region": "England",
    "short_region": "EN",
    "lat": "53.388200",
    "lon": "-1.271800"
  },
  {
    "id": "250340",
    "country": "GB",
    "zipcode": "S66",
    "name": "Stainton",
    "region": "England",
    "short_region": "EN",
    "lat": "53.433300",
    "lon": "-1.166700"
  },
  {
    "id": "250341",
    "country": "GB",
    "zipcode": "S66",
    "name": "Maltby",
    "region": "England",
    "short_region": "EN",
    "lat": "53.416700",
    "lon": "-1.200000"
  },
  {
    "id": "250342",
    "country": "GB",
    "zipcode": "S66",
    "name": "Thurcroft",
    "region": "England",
    "short_region": "EN",
    "lat": "53.393500",
    "lon": "-1.258500"
  },
  {
    "id": "250343",
    "country": "GB",
    "zipcode": "S7",
    "name": "Sheffield",
    "region": "England",
    "short_region": "EN",
    "lat": "53.355000",
    "lon": "-1.490700"
  },
  {
    "id": "250344",
    "country": "GB",
    "zipcode": "S70",
    "name": "Worsbrough",
    "region": "England",
    "short_region": "EN",
    "lat": "53.529700",
    "lon": "-1.469400"
  },
  {
    "id": "250345",
    "country": "GB",
    "zipcode": "S70",
    "name": "Barnsley",
    "region": "England",
    "short_region": "EN",
    "lat": "53.550000",
    "lon": "-1.483300"
  },
  {
    "id": "250346",
    "country": "GB",
    "zipcode": "S70",
    "name": "Birdwell",
    "region": "England",
    "short_region": "EN",
    "lat": "53.514000",
    "lon": "-1.479300"
  },
  {
    "id": "250347",
    "country": "GB",
    "zipcode": "S71",
    "name": "Royston",
    "region": "England",
    "short_region": "EN",
    "lat": "53.600000",
    "lon": "-1.450000"
  },
  {
    "id": "250348",
    "country": "GB",
    "zipcode": "S71",
    "name": "Ardsley",
    "region": "England",
    "short_region": "EN",
    "lat": "53.546200",
    "lon": "-1.424700"
  },
  {
    "id": "250349",
    "country": "GB",
    "zipcode": "S71",
    "name": "Carlton",
    "region": "England",
    "short_region": "EN",
    "lat": "53.583300",
    "lon": "-1.450000"
  },
  {
    "id": "250350",
    "country": "GB",
    "zipcode": "S72",
    "name": "Grimethorpe",
    "region": "England",
    "short_region": "EN",
    "lat": "53.576500",
    "lon": "-1.376900"
  },
  {
    "id": "250351",
    "country": "GB",
    "zipcode": "S72",
    "name": "Billingley",
    "region": "England",
    "short_region": "EN",
    "lat": "53.536400",
    "lon": "-1.340000"
  },
  {
    "id": "250352",
    "country": "GB",
    "zipcode": "S72",
    "name": "Brierley",
    "region": "England",
    "short_region": "EN",
    "lat": "53.573500",
    "lon": "-1.387900"
  },
  {
    "id": "250353",
    "country": "GB",
    "zipcode": "S72",
    "name": "Cudworth",
    "region": "England",
    "short_region": "EN",
    "lat": "53.571300",
    "lon": "-1.415900"
  },
  {
    "id": "250354",
    "country": "GB",
    "zipcode": "S72",
    "name": "Great Houghton",
    "region": "England",
    "short_region": "EN",
    "lat": "53.553500",
    "lon": "-1.349500"
  },
  {
    "id": "250355",
    "country": "GB",
    "zipcode": "S72",
    "name": "Shafton",
    "region": "England",
    "short_region": "EN",
    "lat": "53.592900",
    "lon": "-1.409300"
  },
  {
    "id": "250356",
    "country": "GB",
    "zipcode": "S73",
    "name": "Brampton",
    "region": "England",
    "short_region": "EN",
    "lat": "53.524300",
    "lon": "-1.394900"
  },
  {
    "id": "250357",
    "country": "GB",
    "zipcode": "S73",
    "name": "Darfield",
    "region": "England",
    "short_region": "EN",
    "lat": "53.533900",
    "lon": "-1.376000"
  },
  {
    "id": "250358",
    "country": "GB",
    "zipcode": "S73",
    "name": "Wombwell",
    "region": "England",
    "short_region": "EN",
    "lat": "53.521900",
    "lon": "-1.397000"
  },
  {
    "id": "250359",
    "country": "GB",
    "zipcode": "S74",
    "name": "Hoyland",
    "region": "England",
    "short_region": "EN",
    "lat": "53.500000",
    "lon": "-1.450000"
  },
  {
    "id": "250360",
    "country": "GB",
    "zipcode": "S74",
    "name": "Jump",
    "region": "England",
    "short_region": "EN",
    "lat": "53.499500",
    "lon": "-1.438000"
  },
  {
    "id": "250361",
    "country": "GB",
    "zipcode": "S74",
    "name": "Elsecar",
    "region": "England",
    "short_region": "EN",
    "lat": "53.498900",
    "lon": "-1.425900"
  },
  {
    "id": "250362",
    "country": "GB",
    "zipcode": "S75",
    "name": "Dodworth",
    "region": "England",
    "short_region": "EN",
    "lat": "53.543100",
    "lon": "-1.527800"
  },
  {
    "id": "250363",
    "country": "GB",
    "zipcode": "S75",
    "name": "Kexbrough",
    "region": "England",
    "short_region": "EN",
    "lat": "53.581400",
    "lon": "-1.544300"
  },
  {
    "id": "250364",
    "country": "GB",
    "zipcode": "S75",
    "name": "Cawthorne",
    "region": "England",
    "short_region": "EN",
    "lat": "53.566700",
    "lon": "-1.583300"
  },
  {
    "id": "250365",
    "country": "GB",
    "zipcode": "S75",
    "name": "Darton",
    "region": "England",
    "short_region": "EN",
    "lat": "53.587100",
    "lon": "-1.526800"
  },
  {
    "id": "250366",
    "country": "GB",
    "zipcode": "S75",
    "name": "High Hoyland",
    "region": "England",
    "short_region": "EN",
    "lat": "53.587300",
    "lon": "-1.589700"
  },
  {
    "id": "250367",
    "country": "GB",
    "zipcode": "S75",
    "name": "Silkstone Common",
    "region": "England",
    "short_region": "EN",
    "lat": "53.558800",
    "lon": "-1.534900"
  },
  {
    "id": "250368",
    "country": "GB",
    "zipcode": "S75",
    "name": "Pilley",
    "region": "England",
    "short_region": "EN",
    "lat": "53.558800",
    "lon": "-1.534900"
  },
  {
    "id": "250369",
    "country": "GB",
    "zipcode": "S75",
    "name": "Gawber",
    "region": "England",
    "short_region": "EN",
    "lat": "53.558800",
    "lon": "-1.534900"
  },
  {
    "id": "250370",
    "country": "GB",
    "zipcode": "S75",
    "name": "Mapplewell",
    "region": "England",
    "short_region": "EN",
    "lat": "53.558800",
    "lon": "-1.534900"
  },
  {
    "id": "250371",
    "country": "GB",
    "zipcode": "S75",
    "name": "Wentworth Castle",
    "region": "England",
    "short_region": "EN",
    "lat": "53.558800",
    "lon": "-1.534900"
  },
  {
    "id": "250372",
    "country": "GB",
    "zipcode": "S75",
    "name": "Staincross",
    "region": "England",
    "short_region": "EN",
    "lat": "53.594100",
    "lon": "-1.511500"
  },
  {
    "id": "250373",
    "country": "GB",
    "zipcode": "S75",
    "name": "Tankersley",
    "region": "England",
    "short_region": "EN",
    "lat": "53.491000",
    "lon": "-1.487000"
  },
  {
    "id": "250374",
    "country": "GB",
    "zipcode": "S75",
    "name": "Silkstone",
    "region": "England",
    "short_region": "EN",
    "lat": "53.548100",
    "lon": "-1.563800"
  },
  {
    "id": "250375",
    "country": "GB",
    "zipcode": "S8",
    "name": "Beauchief",
    "region": "England",
    "short_region": "EN",
    "lat": "53.340500",
    "lon": "-1.478100"
  },
  {
    "id": "250376",
    "country": "GB",
    "zipcode": "S8",
    "name": "Greenhill",
    "region": "England",
    "short_region": "EN",
    "lat": "53.333300",
    "lon": "-1.483300"
  },
  {
    "id": "250377",
    "country": "GB",
    "zipcode": "S8",
    "name": "Heeley",
    "region": "England",
    "short_region": "EN",
    "lat": "53.361300",
    "lon": "-1.473100"
  },
  {
    "id": "250378",
    "country": "GB",
    "zipcode": "S8",
    "name": "Norton",
    "region": "England",
    "short_region": "EN",
    "lat": "53.340500",
    "lon": "-1.478100"
  },
  {
    "id": "250379",
    "country": "GB",
    "zipcode": "S80",
    "name": "Thorpe Salvin",
    "region": "England",
    "short_region": "EN",
    "lat": "53.323800",
    "lon": "-1.217500"
  },
  {
    "id": "250380",
    "country": "GB",
    "zipcode": "S81",
    "name": "Woodsetts",
    "region": "England",
    "short_region": "EN",
    "lat": "53.348000",
    "lon": "-1.172000"
  },
  {
    "id": "250381",
    "country": "GB",
    "zipcode": "S81",
    "name": "Firbeck",
    "region": "England",
    "short_region": "EN",
    "lat": "53.390900",
    "lon": "-1.153200"
  },
  {
    "id": "250382",
    "country": "GB",
    "zipcode": "S81",
    "name": "Letwell",
    "region": "England",
    "short_region": "EN",
    "lat": "53.373700",
    "lon": "-1.154800"
  },
  {
    "id": "250383",
    "country": "GB",
    "zipcode": "S9",
    "name": "Tinsley",
    "region": "England",
    "short_region": "EN",
    "lat": "53.409900",
    "lon": "-1.394600"
  },
  {
    "id": "250384",
    "country": "GB",
    "zipcode": "S9",
    "name": "Wincobank",
    "region": "England",
    "short_region": "EN",
    "lat": "53.420600",
    "lon": "-1.421100"
  },
  {
    "id": "250385",
    "country": "GB",
    "zipcode": "S9",
    "name": "Darnall",
    "region": "England",
    "short_region": "EN",
    "lat": "53.386000",
    "lon": "-1.409700"
  },
  {
    "id": "250386",
    "country": "GB",
    "zipcode": "S95",
    "name": "Ecclesfield",
    "region": "England",
    "short_region": "EN",
    "lat": "53.439800",
    "lon": "-1.465200"
  },
  {
    "id": "250387",
    "country": "GB",
    "zipcode": "S95",
    "name": "Rotherham",
    "region": "England",
    "short_region": "EN",
    "lat": "53.430100",
    "lon": "-1.356800"
  },
  {
    "id": "250388",
    "country": "GB",
    "zipcode": "S96",
    "name": "Sheffield",
    "region": "England",
    "short_region": "EN",
    "lat": "53.403100",
    "lon": "-1.427300"
  },
  {
    "id": "250389",
    "country": "GB",
    "zipcode": "S97",
    "name": "Rotherham",
    "region": "England",
    "short_region": "EN",
    "lat": "53.430100",
    "lon": "-1.356800"
  },
  {
    "id": "250390",
    "country": "GB",
    "zipcode": "S97",
    "name": "Sheffield",
    "region": "England",
    "short_region": "EN",
    "lat": "53.499100",
    "lon": "-1.341900"
  },
  {
    "id": "250391",
    "country": "GB",
    "zipcode": "S98",
    "name": "Sheffield",
    "region": "England",
    "short_region": "EN",
    "lat": "53.404100",
    "lon": "-1.431300"
  },
  {
    "id": "250392",
    "country": "GB",
    "zipcode": "S99",
    "name": "Sheffield",
    "region": "England",
    "short_region": "EN",
    "lat": "53.404200",
    "lon": "-1.431000"
  },
  {
    "id": "250393",
    "country": "GB",
    "zipcode": "CH25",
    "name": "Wirral",
    "region": "England",
    "short_region": "EN",
    "lat": "53.397000",
    "lon": "-3.011900"
  },
  {
    "id": "250394",
    "country": "GB",
    "zipcode": "CH26",
    "name": "Wirral",
    "region": "England",
    "short_region": "EN",
    "lat": "53.365700",
    "lon": "-3.065900"
  },
  {
    "id": "250395",
    "country": "GB",
    "zipcode": "CH27",
    "name": "Wirral",
    "region": "England",
    "short_region": "EN",
    "lat": "53.420200",
    "lon": "-3.039200"
  },
  {
    "id": "250396",
    "country": "GB",
    "zipcode": "CH28",
    "name": "Wirral",
    "region": "England",
    "short_region": "EN",
    "lat": "53.376200",
    "lon": "-3.105000"
  },
  {
    "id": "250397",
    "country": "GB",
    "zipcode": "CH29",
    "name": "Wirral",
    "region": "England",
    "short_region": "EN",
    "lat": "53.390300",
    "lon": "-3.179400"
  },
  {
    "id": "250398",
    "country": "GB",
    "zipcode": "CH30",
    "name": "Wirral",
    "region": "England",
    "short_region": "EN",
    "lat": "53.376200",
    "lon": "-3.105000"
  },
  {
    "id": "250399",
    "country": "GB",
    "zipcode": "CH31",
    "name": "Wirral",
    "region": "England",
    "short_region": "EN",
    "lat": "53.329700",
    "lon": "-3.098900"
  },
  {
    "id": "250400",
    "country": "GB",
    "zipcode": "CH32",
    "name": "Wirral",
    "region": "England",
    "short_region": "EN",
    "lat": "53.361900",
    "lon": "-2.997600"
  },
  {
    "id": "250401",
    "country": "GB",
    "zipcode": "CH41",
    "name": "Birkenhead",
    "region": "England",
    "short_region": "EN",
    "lat": "53.393400",
    "lon": "-3.014800"
  },
  {
    "id": "250402",
    "country": "GB",
    "zipcode": "CH41",
    "name": "Seacombe",
    "region": "England",
    "short_region": "EN",
    "lat": "53.409600",
    "lon": "-3.017800"
  },
  {
    "id": "250403",
    "country": "GB",
    "zipcode": "CH42",
    "name": "Birkenhead",
    "region": "England",
    "short_region": "EN",
    "lat": "53.393400",
    "lon": "-3.014800"
  },
  {
    "id": "250404",
    "country": "GB",
    "zipcode": "CH42",
    "name": "Rock Ferry",
    "region": "England",
    "short_region": "EN",
    "lat": "53.369200",
    "lon": "-3.004200"
  },
  {
    "id": "250405",
    "country": "GB",
    "zipcode": "CH42",
    "name": "Prenton",
    "region": "England",
    "short_region": "EN",
    "lat": "53.374100",
    "lon": "-3.022900"
  },
  {
    "id": "250406",
    "country": "GB",
    "zipcode": "CH43",
    "name": "Bidston",
    "region": "England",
    "short_region": "EN",
    "lat": "53.400900",
    "lon": "-3.072900"
  },
  {
    "id": "250407",
    "country": "GB",
    "zipcode": "CH43",
    "name": "Prenton",
    "region": "England",
    "short_region": "EN",
    "lat": "53.367600",
    "lon": "-3.054800"
  },
  {
    "id": "250408",
    "country": "GB",
    "zipcode": "CH43",
    "name": "Oxton",
    "region": "England",
    "short_region": "EN",
    "lat": "53.384200",
    "lon": "-3.059600"
  },
  {
    "id": "250409",
    "country": "GB",
    "zipcode": "CH44",
    "name": "Wallasey",
    "region": "England",
    "short_region": "EN",
    "lat": "53.423200",
    "lon": "-3.065000"
  },
  {
    "id": "250410",
    "country": "GB",
    "zipcode": "CH45",
    "name": "New Brighton",
    "region": "England",
    "short_region": "EN",
    "lat": "53.433300",
    "lon": "-3.033300"
  },
  {
    "id": "250411",
    "country": "GB",
    "zipcode": "CH45",
    "name": "Wallasey",
    "region": "England",
    "short_region": "EN",
    "lat": "53.423200",
    "lon": "-3.065000"
  },
  {
    "id": "250412",
    "country": "GB",
    "zipcode": "CH46",
    "name": "Wirral",
    "region": "England",
    "short_region": "EN",
    "lat": "53.376200",
    "lon": "-3.105000"
  },
  {
    "id": "250413",
    "country": "GB",
    "zipcode": "CH46",
    "name": "Moreton",
    "region": "England",
    "short_region": "EN",
    "lat": "53.400000",
    "lon": "-3.116700"
  },
  {
    "id": "250414",
    "country": "GB",
    "zipcode": "CH47",
    "name": "Hoylake",
    "region": "England",
    "short_region": "EN",
    "lat": "53.390500",
    "lon": "-3.180700"
  },
  {
    "id": "250415",
    "country": "GB",
    "zipcode": "CH47",
    "name": "Saughall Massie",
    "region": "England",
    "short_region": "EN",
    "lat": "53.390500",
    "lon": "-3.180700"
  },
  {
    "id": "250416",
    "country": "GB",
    "zipcode": "CH48",
    "name": "Wirral",
    "region": "England",
    "short_region": "EN",
    "lat": "53.370600",
    "lon": "-3.169700"
  },
  {
    "id": "250417",
    "country": "GB",
    "zipcode": "CH48",
    "name": "Grange",
    "region": "England",
    "short_region": "EN",
    "lat": "53.370600",
    "lon": "-3.169700"
  },
  {
    "id": "250418",
    "country": "GB",
    "zipcode": "CH48",
    "name": "Frankby",
    "region": "England",
    "short_region": "EN",
    "lat": "53.372600",
    "lon": "-3.137000"
  },
  {
    "id": "250419",
    "country": "GB",
    "zipcode": "CH48",
    "name": "Greasby",
    "region": "England",
    "short_region": "EN",
    "lat": "53.370600",
    "lon": "-3.169700"
  },
  {
    "id": "250420",
    "country": "GB",
    "zipcode": "CH48",
    "name": "Caldy",
    "region": "England",
    "short_region": "EN",
    "lat": "53.358300",
    "lon": "-3.163800"
  },
  {
    "id": "250421",
    "country": "GB",
    "zipcode": "CH48",
    "name": "West Kirby",
    "region": "England",
    "short_region": "EN",
    "lat": "53.373000",
    "lon": "-3.184200"
  },
  {
    "id": "250422",
    "country": "GB",
    "zipcode": "CH49",
    "name": "Woodchurch",
    "region": "England",
    "short_region": "EN",
    "lat": "53.366700",
    "lon": "-3.083300"
  },
  {
    "id": "250423",
    "country": "GB",
    "zipcode": "CH49",
    "name": "Wirral",
    "region": "England",
    "short_region": "EN",
    "lat": "53.376200",
    "lon": "-3.105000"
  },
  {
    "id": "250424",
    "country": "GB",
    "zipcode": "CH49",
    "name": "Upton",
    "region": "England",
    "short_region": "EN",
    "lat": "53.383300",
    "lon": "-3.100000"
  },
  {
    "id": "250425",
    "country": "GB",
    "zipcode": "CH60",
    "name": "Gayton",
    "region": "England",
    "short_region": "EN",
    "lat": "53.326600",
    "lon": "-3.096100"
  },
  {
    "id": "250426",
    "country": "GB",
    "zipcode": "CH60",
    "name": "Heswall",
    "region": "England",
    "short_region": "EN",
    "lat": "53.327300",
    "lon": "-3.096500"
  },
  {
    "id": "250427",
    "country": "GB",
    "zipcode": "CH60",
    "name": "Wirral",
    "region": "England",
    "short_region": "EN",
    "lat": "53.326600",
    "lon": "-3.096100"
  },
  {
    "id": "250428",
    "country": "GB",
    "zipcode": "CH61",
    "name": "Irby",
    "region": "England",
    "short_region": "EN",
    "lat": "53.362600",
    "lon": "-3.118800"
  },
  {
    "id": "250429",
    "country": "GB",
    "zipcode": "CH61",
    "name": "Pensby",
    "region": "England",
    "short_region": "EN",
    "lat": "53.362600",
    "lon": "-3.118800"
  },
  {
    "id": "250430",
    "country": "GB",
    "zipcode": "CH61",
    "name": "Barnston",
    "region": "England",
    "short_region": "EN",
    "lat": "53.362600",
    "lon": "-3.118800"
  },
  {
    "id": "250431",
    "country": "GB",
    "zipcode": "CH61",
    "name": "Thurstaston",
    "region": "England",
    "short_region": "EN",
    "lat": "53.349100",
    "lon": "-3.132600"
  },
  {
    "id": "250432",
    "country": "GB",
    "zipcode": "CH61",
    "name": "Wirral",
    "region": "England",
    "short_region": "EN",
    "lat": "53.376200",
    "lon": "-3.105000"
  },
  {
    "id": "250433",
    "country": "GB",
    "zipcode": "CH62",
    "name": "Wirral",
    "region": "England",
    "short_region": "EN",
    "lat": "53.333900",
    "lon": "-2.981500"
  },
  {
    "id": "250434",
    "country": "GB",
    "zipcode": "CH63",
    "name": "Wirral",
    "region": "England",
    "short_region": "EN",
    "lat": "53.344400",
    "lon": "-3.012400"
  },
  {
    "id": "250435",
    "country": "GB",
    "zipcode": "L1",
    "name": "Liverpool",
    "region": "England",
    "short_region": "EN",
    "lat": "53.410600",
    "lon": "-2.977900"
  },
  {
    "id": "250436",
    "country": "GB",
    "zipcode": "L10",
    "name": "Aintree",
    "region": "England",
    "short_region": "EN",
    "lat": "53.475400",
    "lon": "-2.952000"
  },
  {
    "id": "250437",
    "country": "GB",
    "zipcode": "L11",
    "name": "Liverpool",
    "region": "England",
    "short_region": "EN",
    "lat": "53.448100",
    "lon": "-2.915500"
  },
  {
    "id": "250438",
    "country": "GB",
    "zipcode": "L12",
    "name": "West Derby",
    "region": "England",
    "short_region": "EN",
    "lat": "53.432800",
    "lon": "-2.909600"
  },
  {
    "id": "250439",
    "country": "GB",
    "zipcode": "L13",
    "name": "Liverpool",
    "region": "England",
    "short_region": "EN",
    "lat": "53.417900",
    "lon": "-2.920600"
  },
  {
    "id": "250440",
    "country": "GB",
    "zipcode": "L14",
    "name": "Knotty Ash",
    "region": "England",
    "short_region": "EN",
    "lat": "53.416200",
    "lon": "-2.896500"
  },
  {
    "id": "250441",
    "country": "GB",
    "zipcode": "L15",
    "name": "Liverpool",
    "region": "England",
    "short_region": "EN",
    "lat": "53.397500",
    "lon": "-2.920600"
  },
  {
    "id": "250442",
    "country": "GB",
    "zipcode": "L16",
    "name": "Childwall",
    "region": "England",
    "short_region": "EN",
    "lat": "53.397200",
    "lon": "-2.897000"
  },
  {
    "id": "250443",
    "country": "GB",
    "zipcode": "L17",
    "name": "Aigburth",
    "region": "England",
    "short_region": "EN",
    "lat": "53.365300",
    "lon": "-2.917800"
  },
  {
    "id": "250444",
    "country": "GB",
    "zipcode": "L18",
    "name": "Mossley Hill",
    "region": "England",
    "short_region": "EN",
    "lat": "53.380500",
    "lon": "-2.908600"
  },
  {
    "id": "250445",
    "country": "GB",
    "zipcode": "L18",
    "name": "Allerton",
    "region": "England",
    "short_region": "EN",
    "lat": "53.380500",
    "lon": "-2.908600"
  },
  {
    "id": "250446",
    "country": "GB",
    "zipcode": "L19",
    "name": "Grassendale",
    "region": "England",
    "short_region": "EN",
    "lat": "53.333300",
    "lon": "-2.900000"
  },
  {
    "id": "250447",
    "country": "GB",
    "zipcode": "L19",
    "name": "Garston",
    "region": "England",
    "short_region": "EN",
    "lat": "53.333300",
    "lon": "-2.900000"
  },
  {
    "id": "250448",
    "country": "GB",
    "zipcode": "L2",
    "name": "Liverpool",
    "region": "England",
    "short_region": "EN",
    "lat": "53.410600",
    "lon": "-2.977900"
  },
  {
    "id": "250449",
    "country": "GB",
    "zipcode": "L20",
    "name": "Bootle",
    "region": "England",
    "short_region": "EN",
    "lat": "53.466700",
    "lon": "-3.016700"
  },
  {
    "id": "250450",
    "country": "GB",
    "zipcode": "L21",
    "name": "Litherland",
    "region": "England",
    "short_region": "EN",
    "lat": "53.469900",
    "lon": "-2.998100"
  },
  {
    "id": "250451",
    "country": "GB",
    "zipcode": "L22",
    "name": "Seaforth",
    "region": "England",
    "short_region": "EN",
    "lat": "53.466700",
    "lon": "-3.016700"
  },
  {
    "id": "250452",
    "country": "GB",
    "zipcode": "L22",
    "name": "Waterloo",
    "region": "England",
    "short_region": "EN",
    "lat": "53.466700",
    "lon": "-3.016700"
  },
  {
    "id": "250453",
    "country": "GB",
    "zipcode": "L23",
    "name": "Great Crosby",
    "region": "England",
    "short_region": "EN",
    "lat": "53.490500",
    "lon": "-3.030800"
  },
  {
    "id": "250454",
    "country": "GB",
    "zipcode": "L23",
    "name": "Little Crosby",
    "region": "England",
    "short_region": "EN",
    "lat": "53.489400",
    "lon": "-3.021400"
  },
  {
    "id": "250455",
    "country": "GB",
    "zipcode": "L23",
    "name": "Crosby",
    "region": "England",
    "short_region": "EN",
    "lat": "53.477800",
    "lon": "-3.033300"
  },
  {
    "id": "250456",
    "country": "GB",
    "zipcode": "L23",
    "name": "Thornton",
    "region": "England",
    "short_region": "EN",
    "lat": "53.500000",
    "lon": "-3.000000"
  },
  {
    "id": "250457",
    "country": "GB",
    "zipcode": "L24",
    "name": "Speke",
    "region": "England",
    "short_region": "EN",
    "lat": "53.340700",
    "lon": "-2.841000"
  },
  {
    "id": "250458",
    "country": "GB",
    "zipcode": "L25",
    "name": "Gateacre",
    "region": "England",
    "short_region": "EN",
    "lat": "53.374000",
    "lon": "-2.870000"
  },
  {
    "id": "250459",
    "country": "GB",
    "zipcode": "L25",
    "name": "Woolton",
    "region": "England",
    "short_region": "EN",
    "lat": "53.374000",
    "lon": "-2.870000"
  },
  {
    "id": "250460",
    "country": "GB",
    "zipcode": "L25",
    "name": "Hunt's Cross",
    "region": "England",
    "short_region": "EN",
    "lat": "53.374000",
    "lon": "-2.870000"
  },
  {
    "id": "250461",
    "country": "GB",
    "zipcode": "L26",
    "name": "Halewood",
    "region": "England",
    "short_region": "EN",
    "lat": "53.359600",
    "lon": "-2.831500"
  },
  {
    "id": "250462",
    "country": "GB",
    "zipcode": "L27",
    "name": "Liverpool",
    "region": "England",
    "short_region": "EN",
    "lat": "53.387700",
    "lon": "-2.838300"
  },
  {
    "id": "250463",
    "country": "GB",
    "zipcode": "L28",
    "name": "Liverpool",
    "region": "England",
    "short_region": "EN",
    "lat": "53.435500",
    "lon": "-2.865800"
  },
  {
    "id": "250464",
    "country": "GB",
    "zipcode": "L29",
    "name": "Sefton",
    "region": "England",
    "short_region": "EN",
    "lat": "53.504100",
    "lon": "-2.972000"
  },
  {
    "id": "250465",
    "country": "GB",
    "zipcode": "L29",
    "name": "Lunt",
    "region": "England",
    "short_region": "EN",
    "lat": "53.504100",
    "lon": "-2.972000"
  },
  {
    "id": "250466",
    "country": "GB",
    "zipcode": "L3",
    "name": "Liverpool",
    "region": "England",
    "short_region": "EN",
    "lat": "53.410600",
    "lon": "-2.977900"
  },
  {
    "id": "250467",
    "country": "GB",
    "zipcode": "L30",
    "name": "Netherton",
    "region": "England",
    "short_region": "EN",
    "lat": "53.479600",
    "lon": "-2.962500"
  },
  {
    "id": "250468",
    "country": "GB",
    "zipcode": "L30",
    "name": "Ford",
    "region": "England",
    "short_region": "EN",
    "lat": "53.484100",
    "lon": "-2.972500"
  },
  {
    "id": "250469",
    "country": "GB",
    "zipcode": "L31",
    "name": "Lydiate",
    "region": "England",
    "short_region": "EN",
    "lat": "53.530500",
    "lon": "-2.954800"
  },
  {
    "id": "250470",
    "country": "GB",
    "zipcode": "L31",
    "name": "Maghull",
    "region": "England",
    "short_region": "EN",
    "lat": "53.516200",
    "lon": "-2.941200"
  },
  {
    "id": "250471",
    "country": "GB",
    "zipcode": "L31",
    "name": "Melling Mount",
    "region": "England",
    "short_region": "EN",
    "lat": "53.510000",
    "lon": "-2.937500"
  },
  {
    "id": "250472",
    "country": "GB",
    "zipcode": "L31",
    "name": "Melling",
    "region": "England",
    "short_region": "EN",
    "lat": "53.513400",
    "lon": "-2.938200"
  },
  {
    "id": "250473",
    "country": "GB",
    "zipcode": "L32",
    "name": "Kirkby",
    "region": "England",
    "short_region": "EN",
    "lat": "53.483300",
    "lon": "-2.900000"
  },
  {
    "id": "250474",
    "country": "GB",
    "zipcode": "L33",
    "name": "Liverpool",
    "region": "England",
    "short_region": "EN",
    "lat": "53.489800",
    "lon": "-2.876400"
  },
  {
    "id": "250475",
    "country": "GB",
    "zipcode": "L34",
    "name": "Knowsley",
    "region": "England",
    "short_region": "EN",
    "lat": "53.454000",
    "lon": "-2.854000"
  },
  {
    "id": "250476",
    "country": "GB",
    "zipcode": "L34",
    "name": "Prescot",
    "region": "England",
    "short_region": "EN",
    "lat": "53.429500",
    "lon": "-2.800300"
  },
  {
    "id": "250477",
    "country": "GB",
    "zipcode": "L35",
    "name": "Whiston",
    "region": "England",
    "short_region": "EN",
    "lat": "53.420000",
    "lon": "-2.789100"
  },
  {
    "id": "250478",
    "country": "GB",
    "zipcode": "L35",
    "name": "Rainhill Stoops",
    "region": "England",
    "short_region": "EN",
    "lat": "53.411800",
    "lon": "-2.768300"
  },
  {
    "id": "250479",
    "country": "GB",
    "zipcode": "L35",
    "name": "Rainhill",
    "region": "England",
    "short_region": "EN",
    "lat": "53.403700",
    "lon": "-2.747600"
  },
  {
    "id": "250480",
    "country": "GB",
    "zipcode": "L36",
    "name": "Roby",
    "region": "England",
    "short_region": "EN",
    "lat": "53.409100",
    "lon": "-2.856700"
  },
  {
    "id": "250481",
    "country": "GB",
    "zipcode": "L36",
    "name": "Huyton",
    "region": "England",
    "short_region": "EN",
    "lat": "53.411500",
    "lon": "-2.839400"
  },
  {
    "id": "250482",
    "country": "GB",
    "zipcode": "L37",
    "name": "Formby",
    "region": "England",
    "short_region": "EN",
    "lat": "53.553600",
    "lon": "-3.068200"
  },
  {
    "id": "250483",
    "country": "GB",
    "zipcode": "L37",
    "name": "Freshfield",
    "region": "England",
    "short_region": "EN",
    "lat": "53.551500",
    "lon": "-3.042600"
  },
  {
    "id": "250484",
    "country": "GB",
    "zipcode": "L38",
    "name": "Hightown",
    "region": "England",
    "short_region": "EN",
    "lat": "53.516700",
    "lon": "-3.050000"
  },
  {
    "id": "250485",
    "country": "GB",
    "zipcode": "L38",
    "name": "Ince Blundell",
    "region": "England",
    "short_region": "EN",
    "lat": "53.524300",
    "lon": "-3.027300"
  },
  {
    "id": "250486",
    "country": "GB",
    "zipcode": "L4",
    "name": "Liverpool",
    "region": "England",
    "short_region": "EN",
    "lat": "53.437800",
    "lon": "-2.961100"
  },
  {
    "id": "250487",
    "country": "GB",
    "zipcode": "L5",
    "name": "Liverpool",
    "region": "England",
    "short_region": "EN",
    "lat": "53.410600",
    "lon": "-2.977900"
  },
  {
    "id": "250488",
    "country": "GB",
    "zipcode": "L6",
    "name": "Liverpool",
    "region": "England",
    "short_region": "EN",
    "lat": "53.410600",
    "lon": "-2.977900"
  },
  {
    "id": "250489",
    "country": "GB",
    "zipcode": "L67",
    "name": "Liverpool",
    "region": "England",
    "short_region": "EN",
    "lat": "53.410600",
    "lon": "-2.977900"
  },
  {
    "id": "250490",
    "country": "GB",
    "zipcode": "L68",
    "name": "Sefton",
    "region": "England",
    "short_region": "EN",
    "lat": "53.473100",
    "lon": "-2.960700"
  },
  {
    "id": "250491",
    "country": "GB",
    "zipcode": "L69",
    "name": "Non-geographic",
    "region": "England",
    "short_region": "EN",
    "lat": "53.406900",
    "lon": "-2.974600"
  },
  {
    "id": "250492",
    "country": "GB",
    "zipcode": "L7",
    "name": "Liverpool",
    "region": "England",
    "short_region": "EN",
    "lat": "53.410600",
    "lon": "-2.977900"
  },
  {
    "id": "250493",
    "country": "GB",
    "zipcode": "L70",
    "name": "Knowsley",
    "region": "England",
    "short_region": "EN",
    "lat": "53.408700",
    "lon": "-2.970100"
  },
  {
    "id": "250494",
    "country": "GB",
    "zipcode": "L70",
    "name": "Liverpool",
    "region": "England",
    "short_region": "EN",
    "lat": "53.410600",
    "lon": "-2.977900"
  },
  {
    "id": "250495",
    "country": "GB",
    "zipcode": "L70",
    "name": "Sefton",
    "region": "England",
    "short_region": "EN",
    "lat": "53.408700",
    "lon": "-2.970100"
  },
  {
    "id": "250496",
    "country": "GB",
    "zipcode": "L71",
    "name": "Liverpool",
    "region": "England",
    "short_region": "EN",
    "lat": "53.410600",
    "lon": "-2.977900"
  },
  {
    "id": "250497",
    "country": "GB",
    "zipcode": "L71",
    "name": "Sefton",
    "region": "England",
    "short_region": "EN",
    "lat": "53.437300",
    "lon": "-2.974600"
  },
  {
    "id": "250498",
    "country": "GB",
    "zipcode": "L72",
    "name": "Sefton",
    "region": "England",
    "short_region": "EN",
    "lat": "53.504100",
    "lon": "-2.972000"
  },
  {
    "id": "250499",
    "country": "GB",
    "zipcode": "L73",
    "name": "Liverpool",
    "region": "England",
    "short_region": "EN",
    "lat": "53.410600",
    "lon": "-2.977900"
  },
  {
    "id": "250500",
    "country": "GB",
    "zipcode": "L74",
    "name": "Liverpool",
    "region": "England",
    "short_region": "EN",
    "lat": "53.410600",
    "lon": "-2.977900"
  },
  {
    "id": "250501",
    "country": "GB",
    "zipcode": "L75",
    "name": "Sefton",
    "region": "England",
    "short_region": "EN",
    "lat": "53.440800",
    "lon": "-2.984400"
  },
  {
    "id": "250502",
    "country": "GB",
    "zipcode": "L75",
    "name": "Liverpool",
    "region": "England",
    "short_region": "EN",
    "lat": "53.410600",
    "lon": "-2.977900"
  },
  {
    "id": "250503",
    "country": "GB",
    "zipcode": "L8",
    "name": "Liverpool",
    "region": "England",
    "short_region": "EN",
    "lat": "53.410600",
    "lon": "-2.977900"
  },
  {
    "id": "250504",
    "country": "GB",
    "zipcode": "L80",
    "name": "Sefton",
    "region": "England",
    "short_region": "EN",
    "lat": "53.469200",
    "lon": "-2.969100"
  },
  {
    "id": "250505",
    "country": "GB",
    "zipcode": "L9",
    "name": "Walton",
    "region": "England",
    "short_region": "EN",
    "lat": "53.461600",
    "lon": "-2.953400"
  },
  {
    "id": "250506",
    "country": "GB",
    "zipcode": "PR8",
    "name": "Brown Edge",
    "region": "England",
    "short_region": "EN",
    "lat": "53.625400",
    "lon": "-3.020100"
  },
  {
    "id": "250507",
    "country": "GB",
    "zipcode": "PR8",
    "name": "Birkdale",
    "region": "England",
    "short_region": "EN",
    "lat": "53.625400",
    "lon": "-3.020100"
  },
  {
    "id": "250508",
    "country": "GB",
    "zipcode": "PR8",
    "name": "Ainsdale",
    "region": "England",
    "short_region": "EN",
    "lat": "53.602900",
    "lon": "-3.033700"
  },
  {
    "id": "250509",
    "country": "GB",
    "zipcode": "PR8",
    "name": "Southport",
    "region": "England",
    "short_region": "EN",
    "lat": "53.647800",
    "lon": "-3.006500"
  },
  {
    "id": "250510",
    "country": "GB",
    "zipcode": "PR8",
    "name": "Shirdley Hill",
    "region": "England",
    "short_region": "EN",
    "lat": "53.625400",
    "lon": "-3.020100"
  },
  {
    "id": "250511",
    "country": "GB",
    "zipcode": "PR8",
    "name": "Snape Green",
    "region": "England",
    "short_region": "EN",
    "lat": "53.625400",
    "lon": "-3.020100"
  },