[
  {
    "id": "210001",
    "country": "FR",
    "zipcode": "53950",
    "name": "La Chapelle-Anthenaise",
    "region": "Pays de la Loire",
    "short_region": "52",
    "lat": "48.123000",
    "lon": "-0.677000"
  },
  {
    "id": "210002",
    "country": "FR",
    "zipcode": "53951",
    "name": "Laval",
    "region": "Pays de la Loire",
    "short_region": "52",
    "lat": "48.072500",
    "lon": "-0.770200"
  },
  {
    "id": "210003",
    "country": "FR",
    "zipcode": "53960",
    "name": "Bonchamp-lès-Laval",
    "region": "Pays de la Loire",
    "short_region": "52",
    "lat": "48.073800",
    "lon": "-0.702000"
  },
  {
    "id": "210004",
    "country": "FR",
    "zipcode": "53970",
    "name": "Montigné-le-Brillant",
    "region": "Pays de la Loire",
    "short_region": "52",
    "lat": "48.008900",
    "lon": "-0.815300"
  },
  {
    "id": "210005",
    "country": "FR",
    "zipcode": "53970",
    "name": "L'Huisserie",
    "region": "Pays de la Loire",
    "short_region": "52",
    "lat": "48.024300",
    "lon": "-0.768500"
  },
  {
    "id": "210006",
    "country": "FR",
    "zipcode": "53970",
    "name": "Nuillé-sur-Vicoin",
    "region": "Pays de la Loire",
    "short_region": "52",
    "lat": "47.985300",
    "lon": "-0.783500"
  },
  {
    "id": "210007",
    "country": "FR",
    "zipcode": "53971",
    "name": "Laval",
    "region": "Pays de la Loire",
    "short_region": "52",
    "lat": "48.072500",
    "lon": "-0.770200"
  },
  {
    "id": "210008",
    "country": "FR",
    "zipcode": "61420",
    "name": "Ravigny",
    "region": "Pays de la Loire",
    "short_region": "52",
    "lat": "48.447500",
    "lon": "-0.062500"
  },
  {
    "id": "210009",
    "country": "FR",
    "zipcode": "72000",
    "name": "Le Mans",
    "region": "Pays de la Loire",
    "short_region": "52",
    "lat": "48.002100",
    "lon": "0.202500"
  },
  {
    "id": "210010",
    "country": "FR",
    "zipcode": "72001",
    "name": "Le Mans",
    "region": "Pays de la Loire",
    "short_region": "52",
    "lat": "48.002100",
    "lon": "0.202500"
  },
  {
    "id": "210011",
    "country": "FR",
    "zipcode": "72002",
    "name": "Le Mans",
    "region": "Pays de la Loire",
    "short_region": "52",
    "lat": "48.002100",
    "lon": "0.202500"
  },
  {
    "id": "210012",
    "country": "FR",
    "zipcode": "72003",
    "name": "Le Mans",
    "region": "Pays de la Loire",
    "short_region": "52",
    "lat": "48.002100",
    "lon": "0.202500"
  },
  {
    "id": "210013",
    "country": "FR",
    "zipcode": "72004",
    "name": "Le Mans",
    "region": "Pays de la Loire",
    "short_region": "52",
    "lat": "48.002100",
    "lon": "0.202500"
  },
  {
    "id": "210014",
    "country": "FR",
    "zipcode": "72005",
    "name": "Le Mans",
    "region": "Pays de la Loire",
    "short_region": "52",
    "lat": "48.002100",
    "lon": "0.202500"
  },
  {
    "id": "210015",
    "country": "FR",
    "zipcode": "72006",
    "name": "Le Mans",
    "region": "Pays de la Loire",
    "short_region": "52",
    "lat": "48.002100",
    "lon": "0.202500"
  },
  {
    "id": "210016",
    "country": "FR",
    "zipcode": "72007",
    "name": "Le Mans",
    "region": "Pays de la Loire",
    "short_region": "52",
    "lat": "48.002100",
    "lon": "0.202500"
  },
  {
    "id": "210017",
    "country": "FR",
    "zipcode": "72008",
    "name": "Le Mans",
    "region": "Pays de la Loire",
    "short_region": "52",
    "lat": "48.002100",
    "lon": "0.202500"
  },
  {
    "id": "210018",
    "country": "FR",
    "zipcode": "72009",
    "name": "Le Mans",
    "region": "Pays de la Loire",
    "short_region": "52",
    "lat": "48.002100",
    "lon": "0.202500"
  },
  {
    "id": "210019",
    "country": "FR",
    "zipcode": "72010",
    "name": "Le Mans",
    "region": "Pays de la Loire",
    "short_region": "52",
    "lat": "48.002100",
    "lon": "0.202500"
  },
  {
    "id": "210020",
    "country": "FR",
    "zipcode": "72011",
    "name": "Le Mans",
    "region": "Pays de la Loire",
    "short_region": "52",
    "lat": "48.002100",
    "lon": "0.202500"
  },
  {
    "id": "210021",
    "country": "FR",
    "zipcode": "72013",
    "name": "Le Mans",
    "region": "Pays de la Loire",
    "short_region": "52",
    "lat": "48.002100",
    "lon": "0.202500"
  },
  {
    "id": "210022",
    "country": "FR",
    "zipcode": "72014",
    "name": "Le Mans",
    "region": "Pays de la Loire",
    "short_region": "52",
    "lat": "48.002100",
    "lon": "0.202500"
  },
  {
    "id": "210023",
    "country": "FR",
    "zipcode": "72015",
    "name": "Le Mans",
    "region": "Pays de la Loire",
    "short_region": "52",
    "lat": "48.002100",
    "lon": "0.202500"
  },
  {
    "id": "210024",
    "country": "FR",
    "zipcode": "72016",
    "name": "Le Mans",
    "region": "Pays de la Loire",
    "short_region": "52",
    "lat": "48.002100",
    "lon": "0.202500"
  },
  {
    "id": "210025",
    "country": "FR",
    "zipcode": "72018",
    "name": "Le Mans",
    "region": "Pays de la Loire",
    "short_region": "52",
    "lat": "48.002100",
    "lon": "0.202500"
  },
  {
    "id": "210026",
    "country": "FR",
    "zipcode": "72019",
    "name": "Le Mans",
    "region": "Pays de la Loire",
    "short_region": "52",
    "lat": "48.002100",
    "lon": "0.202500"
  },
  {
    "id": "210027",
    "country": "FR",
    "zipcode": "72021",
    "name": "Le Mans",
    "region": "Pays de la Loire",
    "short_region": "52",
    "lat": "48.002100",
    "lon": "0.202500"
  },
  {
    "id": "210028",
    "country": "FR",
    "zipcode": "72024",
    "name": "Le Mans",
    "region": "Pays de la Loire",
    "short_region": "52",
    "lat": "48.002100",
    "lon": "0.202500"
  },
  {
    "id": "210029",
    "country": "FR",
    "zipcode": "72025",
    "name": "Le Mans",
    "region": "Pays de la Loire",
    "short_region": "52",
    "lat": "48.002100",
    "lon": "0.202500"
  },
  {
    "id": "210030",
    "country": "FR",
    "zipcode": "72026",
    "name": "Le Mans",
    "region": "Pays de la Loire",
    "short_region": "52",
    "lat": "48.002100",
    "lon": "0.202500"
  },
  {
    "id": "210031",
    "country": "FR",
    "zipcode": "72027",
    "name": "Le Mans",
    "region": "Pays de la Loire",
    "short_region": "52",
    "lat": "48.002100",
    "lon": "0.202500"
  },
  {
    "id": "210032",
    "country": "FR",
    "zipcode": "72028",
    "name": "Le Mans",
    "region": "Pays de la Loire",
    "short_region": "52",
    "lat": "48.002100",
    "lon": "0.202500"
  },
  {
    "id": "210033",
    "country": "FR",
    "zipcode": "72029",
    "name": "Le Mans",
    "region": "Pays de la Loire",
    "short_region": "52",
    "lat": "48.002100",
    "lon": "0.202500"
  },
  {
    "id": "210034",
    "country": "FR",
    "zipcode": "72030",
    "name": "Le Mans",
    "region": "Pays de la Loire",
    "short_region": "52",
    "lat": "48.002100",
    "lon": "0.202500"
  },
  {
    "id": "210035",
    "country": "FR",
    "zipcode": "72032",
    "name": "Le Mans",
    "region": "Pays de la Loire",
    "short_region": "52",
    "lat": "48.002100",
    "lon": "0.202500"
  },
  {
    "id": "210036",
    "country": "FR",
    "zipcode": "72033",
    "name": "Le Mans",
    "region": "Pays de la Loire",
    "short_region": "52",
    "lat": "48.002100",
    "lon": "0.202500"
  },
  {
    "id": "210037",
    "country": "FR",
    "zipcode": "72034",
    "name": "Le Mans",
    "region": "Pays de la Loire",
    "short_region": "52",
    "lat": "48.002100",
    "lon": "0.202500"
  },
  {
    "id": "210038",
    "country": "FR",
    "zipcode": "72035",
    "name": "Le Mans",
    "region": "Pays de la Loire",
    "short_region": "52",
    "lat": "48.002100",
    "lon": "0.202500"
  },
  {
    "id": "210039",
    "country": "FR",
    "zipcode": "72036",
    "name": "Le Mans",
    "region": "Pays de la Loire",
    "short_region": "52",
    "lat": "48.002100",
    "lon": "0.202500"
  },
  {
    "id": "210040",
    "country": "FR",
    "zipcode": "72037",
    "name": "Le Mans",
    "region": "Pays de la Loire",
    "short_region": "52",
    "lat": "48.002100",
    "lon": "0.202500"
  },
  {
    "id": "210041",
    "country": "FR",
    "zipcode": "72038",
    "name": "Le Mans",
    "region": "Pays de la Loire",
    "short_region": "52",
    "lat": "48.002100",
    "lon": "0.202500"
  },
  {
    "id": "210042",
    "country": "FR",
    "zipcode": "72039",
    "name": "Le Mans",
    "region": "Pays de la Loire",
    "short_region": "52",
    "lat": "48.002100",
    "lon": "0.202500"
  },
  {
    "id": "210043",
    "country": "FR",
    "zipcode": "72040",
    "name": "Le Mans",
    "region": "Pays de la Loire",
    "short_region": "52",
    "lat": "48.002100",
    "lon": "0.202500"
  },
  {
    "id": "210044",
    "country": "FR",
    "zipcode": "72041",
    "name": "Le Mans",
    "region": "Pays de la Loire",
    "short_region": "52",
    "lat": "48.002100",
    "lon": "0.202500"
  },
  {
    "id": "210045",
    "country": "FR",
    "zipcode": "72042",
    "name": "Le Mans",
    "region": "Pays de la Loire",
    "short_region": "52",
    "lat": "48.002100",
    "lon": "0.202500"
  },
  {
    "id": "210046",
    "country": "FR",
    "zipcode": "72043",
    "name": "Le Mans",
    "region": "Pays de la Loire",
    "short_region": "52",
    "lat": "48.002100",
    "lon": "0.202500"
  },
  {
    "id": "210047",
    "country": "FR",
    "zipcode": "72044",
    "name": "Le Mans",
    "region": "Pays de la Loire",
    "short_region": "52",
    "lat": "48.002100",
    "lon": "0.202500"
  },
  {
    "id": "210048",
    "country": "FR",
    "zipcode": "72045",
    "name": "Le Mans",
    "region": "Pays de la Loire",
    "short_region": "52",
    "lat": "48.002100",
    "lon": "0.202500"
  },
  {
    "id": "210049",
    "country": "FR",
    "zipcode": "72047",
    "name": "Le Mans",
    "region": "Pays de la Loire",
    "short_region": "52",
    "lat": "48.002100",
    "lon": "0.202500"
  },
  {
    "id": "210050",
    "country": "FR",
    "zipcode": "72048",
    "name": "Le Mans",
    "region": "Pays de la Loire",
    "short_region": "52",
    "lat": "48.002100",
    "lon": "0.202500"
  },
  {
    "id": "210051",
    "country": "FR",
    "zipcode": "72049",
    "name": "Le Mans",
    "region": "Pays de la Loire",
    "short_region": "52",
    "lat": "48.002100",
    "lon": "0.202500"
  },
  {
    "id": "210052",
    "country": "FR",
    "zipcode": "72051",
    "name": "Le Mans",
    "region": "Pays de la Loire",
    "short_region": "52",
    "lat": "48.002100",
    "lon": "0.202500"
  },
  {
    "id": "210053",
    "country": "FR",
    "zipcode": "72052",
    "name": "Le Mans",
    "region": "Pays de la Loire",
    "short_region": "52",
    "lat": "48.002100",
    "lon": "0.202500"
  },
  {
    "id": "210054",
    "country": "FR",
    "zipcode": "72055",
    "name": "Le Mans",
    "region": "Pays de la Loire",
    "short_region": "52",
    "lat": "48.002100",
    "lon": "0.202500"
  },
  {
    "id": "210055",
    "country": "FR",
    "zipcode": "72058",
    "name": "Le Mans",
    "region": "Pays de la Loire",
    "short_region": "52",
    "lat": "48.002100",
    "lon": "0.202500"
  },
  {
    "id": "210056",
    "country": "FR",
    "zipcode": "72059",
    "name": "Le Mans",
    "region": "Pays de la Loire",
    "short_region": "52",
    "lat": "48.002100",
    "lon": "0.202500"
  },
  {
    "id": "210057",
    "country": "FR",
    "zipcode": "72070",
    "name": "Le Mans",
    "region": "Pays de la Loire",
    "short_region": "52",
    "lat": "48.002100",
    "lon": "0.202500"
  },
  {
    "id": "210058",
    "country": "FR",
    "zipcode": "72071",
    "name": "Le Mans",
    "region": "Pays de la Loire",
    "short_region": "52",
    "lat": "48.002100",
    "lon": "0.202500"
  },
  {
    "id": "210059",
    "country": "FR",
    "zipcode": "72072",
    "name": "Le Mans",
    "region": "Pays de la Loire",
    "short_region": "52",
    "lat": "48.002100",
    "lon": "0.202500"
  },
  {
    "id": "210060",
    "country": "FR",
    "zipcode": "72073",
    "name": "Le Mans",
    "region": "Pays de la Loire",
    "short_region": "52",
    "lat": "48.002100",
    "lon": "0.202500"
  },
  {
    "id": "210061",
    "country": "FR",
    "zipcode": "72075",
    "name": "Le Mans",
    "region": "Pays de la Loire",
    "short_region": "52",
    "lat": "48.002100",
    "lon": "0.202500"
  },
  {
    "id": "210062",
    "country": "FR",
    "zipcode": "72079",
    "name": "Le Mans",
    "region": "Pays de la Loire",
    "short_region": "52",
    "lat": "48.002100",
    "lon": "0.202500"
  },
  {
    "id": "210063",
    "country": "FR",
    "zipcode": "72080",
    "name": "Le Mans",
    "region": "Pays de la Loire",
    "short_region": "52",
    "lat": "48.002100",
    "lon": "0.202500"
  },
  {
    "id": "210064",
    "country": "FR",
    "zipcode": "72081",
    "name": "Le Mans",
    "region": "Pays de la Loire",
    "short_region": "52",
    "lat": "48.002100",
    "lon": "0.202500"
  },
  {
    "id": "210065",
    "country": "FR",
    "zipcode": "72082",
    "name": "Le Mans",
    "region": "Pays de la Loire",
    "short_region": "52",
    "lat": "48.002100",
    "lon": "0.202500"
  },
  {
    "id": "210066",
    "country": "FR",
    "zipcode": "72083",
    "name": "Le Mans",
    "region": "Pays de la Loire",
    "short_region": "52",
    "lat": "48.002100",
    "lon": "0.202500"
  },
  {
    "id": "210067",
    "country": "FR",
    "zipcode": "72084",
    "name": "Le Mans",
    "region": "Pays de la Loire",
    "short_region": "52",
    "lat": "48.002100",
    "lon": "0.202500"
  },
  {
    "id": "210068",
    "country": "FR",
    "zipcode": "72085",
    "name": "Le Mans",
    "region": "Pays de la Loire",
    "short_region": "52",
    "lat": "48.002100",
    "lon": "0.202500"
  },
  {
    "id": "210069",
    "country": "FR",
    "zipcode": "72086",
    "name": "Le Mans",
    "region": "Pays de la Loire",
    "short_region": "52",
    "lat": "48.002100",
    "lon": "0.202500"
  },
  {
    "id": "210070",
    "country": "FR",
    "zipcode": "72087",
    "name": "Le Mans",
    "region": "Pays de la Loire",
    "short_region": "52",
    "lat": "48.002100",
    "lon": "0.202500"
  },
  {
    "id": "210071",
    "country": "FR",
    "zipcode": "72088",
    "name": "Le Mans",
    "region": "Pays de la Loire",
    "short_region": "52",
    "lat": "48.002100",
    "lon": "0.202500"
  },
  {
    "id": "210072",
    "country": "FR",
    "zipcode": "72089",
    "name": "Le Mans",
    "region": "Pays de la Loire",
    "short_region": "52",
    "lat": "48.002100",
    "lon": "0.202500"
  },
  {
    "id": "210073",
    "country": "FR",
    "zipcode": "72091",
    "name": "Le Mans",
    "region": "Pays de la Loire",
    "short_region": "52",
    "lat": "48.002100",
    "lon": "0.202500"
  },
  {
    "id": "210074",
    "country": "FR",
    "zipcode": "72092",
    "name": "Le Mans",
    "region": "Pays de la Loire",
    "short_region": "52",
    "lat": "48.002100",
    "lon": "0.202500"
  },
  {
    "id": "210075",
    "country": "FR",
    "zipcode": "72093",
    "name": "Le Mans",
    "region": "Pays de la Loire",
    "short_region": "52",
    "lat": "48.002100",
    "lon": "0.202500"
  },
  {
    "id": "210076",
    "country": "FR",
    "zipcode": "72095",
    "name": "Le Mans",
    "region": "Pays de la Loire",
    "short_region": "52",
    "lat": "48.002100",
    "lon": "0.202500"
  },
  {
    "id": "210077",
    "country": "FR",
    "zipcode": "72096",
    "name": "Le Mans",
    "region": "Pays de la Loire",
    "short_region": "52",
    "lat": "48.002100",
    "lon": "0.202500"
  },
  {
    "id": "210078",
    "country": "FR",
    "zipcode": "72100",
    "name": "Le Mans",
    "region": "Pays de la Loire",
    "short_region": "52",
    "lat": "48.002100",
    "lon": "0.202500"
  },
  {
    "id": "210079",
    "country": "FR",
    "zipcode": "72109",
    "name": "Le Mans",
    "region": "Pays de la Loire",
    "short_region": "52",
    "lat": "48.002100",
    "lon": "0.202500"
  },
  {
    "id": "210080",
    "country": "FR",
    "zipcode": "72110",
    "name": "Terrehault",
    "region": "Pays de la Loire",
    "short_region": "52",
    "lat": "48.204500",
    "lon": "0.403300"
  },
  {
    "id": "210081",
    "country": "FR",
    "zipcode": "72110",
    "name": "Torcé-en-Vallée",
    "region": "Pays de la Loire",
    "short_region": "52",
    "lat": "48.133700",
    "lon": "0.395700"
  },
  {
    "id": "210082",
    "country": "FR",
    "zipcode": "72110",
    "name": "Saint-Célerin",
    "region": "Pays de la Loire",
    "short_region": "52",
    "lat": "48.123300",
    "lon": "0.430400"
  },
  {
    "id": "210083",
    "country": "FR",
    "zipcode": "72110",
    "name": "Beaufay",
    "region": "Pays de la Loire",
    "short_region": "52",
    "lat": "48.147200",
    "lon": "0.361900"
  },
  {
    "id": "210084",
    "country": "FR",
    "zipcode": "72110",
    "name": "Saint-Aignan",
    "region": "Pays de la Loire",
    "short_region": "52",
    "lat": "48.215600",
    "lon": "0.342500"
  },
  {
    "id": "210085",
    "country": "FR",
    "zipcode": "72110",
    "name": "Prévelles",
    "region": "Pays de la Loire",
    "short_region": "52",
    "lat": "48.152900",
    "lon": "0.483700"
  },
  {
    "id": "210086",
    "country": "FR",
    "zipcode": "72110",
    "name": "Nogent-le-Bernard",
    "region": "Pays de la Loire",
    "short_region": "52",
    "lat": "48.236800",
    "lon": "0.489500"
  },
  {
    "id": "210087",
    "country": "FR",
    "zipcode": "72110",
    "name": "Rouperroux-le-Coquet",
    "region": "Pays de la Loire",
    "short_region": "52",
    "lat": "48.227100",
    "lon": "0.430100"
  },
  {
    "id": "210088",
    "country": "FR",
    "zipcode": "72110",
    "name": "Courcemont",
    "region": "Pays de la Loire",
    "short_region": "52",
    "lat": "48.173300",
    "lon": "0.351500"
  },
  {
    "id": "210089",
    "country": "FR",
    "zipcode": "72110",
    "name": "Saint-Georges-du-Rosay",
    "region": "Pays de la Loire",
    "short_region": "52",
    "lat": "48.199800",
    "lon": "0.500900"
  },
  {
    "id": "210090",
    "country": "FR",
    "zipcode": "72110",
    "name": "Saint-Denis-des-Coudrais",
    "region": "Pays de la Loire",
    "short_region": "52",
    "lat": "48.150400",
    "lon": "0.506900"
  },
  {
    "id": "210091",
    "country": "FR",
    "zipcode": "72110",
    "name": "Jauzé",
    "region": "Pays de la Loire",
    "short_region": "52",
    "lat": "48.211600",
    "lon": "0.377500"
  },
  {
    "id": "210092",
    "country": "FR",
    "zipcode": "72110",
    "name": "Courcival",
    "region": "Pays de la Loire",
    "short_region": "52",
    "lat": "48.229900",
    "lon": "0.393100"
  },
  {
    "id": "210093",
    "country": "FR",
    "zipcode": "72110",
    "name": "Briosne-lès-Sables",
    "region": "Pays de la Loire",
    "short_region": "52",
    "lat": "48.166700",
    "lon": "0.400000"
  },
  {
    "id": "210094",
    "country": "FR",
    "zipcode": "72110",
    "name": "Bonnétable",
    "region": "Pays de la Loire",
    "short_region": "52",
    "lat": "48.179000",
    "lon": "0.425800"
  },
  {
    "id": "210095",
    "country": "FR",
    "zipcode": "72110",
    "name": "Saint-Cosme-en-Vairais",
    "region": "Pays de la Loire",
    "short_region": "52",
    "lat": "48.274100",
    "lon": "0.459800"
  },
  {
    "id": "210096",
    "country": "FR",
    "zipcode": "72120",
    "name": "Évaillé",
    "region": "Pays de la Loire",
    "short_region": "52",
    "lat": "47.900600",
    "lon": "0.630500"
  },
  {
    "id": "210097",
    "country": "FR",
    "zipcode": "72120",
    "name": "Conflans-sur-Anille",
    "region": "Pays de la Loire",
    "short_region": "52",
    "lat": "47.946500",
    "lon": "0.744800"
  },
  {
    "id": "210098",
    "country": "FR",
    "zipcode": "72120",
    "name": "Écorpain",
    "region": "Pays de la Loire",
    "short_region": "52",
    "lat": "47.937200",
    "lon": "0.662400"
  },
  {
    "id": "210099",
    "country": "FR",
    "zipcode": "72120",
    "name": "Marolles-lès-Saint-Calais",
    "region": "Pays de la Loire",
    "short_region": "52",
    "lat": "47.919000",
    "lon": "0.784100"
  },
  {
    "id": "210100",
    "country": "FR",
    "zipcode": "72120",
    "name": "Saint-Calais",
    "region": "Pays de la Loire",
    "short_region": "52",
    "lat": "47.920200",
    "lon": "0.743800"
  },
  {
    "id": "210101",
    "country": "FR",
    "zipcode": "72120",
    "name": "Rahay",
    "region": "Pays de la Loire",
    "short_region": "52",
    "lat": "47.961800",
    "lon": "0.831400"
  },
  {
    "id": "210102",
    "country": "FR",
    "zipcode": "72120",
    "name": "Saint-Gervais-de-Vic",
    "region": "Pays de la Loire",
    "short_region": "52",
    "lat": "47.887500",
    "lon": "0.741300"
  },
  {
    "id": "210103",
    "country": "FR",
    "zipcode": "72120",
    "name": "Sainte-Osmane",
    "region": "Pays de la Loire",
    "short_region": "52",
    "lat": "47.890100",
    "lon": "0.609000"
  },
  {
    "id": "210104",
    "country": "FR",
    "zipcode": "72120",
    "name": "Sainte-Cérotte",
    "region": "Pays de la Loire",
    "short_region": "52",
    "lat": "47.900900",
    "lon": "0.687300"
  },
  {
    "id": "210105",
    "country": "FR",
    "zipcode": "72120",
    "name": "Montaillé",
    "region": "Pays de la Loire",
    "short_region": "52",
    "lat": "47.937900",
    "lon": "0.700700"
  },
  {
    "id": "210106",
    "country": "FR",
    "zipcode": "72130",
    "name": "Saint-Victeur",
    "region": "Pays de la Loire",
    "short_region": "52",
    "lat": "48.323600",
    "lon": "0.039200"
  },
  {
    "id": "210107",
    "country": "FR",
    "zipcode": "72130",
    "name": "Saint-Ouen-de-Mimbré",
    "region": "Pays de la Loire",
    "short_region": "52",
    "lat": "48.293000",
    "lon": "0.048000"
  },
  {
    "id": "210108",
    "country": "FR",
    "zipcode": "72130",
    "name": "Fresnay-sur-Sarthe",
    "region": "Pays de la Loire",
    "short_region": "52",
    "lat": "48.281700",
    "lon": "0.021500"
  },
  {
    "id": "210109",
    "country": "FR",
    "zipcode": "72130",
    "name": "Saint-Aubin-de-Locquenay",
    "region": "Pays de la Loire",
    "short_region": "52",
    "lat": "48.269400",
    "lon": "0.023500"
  },
  {
    "id": "210110",
    "country": "FR",
    "zipcode": "72130",
    "name": "Saint-Germain-sur-Sarthe",
    "region": "Pays de la Loire",
    "short_region": "52",
    "lat": "48.285600",
    "lon": "0.095600"
  },
  {
    "id": "210111",
    "country": "FR",
    "zipcode": "72130",
    "name": "Moulins-le-Carbonnel",
    "region": "Pays de la Loire",
    "short_region": "52",
    "lat": "48.372300",
    "lon": "-0.024400"
  },
  {
    "id": "210112",
    "country": "FR",
    "zipcode": "72130",
    "name": "Saint-Georges-le-Gaultier",
    "region": "Pays de la Loire",
    "short_region": "52",
    "lat": "48.297100",
    "lon": "-0.106100"
  },
  {
    "id": "210113",
    "country": "FR",
    "zipcode": "72130",
    "name": "Sougé-le-Ganelon",
    "region": "Pays de la Loire",
    "short_region": "52",
    "lat": "48.318100",
    "lon": "-0.030100"
  },
  {
    "id": "210114",
    "country": "FR",
    "zipcode": "72130",
    "name": "Assé-le-Boisne",
    "region": "Pays de la Loire",
    "short_region": "52",
    "lat": "48.322900",
    "lon": "-0.007900"
  },
  {
    "id": "210115",
    "country": "FR",
    "zipcode": "72130",
    "name": "Montreuil-le-Chétif",
    "region": "Pays de la Loire",
    "short_region": "52",
    "lat": "48.245600",
    "lon": "-0.035700"
  },
  {
    "id": "210116",
    "country": "FR",
    "zipcode": "72130",
    "name": "Saint-Paul-le-Gaultier",
    "region": "Pays de la Loire",
    "short_region": "52",
    "lat": "48.321100",
    "lon": "-0.108100"
  },
  {
    "id": "210117",
    "country": "FR",
    "zipcode": "72130",
    "name": "Gesnes-le-Gandelin",
    "region": "Pays de la Loire",
    "short_region": "52",
    "lat": "48.355300",
    "lon": "0.019000"
  },
  {
    "id": "210118",
    "country": "FR",
    "zipcode": "72130",
    "name": "Coulombiers",
    "region": "Pays de la Loire",
    "short_region": "52",
    "lat": "48.298200",
    "lon": "0.126800"
  },
  {
    "id": "210119",
    "country": "FR",
    "zipcode": "72130",
    "name": "Saint-Léonard-des-Bois",
    "region": "Pays de la Loire",
    "short_region": "52",
    "lat": "48.352500",
    "lon": "-0.077700"
  },
  {
    "id": "210120",
    "country": "FR",
    "zipcode": "72130",
    "name": "Douillet",
    "region": "Pays de la Loire",
    "short_region": "52",
    "lat": "48.273200",
    "lon": "-0.042900"
  },
  {
    "id": "210121",
    "country": "FR",
    "zipcode": "72140",
    "name": "Le Grez",
    "region": "Pays de la Loire",
    "short_region": "52",
    "lat": "48.190500",
    "lon": "-0.153800"
  },
  {
    "id": "210122",
    "country": "FR",
    "zipcode": "72140",
    "name": "Mont-Saint-Jean",
    "region": "Pays de la Loire",
    "short_region": "52",
    "lat": "48.245700",
    "lon": "-0.107000"
  },
  {
    "id": "210123",
    "country": "FR",
    "zipcode": "72140",
    "name": "Pezé-le-Robert",
    "region": "Pays de la Loire",
    "short_region": "52",
    "lat": "48.193700",
    "lon": "-0.059100"
  },
  {
    "id": "210124",
    "country": "FR",
    "zipcode": "72140",
    "name": "Rouessé-Vassé",
    "region": "Pays de la Loire",
    "short_region": "52",
    "lat": "48.159600",
    "lon": "-0.198100"
  },
  {
    "id": "210125",
    "country": "FR",
    "zipcode": "72140",
    "name": "Sillé-le-Guillaume",
    "region": "Pays de la Loire",
    "short_region": "52",
    "lat": "48.183200",
    "lon": "-0.128900"
  },
  {
    "id": "210126",
    "country": "FR",
    "zipcode": "72140",
    "name": "Saint-Rémy-de-Sillé",
    "region": "Pays de la Loire",
    "short_region": "52",
    "lat": "48.186700",
    "lon": "-0.092700"
  },
  {
    "id": "210127",
    "country": "FR",
    "zipcode": "72140",
    "name": "Neuvillette-en-Charnie",
    "region": "Pays de la Loire",
    "short_region": "52",
    "lat": "48.093900",
    "lon": "-0.211800"
  },
  {
    "id": "210128",
    "country": "FR",
    "zipcode": "72140",
    "name": "Crissé",
    "region": "Pays de la Loire",
    "short_region": "52",
    "lat": "48.168600",
    "lon": "-0.060400"
  },
  {
    "id": "210129",
    "country": "FR",
    "zipcode": "72140",
    "name": "Rouez",
    "region": "Pays de la Loire",
    "short_region": "52",
    "lat": "48.140000",
    "lon": "-0.114700"
  },
  {
    "id": "210130",
    "country": "FR",
    "zipcode": "72140",
    "name": "Parennes",
    "region": "Pays de la Loire",
    "short_region": "52",
    "lat": "48.119400",
    "lon": "-0.185000"
  },
  {
    "id": "210131",
    "country": "FR",
    "zipcode": "72150",
    "name": "Saint-Pierre-du-Lorouër",
    "region": "Pays de la Loire",
    "short_region": "52",
    "lat": "47.806100",
    "lon": "0.522200"
  },
  {
    "id": "210132",
    "country": "FR",
    "zipcode": "72150",
    "name": "Courdemanche",
    "region": "Pays de la Loire",
    "short_region": "52",
    "lat": "47.814600",
    "lon": "0.562400"
  },
  {
    "id": "210133",
    "country": "FR",
    "zipcode": "72150",
    "name": "Pruillé-l'Éguillé",
    "region": "Pays de la Loire",
    "short_region": "52",
    "lat": "47.837700",
    "lon": "0.429400"
  },
  {
    "id": "210134",
    "country": "FR",
    "zipcode": "72150",
    "name": "Saint-Georges-de-la-Couée",
    "region": "Pays de la Loire",
    "short_region": "52",
    "lat": "47.841600",
    "lon": "0.583100"
  },
  {
    "id": "210135",
    "country": "FR",
    "zipcode": "72150",
    "name": "Saint-Vincent-du-Lorouër",
    "region": "Pays de la Loire",
    "short_region": "52",
    "lat": "47.825500",
    "lon": "0.489500"
  },
  {
    "id": "210136",
    "country": "FR",
    "zipcode": "72150",
    "name": "Villaines-sous-Lucé",
    "region": "Pays de la Loire",
    "short_region": "52",
    "lat": "47.866500",
    "lon": "0.481900"
  },
  {
    "id": "210137",
    "country": "FR",
    "zipcode": "72150",
    "name": "Montreuil-le-Henri",
    "region": "Pays de la Loire",
    "short_region": "52",
    "lat": "47.867300",
    "lon": "0.565100"
  },
  {
    "id": "210138",
    "country": "FR",
    "zipcode": "72150",
    "name": "Le Grand-Lucé",
    "region": "Pays de la Loire",
    "short_region": "52",
    "lat": "47.865200",
    "lon": "0.468800"
  },
  {
    "id": "210139",
    "country": "FR",
    "zipcode": "72160",
    "name": "Tuffé Val de la Chéronne",
    "region": "Pays de la Loire",
    "short_region": "52",
    "lat": "48.113300",
    "lon": "0.514400"
  },
  {
    "id": "210140",
    "country": "FR",
    "zipcode": "72160",
    "name": "Tuffé",
    "region": "Pays de la Loire",
    "short_region": "52",
    "lat": "48.113100",
    "lon": "0.514200"
  },
  {
    "id": "210141",
    "country": "FR",
    "zipcode": "72160",
    "name": "Connerré",
    "region": "Pays de la Loire",
    "short_region": "52",
    "lat": "48.060000",
    "lon": "0.492400"
  },
  {
    "id": "210142",
    "country": "FR",
    "zipcode": "72160",
    "name": "Sceaux-sur-Huisne",
    "region": "Pays de la Loire",
    "short_region": "52",
    "lat": "48.104900",
    "lon": "0.583600"
  },
  {
    "id": "210143",
    "country": "FR",
    "zipcode": "72160",
    "name": "Duneau",
    "region": "Pays de la Loire",
    "short_region": "52",
    "lat": "48.069200",
    "lon": "0.519400"
  },
  {
    "id": "210144",
    "country": "FR",
    "zipcode": "72160",
    "name": "Thorigné-sur-Dué",
    "region": "Pays de la Loire",
    "short_region": "52",
    "lat": "48.039300",
    "lon": "0.535600"
  },
  {
    "id": "210145",
    "country": "FR",
    "zipcode": "72160",
    "name": "Beillé",
    "region": "Pays de la Loire",
    "short_region": "52",
    "lat": "48.083200",
    "lon": "0.509200"
  },
  {
    "id": "210146",
    "country": "FR",
    "zipcode": "72160",
    "name": "La Chapelle-Saint-Rémy",
    "region": "Pays de la Loire",
    "short_region": "52",
    "lat": "48.107500",
    "lon": "0.456200"
  },
  {
    "id": "210147",
    "country": "FR",
    "zipcode": "72160",
    "name": "Vouvray-sur-Huisne",
    "region": "Pays de la Loire",
    "short_region": "52",
    "lat": "48.087100",
    "lon": "0.550500"
  },
  {
    "id": "210148",
    "country": "FR",
    "zipcode": "72160",
    "name": "Saint-Hilaire-le-Lierru",
    "region": "Pays de la Loire",
    "short_region": "52",
    "lat": "48.108500",
    "lon": "0.538400"
  },
  {
    "id": "210149",
    "country": "FR",
    "zipcode": "72170",
    "name": "Vivoin",
    "region": "Pays de la Loire",
    "short_region": "52",
    "lat": "48.233800",
    "lon": "0.155800"
  },
  {
    "id": "210150",
    "country": "FR",
    "zipcode": "72170",
    "name": "Vernie",
    "region": "Pays de la Loire",
    "short_region": "52",
    "lat": "48.183600",
    "lon": "0.020200"
  },
  {
    "id": "210151",
    "country": "FR",
    "zipcode": "72170",
    "name": "Chérancé",
    "region": "Pays de la Loire",
    "short_region": "52",
    "lat": "48.286900",
    "lon": "0.174100"
  },
  {
    "id": "210152",
    "country": "FR",
    "zipcode": "72170",
    "name": "Ségrie",
    "region": "Pays de la Loire",
    "short_region": "52",
    "lat": "48.200500",
    "lon": "0.025500"
  },
  {
    "id": "210153",
    "country": "FR",
    "zipcode": "72170",
    "name": "Juillé",
    "region": "Pays de la Loire",
    "short_region": "52",
    "lat": "48.245400",
    "lon": "0.122100"
  },
  {
    "id": "210154",
    "country": "FR",
    "zipcode": "72170",
    "name": "Beaumont-sur-Sarthe",
    "region": "Pays de la Loire",
    "short_region": "52",
    "lat": "48.227500",
    "lon": "0.129200"
  },
  {
    "id": "210155",
    "country": "FR",
    "zipcode": "72170",
    "name": "Moitron-sur-Sarthe",
    "region": "Pays de la Loire",
    "short_region": "52",
    "lat": "48.239800",
    "lon": "0.032300"
  },
  {
    "id": "210156",
    "country": "FR",
    "zipcode": "72170",
    "name": "Assé-le-Riboul",
    "region": "Pays de la Loire",
    "short_region": "52",
    "lat": "48.194800",
    "lon": "0.085700"
  },
  {
    "id": "210157",
    "country": "FR",
    "zipcode": "72170",
    "name": "Meurcé",
    "region": "Pays de la Loire",
    "short_region": "52",
    "lat": "48.233800",
    "lon": "0.200300"
  },
  {
    "id": "210158",
    "country": "FR",
    "zipcode": "72170",
    "name": "Piacé",
    "region": "Pays de la Loire",
    "short_region": "52",
    "lat": "48.259200",
    "lon": "0.114100"
  },
  {
    "id": "210159",
    "country": "FR",
    "zipcode": "72170",
    "name": "Doucelles",
    "region": "Pays de la Loire",
    "short_region": "52",
    "lat": "48.256200",
    "lon": "0.169100"
  },
  {
    "id": "210160",
    "country": "FR",
    "zipcode": "72170",
    "name": "Le Tronchet",
    "region": "Pays de la Loire",
    "short_region": "52",
    "lat": "48.181400",
    "lon": "0.074700"
  },
  {
    "id": "210161",
    "country": "FR",
    "zipcode": "72170",
    "name": "Saint-Christophe-du-Jambet",
    "region": "Pays de la Loire",
    "short_region": "52",
    "lat": "48.230800",
    "lon": "0.035600"
  },
  {
    "id": "210162",
    "country": "FR",
    "zipcode": "72170",
    "name": "Maresché",
    "region": "Pays de la Loire",
    "short_region": "52",
    "lat": "48.212100",
    "lon": "0.153300"
  },
  {
    "id": "210163",
    "country": "FR",
    "zipcode": "72170",
    "name": "Saint-Marceau",
    "region": "Pays de la Loire",
    "short_region": "52",
    "lat": "48.179800",
    "lon": "0.128100"
  },
  {
    "id": "210164",
    "country": "FR",
    "zipcode": "72190",
    "name": "Coulaines",
    "region": "Pays de la Loire",
    "short_region": "52",
    "lat": "48.024100",
    "lon": "0.204100"
  },
  {
    "id": "210165",
    "country": "FR",
    "zipcode": "72190",
    "name": "Sargé-lès-le-Mans",
    "region": "Pays de la Loire",
    "short_region": "52",
    "lat": "48.034700",
    "lon": "0.239800"
  },
  {
    "id": "210166",
    "country": "FR",
    "zipcode": "72190",
    "name": "Saint-Pavace",
    "region": "Pays de la Loire",
    "short_region": "52",
    "lat": "48.038400",
    "lon": "0.188900"
  },
  {
    "id": "210167",
    "country": "FR",
    "zipcode": "72190",
    "name": "Neuville-sur-Sarthe",
    "region": "Pays de la Loire",
    "short_region": "52",
    "lat": "48.076000",
    "lon": "0.193400"
  },
  {
    "id": "210168",
    "country": "FR",
    "zipcode": "72200",
    "name": "Crosmières",
    "region": "Pays de la Loire",
    "short_region": "52",
    "lat": "47.745600",
    "lon": "-0.151600"
  },
  {
    "id": "210169",
    "country": "FR",
    "zipcode": "72200",
    "name": "Bazouges-sur-le-Loir",
    "region": "Pays de la Loire",
    "short_region": "52",
    "lat": "47.689300",
    "lon": "-0.168800"
  },
  {
    "id": "210170",
    "country": "FR",
    "zipcode": "72200",
    "name": "Cré-sur-Loir",
    "region": "Pays de la Loire",
    "short_region": "52",
    "lat": "47.677200",
    "lon": "-0.158400"
  },
  {
    "id": "210171",
    "country": "FR",
    "zipcode": "72200",
    "name": "Clermont-Créans",
    "region": "Pays de la Loire",
    "short_region": "52",
    "lat": "47.718300",
    "lon": "-0.014600"
  },
  {
    "id": "210172",
    "country": "FR",
    "zipcode": "72200",
    "name": "Mareil-sur-Loir",
    "region": "Pays de la Loire",
    "short_region": "52",
    "lat": "47.714400",
    "lon": "0.010700"
  },
  {
    "id": "210173",
    "country": "FR",
    "zipcode": "72200",
    "name": "La Flèche",
    "region": "Pays de la Loire",
    "short_region": "52",
    "lat": "47.698200",
    "lon": "-0.075500"
  },
  {
    "id": "210174",
    "country": "FR",
    "zipcode": "72200",
    "name": "Le Bailleul",
    "region": "Pays de la Loire",
    "short_region": "52",
    "lat": "47.766700",
    "lon": "-0.158300"
  },
  {
    "id": "210175",
    "country": "FR",
    "zipcode": "72200",
    "name": "Bazouges Cré sur Loir",
    "region": "Pays de la Loire",
    "short_region": "52",
    "lat": "47.689500",
    "lon": "-0.168400"
  },
  {
    "id": "210176",
    "country": "FR",
    "zipcode": "72201",
    "name": "La Flèche",
    "region": "Pays de la Loire",
    "short_region": "52",
    "lat": "47.698200",
    "lon": "-0.075500"
  },
  {
    "id": "210177",
    "country": "FR",
    "zipcode": "72202",
    "name": "La Flèche",
    "region": "Pays de la Loire",
    "short_region": "52",
    "lat": "47.698200",
    "lon": "-0.075500"
  },
  {
    "id": "210178",
    "country": "FR",
    "zipcode": "72203",
    "name": "La Flèche",
    "region": "Pays de la Loire",
    "short_region": "52",
    "lat": "47.698200",
    "lon": "-0.075500"
  },
  {
    "id": "210179",
    "country": "FR",
    "zipcode": "72205",
    "name": "La Flèche",
    "region": "Pays de la Loire",
    "short_region": "52",
    "lat": "47.698200",
    "lon": "-0.075500"
  },
  {
    "id": "210180",
    "country": "FR",
    "zipcode": "72206",
    "name": "La Flèche",
    "region": "Pays de la Loire",
    "short_region": "52",
    "lat": "47.698200",
    "lon": "-0.075500"
  },
  {
    "id": "210181",
    "country": "FR",
    "zipcode": "72208",
    "name": "La Flèche",
    "region": "Pays de la Loire",
    "short_region": "52",
    "lat": "47.698200",
    "lon": "-0.075500"
  },
  {
    "id": "210182",
    "country": "FR",
    "zipcode": "72210",
    "name": "Louplande",
    "region": "Pays de la Loire",
    "short_region": "52",
    "lat": "47.950000",
    "lon": "-0.050000"
  },
  {
    "id": "210183",
    "country": "FR",
    "zipcode": "72210",
    "name": "Maigné",
    "region": "Pays de la Loire",
    "short_region": "52",
    "lat": "47.937500",
    "lon": "-0.053100"
  },
  {
    "id": "210184",
    "country": "FR",
    "zipcode": "72210",
    "name": "La Suze-sur-Sarthe",
    "region": "Pays de la Loire",
    "short_region": "52",
    "lat": "47.890000",
    "lon": "0.025200"
  },
  {
    "id": "210185",
    "country": "FR",
    "zipcode": "72210",
    "name": "Voivres-lès-le-Mans",
    "region": "Pays de la Loire",
    "short_region": "52",
    "lat": "47.929900",
    "lon": "0.072900"
  },
  {
    "id": "210186",
    "country": "FR",
    "zipcode": "72210",
    "name": "Fillé",
    "region": "Pays de la Loire",
    "short_region": "52",
    "lat": "47.898600",
    "lon": "0.125000"
  },
  {
    "id": "210187",
    "country": "FR",
    "zipcode": "72210",
    "name": "Chemiré-le-Gaudin",
    "region": "Pays de la Loire",
    "short_region": "52",
    "lat": "47.928800",
    "lon": "-0.016600"
  },
  {
    "id": "210188",
    "country": "FR",
    "zipcode": "72210",
    "name": "Roézé-sur-Sarthe",
    "region": "Pays de la Loire",
    "short_region": "52",
    "lat": "47.895800",
    "lon": "0.066600"
  },
  {
    "id": "210189",
    "country": "FR",
    "zipcode": "72210",
    "name": "Souligné-Flacé",
    "region": "Pays de la Loire",
    "short_region": "52",
    "lat": "47.973900",
    "lon": "0.013400"
  },
  {
    "id": "210190",
    "country": "FR",
    "zipcode": "72220",
    "name": "Laigné-en-Belin",
    "region": "Pays de la Loire",
    "short_region": "52",
    "lat": "47.878100",
    "lon": "0.227900"
  },
  {
    "id": "210191",
    "country": "FR",
    "zipcode": "72220",
    "name": "Saint-Mars-d'Outillé",
    "region": "Pays de la Loire",
    "short_region": "52",
    "lat": "47.871500",
    "lon": "0.332200"
  },
  {
    "id": "210192",
    "country": "FR",
    "zipcode": "72220",
    "name": "Écommoy",
    "region": "Pays de la Loire",
    "short_region": "52",
    "lat": "47.827700",
    "lon": "0.273300"
  },
  {
    "id": "210193",
    "country": "FR",
    "zipcode": "72220",
    "name": "Saint-Ouen-en-Belin",
    "region": "Pays de la Loire",
    "short_region": "52",
    "lat": "47.833100",
    "lon": "0.210300"
  },
  {
    "id": "210194",
    "country": "FR",
    "zipcode": "72220",
    "name": "Teloché",
    "region": "Pays de la Loire",
    "short_region": "52",
    "lat": "47.888000",
    "lon": "0.271100"
  },
  {
    "id": "210195",
    "country": "FR",
    "zipcode": "72220",
    "name": "Saint-Gervais-en-Belin",
    "region": "Pays de la Loire",
    "short_region": "52",
    "lat": "47.877600",
    "lon": "0.217700"
  },
  {
    "id": "210196",
    "country": "FR",
    "zipcode": "72220",
    "name": "Marigné-Laillé",
    "region": "Pays de la Loire",
    "short_region": "52",
    "lat": "47.819100",
    "lon": "0.340200"
  },
  {
    "id": "210197",
    "country": "FR",
    "zipcode": "72220",
    "name": "Saint-Biez-en-Belin",
    "region": "Pays de la Loire",
    "short_region": "52",
    "lat": "47.822000",
    "lon": "0.238700"
  },
  {
    "id": "210198",
    "country": "FR",
    "zipcode": "72230",
    "name": "Moncé-en-Belin",
    "region": "Pays de la Loire",
    "short_region": "52",
    "lat": "47.895200",
    "lon": "0.199300"
  },
  {
    "id": "210199",
    "country": "FR",
    "zipcode": "72230",
    "name": "Ruaudin",
    "region": "Pays de la Loire",
    "short_region": "52",
    "lat": "47.945000",
    "lon": "0.266300"
  },
  {
    "id": "210200",
    "country": "FR",
    "zipcode": "72230",
    "name": "Arnage",
    "region": "Pays de la Loire",
    "short_region": "52",
    "lat": "47.926200",
    "lon": "0.187300"
  },
  {
    "id": "210201",
    "country": "FR",
    "zipcode": "72230",
    "name": "Guécélard",
    "region": "Pays de la Loire",
    "short_region": "52",
    "lat": "47.876300",
    "lon": "0.129300"
  },
  {
    "id": "210202",
    "country": "FR",
    "zipcode": "72230",
    "name": "Mulsanne",
    "region": "Pays de la Loire",
    "short_region": "52",
    "lat": "47.911500",
    "lon": "0.248300"
  },
  {
    "id": "210203",
    "country": "FR",
    "zipcode": "72231",
    "name": "Arnage",
    "region": "Pays de la Loire",
    "short_region": "52",
    "lat": "47.926200",
    "lon": "0.187300"
  },
  {
    "id": "210204",
    "country": "FR",
    "zipcode": "72232",
    "name": "Arnage",
    "region": "Pays de la Loire",
    "short_region": "52",
    "lat": "47.926200",
    "lon": "0.187300"
  },
  {
    "id": "210205",
    "country": "FR",
    "zipcode": "72233",
    "name": "Arnage",
    "region": "Pays de la Loire",
    "short_region": "52",
    "lat": "47.926200",
    "lon": "0.187300"
  },
  {
    "id": "210206",
    "country": "FR",
    "zipcode": "72234",
    "name": "Arnage",
    "region": "Pays de la Loire",
    "short_region": "52",
    "lat": "47.926200",
    "lon": "0.187300"
  },
  {
    "id": "210207",
    "country": "FR",
    "zipcode": "72236",
    "name": "Arnage",
    "region": "Pays de la Loire",
    "short_region": "52",
    "lat": "47.926200",
    "lon": "0.187300"
  },
  {
    "id": "210208",
    "country": "FR",
    "zipcode": "72237",
    "name": "Arnage",
    "region": "Pays de la Loire",
    "short_region": "52",
    "lat": "47.926200",
    "lon": "0.187300"
  },
  {
    "id": "210209",
    "country": "FR",
    "zipcode": "72239",
    "name": "Arnage",
    "region": "Pays de la Loire",
    "short_region": "52",
    "lat": "47.926200",
    "lon": "0.187300"
  },
  {
    "id": "210210",
    "country": "FR",
    "zipcode": "72240",
    "name": "Domfront-en-Champagne",
    "region": "Pays de la Loire",
    "short_region": "52",
    "lat": "48.105200",
    "lon": "0.027100"
  },
  {
    "id": "210211",
    "country": "FR",
    "zipcode": "72240",
    "name": "Bernay-en-Champagne",
    "region": "Pays de la Loire",
    "short_region": "52",
    "lat": "48.066700",
    "lon": "-0.066700"
  },
  {
    "id": "210212",
    "country": "FR",
    "zipcode": "72240",
    "name": "Tennie",
    "region": "Pays de la Loire",
    "short_region": "52",
    "lat": "48.107600",
    "lon": "-0.076700"
  },
  {
    "id": "210213",
    "country": "FR",
    "zipcode": "72240",
    "name": "Conlie",
    "region": "Pays de la Loire",
    "short_region": "52",
    "lat": "48.122600",
    "lon": "-0.016700"
  },
  {
    "id": "210214",
    "country": "FR",
    "zipcode": "72240",
    "name": "Mézières-sous-Lavardin",
    "region": "Pays de la Loire",
    "short_region": "52",
    "lat": "48.154600",
    "lon": "0.029400"
  },
  {
    "id": "210215",
    "country": "FR",
    "zipcode": "72240",
    "name": "Lavardin",
    "region": "Pays de la Loire",
    "short_region": "52",
    "lat": "48.077300",
    "lon": "0.061500"
  },
  {
    "id": "210216",
    "country": "FR",
    "zipcode": "72240",
    "name": "Ruillé-en-Champagne",
    "region": "Pays de la Loire",
    "short_region": "52",
    "lat": "48.060300",
    "lon": "-0.083000"
  },
  {
    "id": "210217",
    "country": "FR",
    "zipcode": "72240",
    "name": "Cures",
    "region": "Pays de la Loire",
    "short_region": "52",
    "lat": "48.100500",
    "lon": "-0.004700"
  },
  {
    "id": "210218",
    "country": "FR",
    "zipcode": "72240",
    "name": "Saint-Symphorien",
    "region": "Pays de la Loire",
    "short_region": "52",
    "lat": "48.072100",
    "lon": "-0.114300"
  },
  {
    "id": "210219",
    "country": "FR",
    "zipcode": "72240",
    "name": "Neuvy-en-Champagne",
    "region": "Pays de la Loire",
    "short_region": "52",
    "lat": "48.080800",
    "lon": "-0.039400"
  },
  {
    "id": "210220",
    "country": "FR",
    "zipcode": "72240",
    "name": "La Chapelle-Saint-Fray",
    "region": "Pays de la Loire",
    "short_region": "52",
    "lat": "48.110900",
    "lon": "0.081000"
  },
  {
    "id": "210221",
    "country": "FR",
    "zipcode": "72240",
    "name": "Neuvillalais",
    "region": "Pays de la Loire",
    "short_region": "52",
    "lat": "48.156200",
    "lon": "-0.001400"
  },
  {
    "id": "210222",
    "country": "FR",
    "zipcode": "72250",
    "name": "Parigné-l'Évêque",
    "region": "Pays de la Loire",
    "short_region": "52",
    "lat": "47.936800",
    "lon": "0.364600"
  },
  {
    "id": "210223",
    "country": "FR",
    "zipcode": "72250",
    "name": "Brette-les-Pins",
    "region": "Pays de la Loire",
    "short_region": "52",
    "lat": "47.911600",
    "lon": "0.336400"
  },
  {
    "id": "210224",
    "country": "FR",
    "zipcode": "72250",
    "name": "Challes",
    "region": "Pays de la Loire",
    "short_region": "52",
    "lat": "47.930700",
    "lon": "0.413900"
  },
  {
    "id": "210225",
    "country": "FR",
    "zipcode": "72260",
    "name": "Thoigné",
    "region": "Pays de la Loire",
    "short_region": "52",
    "lat": "48.289200",
    "lon": "0.253100"
  },
  {
    "id": "210226",
    "country": "FR",
    "zipcode": "72260",
    "name": "Les Mées",
    "region": "Pays de la Loire",
    "short_region": "52",
    "lat": "48.314700",
    "lon": "0.231700"
  },
  {
    "id": "210227",
    "country": "FR",
    "zipcode": "72260",
    "name": "Nouans",
    "region": "Pays de la Loire",
    "short_region": "52",
    "lat": "48.239300",
    "lon": "0.221700"
  },
  {
    "id": "210228",
    "country": "FR",
    "zipcode": "72260",
    "name": "Dissé-sous-Ballon",
    "region": "Pays de la Loire",
    "short_region": "52",
    "lat": "48.237800",
    "lon": "0.297500"
  },
  {
    "id": "210229",
    "country": "FR",
    "zipcode": "72260",
    "name": "Peray",
    "region": "Pays de la Loire",
    "short_region": "52",
    "lat": "48.248400",
    "lon": "0.364200"
  },
  {
    "id": "210230",
    "country": "FR",
    "zipcode": "72260",
    "name": "Nauvay",
    "region": "Pays de la Loire",
    "short_region": "52",
    "lat": "48.252500",
    "lon": "0.394100"
  },
  {
    "id": "210231",
    "country": "FR",
    "zipcode": "72260",
    "name": "Avesnes-en-Saosnois",
    "region": "Pays de la Loire",
    "short_region": "52",
    "lat": "48.263400",
    "lon": "0.371000"
  },
  {
    "id": "210232",
    "country": "FR",
    "zipcode": "72260",
    "name": "Dangeul",
    "region": "Pays de la Loire",
    "short_region": "52",
    "lat": "48.247900",
    "lon": "0.257300"
  },
  {
    "id": "210233",
    "country": "FR",
    "zipcode": "72260",
    "name": "Monhoudou",
    "region": "Pays de la Loire",
    "short_region": "52",
    "lat": "48.286400",
    "lon": "0.325000"
  },
  {
    "id": "210234",
    "country": "FR",
    "zipcode": "72260",
    "name": "Moncé-en-Saosnois",
    "region": "Pays de la Loire",
    "short_region": "52",
    "lat": "48.274200",
    "lon": "0.388800"
  },
  {
    "id": "210235",
    "country": "FR",
    "zipcode": "72260",
    "name": "René",
    "region": "Pays de la Loire",
    "short_region": "52",
    "lat": "48.278900",
    "lon": "0.221000"
  },
  {
    "id": "210236",
    "country": "FR",
    "zipcode": "72260",
    "name": "Marolles-les-Braults",
    "region": "Pays de la Loire",
    "short_region": "52",
    "lat": "48.252400",
    "lon": "0.314300"
  },
  {
    "id": "210237",
    "country": "FR",
    "zipcode": "72260",
    "name": "Courgains",
    "region": "Pays de la Loire",
    "short_region": "52",
    "lat": "48.290300",
    "lon": "0.276800"
  },
  {
    "id": "210238",
    "country": "FR",
    "zipcode": "72270",
    "name": "Arthezé",
    "region": "Pays de la Loire",
    "short_region": "52",
    "lat": "47.787900",
    "lon": "-0.120200"
  },
  {
    "id": "210239",
    "country": "FR",
    "zipcode": "72270",
    "name": "Dureil",
    "region": "Pays de la Loire",
    "short_region": "52",
    "lat": "47.843000",
    "lon": "-0.145700"
  },
  {
    "id": "210240",
    "country": "FR",
    "zipcode": "72270",
    "name": "Bousse",
    "region": "Pays de la Loire",
    "short_region": "52",
    "lat": "47.769600",
    "lon": "-0.058600"
  },
  {
    "id": "210241",
    "country": "FR",
    "zipcode": "72270",
    "name": "Villaines-sous-Malicorne",
    "region": "Pays de la Loire",
    "short_region": "52",
    "lat": "47.763800",
    "lon": "-0.099300"
  },
  {
    "id": "210242",
    "country": "FR",
    "zipcode": "72270",
    "name": "Ligron",
    "region": "Pays de la Loire",
    "short_region": "52",
    "lat": "47.771100",
    "lon": "0.009100"
  },
  {
    "id": "210243",
    "country": "FR",
    "zipcode": "72270",
    "name": "Mézeray",
    "region": "Pays de la Loire",
    "short_region": "52",
    "lat": "47.825800",
    "lon": "-0.018300"
  },
  {
    "id": "210244",
    "country": "FR",
    "zipcode": "72270",
    "name": "Courcelles-la-Forêt",
    "region": "Pays de la Loire",
    "short_region": "52",
    "lat": "47.784600",
    "lon": "-0.017600"
  },
  {
    "id": "210245",
    "country": "FR",
    "zipcode": "72270",
    "name": "Malicorne-sur-Sarthe",
    "region": "Pays de la Loire",
    "short_region": "52",
    "lat": "47.813700",
    "lon": "-0.084300"
  },
  {
    "id": "210246",
    "country": "FR",
    "zipcode": "72290",
    "name": "Saint-Mars-sous-Ballon",
    "region": "Pays de la Loire",
    "short_region": "52",
    "lat": "48.172700",
    "lon": "0.246000"
  },
  {
    "id": "210247",
    "country": "FR",
    "zipcode": "72290",
    "name": "Ballon",
    "region": "Pays de la Loire",
    "short_region": "52",
    "lat": "48.175500",
    "lon": "0.234900"
  },
  {
    "id": "210248",
    "country": "FR",
    "zipcode": "72290",
    "name": "Teillé",
    "region": "Pays de la Loire",
    "short_region": "52",
    "lat": "48.181200",
    "lon": "0.187600"
  },
  {
    "id": "210249",
    "country": "FR",
    "zipcode": "72290",
    "name": "Congé-sur-Orne",
    "region": "Pays de la Loire",
    "short_region": "52",
    "lat": "48.200400",
    "lon": "0.254300"
  },
  {
    "id": "210250",
    "country": "FR",
    "zipcode": "72290",
    "name": "Lucé-sous-Ballon",
    "region": "Pays de la Loire",
    "short_region": "52",
    "lat": "48.207900",
    "lon": "0.214500"
  },
  {
    "id": "210251",
    "country": "FR",
    "zipcode": "72290",
    "name": "Mézières-sur-Ponthouin",
    "region": "Pays de la Loire",
    "short_region": "52",
    "lat": "48.193600",
    "lon": "0.298500"
  },
  {
    "id": "210252",
    "country": "FR",
    "zipcode": "72290",
    "name": "Souligné-sous-Ballon",
    "region": "Pays de la Loire",
    "short_region": "52",
    "lat": "48.139900",
    "lon": "0.236100"
  },
  {
    "id": "210253",
    "country": "FR",
    "zipcode": "72290",
    "name": "Ballon-Saint Mars",
    "region": "Pays de la Loire",
    "short_region": "52",
    "lat": "48.175800",
    "lon": "0.235300"
  },
  {
    "id": "210254",
    "country": "FR",
    "zipcode": "72290",
    "name": "Courcebœufs",
    "region": "Pays de la Loire",
    "short_region": "52",
    "lat": "48.137400",
    "lon": "0.286500"
  },
  {
    "id": "210255",
    "country": "FR",
    "zipcode": "72300",
    "name": "Notre-Dame-du-Pé",
    "region": "Pays de la Loire",
    "short_region": "52",
    "lat": "47.730200",
    "lon": "-0.325300"
  },
  {
    "id": "210256",
    "country": "FR",
    "zipcode": "72300",
    "name": "Courtillers",
    "region": "Pays de la Loire",
    "short_region": "52",
    "lat": "47.802900",
    "lon": "-0.303900"
  },
  {
    "id": "210257",
    "country": "FR",
    "zipcode": "72300",
    "name": "Sablé-sur-Sarthe",
    "region": "Pays de la Loire",
    "short_region": "52",
    "lat": "47.837600",
    "lon": "-0.332900"
  },
  {
    "id": "210258",
    "country": "FR",
    "zipcode": "72300",
    "name": "La Chapelle-d'Aligné",
    "region": "Pays de la Loire",
    "short_region": "52",
    "lat": "47.732800",
    "lon": "-0.237000"
  },
  {
    "id": "210259",
    "country": "FR",
    "zipcode": "72300",
    "name": "Louailles",
    "region": "Pays de la Loire",
    "short_region": "52",
    "lat": "47.792300",
    "lon": "-0.251900"
  },
  {
    "id": "210260",
    "country": "FR",
    "zipcode": "72300",
    "name": "Parcé-sur-Sarthe",
    "region": "Pays de la Loire",
    "short_region": "52",
    "lat": "47.843700",
    "lon": "-0.201400"
  },
  {
    "id": "210261",
    "country": "FR",
    "zipcode": "72300",
    "name": "Pincé",
    "region": "Pays de la Loire",
    "short_region": "52",
    "lat": "47.797700",
    "lon": "-0.381100"
  },
  {
    "id": "210262",
    "country": "FR",
    "zipcode": "72300",
    "name": "Précigné",
    "region": "Pays de la Loire",
    "short_region": "52",
    "lat": "47.766400",
    "lon": "-0.324700"
  },
  {
    "id": "210263",
    "country": "FR",
    "zipcode": "72300",
    "name": "Vion",
    "region": "Pays de la Loire",
    "short_region": "52",
    "lat": "47.819100",
    "lon": "-0.239200"
  },
  {
    "id": "210264",
    "country": "FR",
    "zipcode": "72300",
    "name": "Solesmes",
    "region": "Pays de la Loire",
    "short_region": "52",
    "lat": "47.851300",
    "lon": "-0.301600"
  },
  {
    "id": "210265",
    "country": "FR",
    "zipcode": "72300",
    "name": "Juigné-sur-Sarthe",
    "region": "Pays de la Loire",
    "short_region": "52",
    "lat": "47.863900",
    "lon": "-0.286700"
  },
  {
    "id": "210266",
    "country": "FR",
    "zipcode": "72300",
    "name": "Souvigné-sur-Sarthe",
    "region": "Pays de la Loire",
    "short_region": "52",
    "lat": "47.826700",
    "lon": "-0.388900"
  },
  {
    "id": "210267",
    "country": "FR",
    "zipcode": "72300",
    "name": "Auvers-le-Hamon",
    "region": "Pays de la Loire",
    "short_region": "52",
    "lat": "47.901800",
    "lon": "-0.351900"
  },
  {
    "id": "210268",
    "country": "FR",
    "zipcode": "72301",
    "name": "Sablé-sur-Sarthe",
    "region": "Pays de la Loire",
    "short_region": "52",
    "lat": "47.837600",
    "lon": "-0.332900"
  },
  {
    "id": "210269",
    "country": "FR",
    "zipcode": "72302",
    "name": "Sablé-sur-Sarthe",
    "region": "Pays de la Loire",
    "short_region": "52",
    "lat": "47.837600",
    "lon": "-0.332900"
  },
  {
    "id": "210270",
    "country": "FR",
    "zipcode": "72303",
    "name": "Sablé-sur-Sarthe",
    "region": "Pays de la Loire",
    "short_region": "52",
    "lat": "47.837600",
    "lon": "-0.332900"
  },
  {
    "id": "210271",
    "country": "FR",
    "zipcode": "72304",
    "name": "Sablé-sur-Sarthe",
    "region": "Pays de la Loire",
    "short_region": "52",
    "lat": "47.837600",
    "lon": "-0.332900"
  },
  {
    "id": "210272",
    "country": "FR",
    "zipcode": "72305",
    "name": "Sablé-sur-Sarthe",
    "region": "Pays de la Loire",
    "short_region": "52",
    "lat": "47.837600",
    "lon": "-0.332900"
  },
  {
    "id": "210273",
    "country": "FR",
    "zipcode": "72308",
    "name": "Sablé-sur-Sarthe",
    "region": "Pays de la Loire",
    "short_region": "52",
    "lat": "47.837600",
    "lon": "-0.332900"
  },
  {
    "id": "210274",
    "country": "FR",
    "zipcode": "72309",
    "name": "Sablé-sur-Sarthe",
    "region": "Pays de la Loire",
    "short_region": "52",
    "lat": "47.837600",
    "lon": "-0.332900"
  },
  {
    "id": "210275",
    "country": "FR",
    "zipcode": "72310",
    "name": "La Chapelle-Gaugain",
    "region": "Pays de la Loire",
    "short_region": "52",
    "lat": "47.800000",
    "lon": "0.683300"
  },
  {
    "id": "210276",
    "country": "FR",
    "zipcode": "72310",
    "name": "La Chapelle-Huon",
    "region": "Pays de la Loire",
    "short_region": "52",
    "lat": "47.856900",
    "lon": "0.743800"
  },
  {
    "id": "210277",
    "country": "FR",
    "zipcode": "72310",
    "name": "Vancé",
    "region": "Pays de la Loire",
    "short_region": "52",
    "lat": "47.832200",
    "lon": "0.646700"
  },
  {
    "id": "210278",
    "country": "FR",
    "zipcode": "72310",
    "name": "Bessé-sur-Braye",
    "region": "Pays de la Loire",
    "short_region": "52",
    "lat": "47.833600",
    "lon": "0.749600"
  },
  {
    "id": "210279",
    "country": "FR",
    "zipcode": "72310",
    "name": "Cogners",
    "region": "Pays de la Loire",
    "short_region": "52",
    "lat": "47.868400",
    "lon": "0.658500"
  },
  {
    "id": "210280",
    "country": "FR",
    "zipcode": "72310",
    "name": "Lavenay",
    "region": "Pays de la Loire",
    "short_region": "52",
    "lat": "47.790100",
    "lon": "0.702300"
  },
  {
    "id": "210281",
    "country": "FR",
    "zipcode": "72320",
    "name": "Melleray",
    "region": "Pays de la Loire",
    "short_region": "52",
    "lat": "48.099000",
    "lon": "0.800300"
  },
  {
    "id": "210282",
    "country": "FR",
    "zipcode": "72320",
    "name": "Saint-Maixent",
    "region": "Pays de la Loire",
    "short_region": "52",
    "lat": "48.089700",
    "lon": "0.651400"
  },
  {
    "id": "210283",
    "country": "FR",
    "zipcode": "72320",
    "name": "Théligny",
    "region": "Pays de la Loire",
    "short_region": "52",
    "lat": "48.174600",
    "lon": "0.800000"
  },
  {
    "id": "210284",
    "country": "FR",
    "zipcode": "72320",
    "name": "Vibraye",
    "region": "Pays de la Loire",
    "short_region": "52",
    "lat": "48.059600",
    "lon": "0.735300"
  },
  {
    "id": "210285",
    "country": "FR",
    "zipcode": "72320",
    "name": "Berfay",
    "region": "Pays de la Loire",
    "short_region": "52",
    "lat": "47.994500",
    "lon": "0.764300"
  },
  {
    "id": "210286",
    "country": "FR",
    "zipcode": "72320",
    "name": "Lamnay",
    "region": "Pays de la Loire",
    "short_region": "52",
    "lat": "48.116800",
    "lon": "0.704300"
  },
  {
    "id": "210287",
    "country": "FR",
    "zipcode": "72320",
    "name": "Courgenard",
    "region": "Pays de la Loire",
    "short_region": "52",
    "lat": "48.151400",
    "lon": "0.736400"
  },
  {
    "id": "210288",
    "country": "FR",
    "zipcode": "72320",
    "name": "Montmirail",
    "region": "Pays de la Loire",
    "short_region": "52",
    "lat": "48.103200",
    "lon": "0.791200"
  },
  {
    "id": "210289",
    "country": "FR",
    "zipcode": "72320",
    "name": "Champrond",
    "region": "Pays de la Loire",
    "short_region": "52",
    "lat": "48.078000",
    "lon": "0.746000"
  },
  {
    "id": "210290",
    "country": "FR",
    "zipcode": "72320",
    "name": "Gréez-sur-Roc",
    "region": "Pays de la Loire",
    "short_region": "52",
    "lat": "48.137700",
    "lon": "0.794700"
  },
  {
    "id": "210291",
    "country": "FR",
    "zipcode": "72320",
    "name": "Saint-Ulphace",
    "region": "Pays de la Loire",
    "short_region": "52",
    "lat": "48.158500",
    "lon": "0.816400"
  },
  {
    "id": "210292",
    "country": "FR",
    "zipcode": "72320",
    "name": "Saint-Jean-des-Échelles",
    "region": "Pays de la Loire",
    "short_region": "52",
    "lat": "48.130000",
    "lon": "0.713200"
  },
  {
    "id": "210293",
    "country": "FR",
    "zipcode": "72320",
    "name": "Valennes",
    "region": "Pays de la Loire",
    "short_region": "52",
    "lat": "47.996500",
    "lon": "0.809300"
  },
  {
    "id": "210294",
    "country": "FR",
    "zipcode": "72330",
    "name": "Oizé",
    "region": "Pays de la Loire",
    "short_region": "52",
    "lat": "47.810400",
    "lon": "0.103500"
  },
  {
    "id": "210295",
    "country": "FR",
    "zipcode": "72330",
    "name": "Yvré-le-Pôlin",
    "region": "Pays de la Loire",
    "short_region": "52",
    "lat": "47.819500",
    "lon": "0.152500"
  },
  {
    "id": "210296",
    "country": "FR",
    "zipcode": "72330",
    "name": "La Fontaine-Saint-Martin",
    "region": "Pays de la Loire",
    "short_region": "52",
    "lat": "47.790900",
    "lon": "0.049200"
  },
  {
    "id": "210297",
    "country": "FR",
    "zipcode": "72330",
    "name": "Parigné-le-Pôlin",
    "region": "Pays de la Loire",
    "short_region": "52",
    "lat": "47.850400",
    "lon": "0.107800"
  },
  {
    "id": "210298",
    "country": "FR",
    "zipcode": "72330",
    "name": "Cérans-Foulletourte",
    "region": "Pays de la Loire",
    "short_region": "52",
    "lat": "47.827400",
    "lon": "0.075500"
  },
  {
    "id": "210299",
    "country": "FR",
    "zipcode": "72340",
    "name": "Marçon",
    "region": "Pays de la Loire",
    "short_region": "52",
    "lat": "47.710000",
    "lon": "0.510400"
  },
  {
    "id": "210300",
    "country": "FR",
    "zipcode": "72340",
    "name": "Lhomme",
    "region": "Pays de la Loire",
    "short_region": "52",
    "lat": "47.744300",
    "lon": "0.559200"
  },
  {
    "id": "210301",
    "country": "FR",
    "zipcode": "72340",
    "name": "Poncé-sur-le-Loir",
    "region": "Pays de la Loire",
    "short_region": "52",
    "lat": "47.762100",
    "lon": "0.656000"
  },
  {
    "id": "210302",
    "country": "FR",
    "zipcode": "72340",
    "name": "Ruillé-sur-Loir",
    "region": "Pays de la Loire",
    "short_region": "52",
    "lat": "47.751000",
    "lon": "0.620500"
  },
  {
    "id": "210303",
    "country": "FR",
    "zipcode": "72340",
    "name": "Chahaignes",
    "region": "Pays de la Loire",
    "short_region": "52",
    "lat": "47.741800",
    "lon": "0.514300"
  },
  {
    "id": "210304",
    "country": "FR",
    "zipcode": "72340",
    "name": "La Chartre-sur-le-Loir",
    "region": "Pays de la Loire",
    "short_region": "52",
    "lat": "47.729400",
    "lon": "0.573800"
  },
  {
    "id": "210305",
    "country": "FR",
    "zipcode": "72340",
    "name": "Beaumont-sur-Dême",
    "region": "Pays de la Loire",
    "short_region": "52",
    "lat": "47.694200",
    "lon": "0.569100"
  },
  {
    "id": "210306",
    "country": "FR",
    "zipcode": "72350",
    "name": "Viré-en-Champagne",
    "region": "Pays de la Loire",
    "short_region": "52",
    "lat": "47.983900",
    "lon": "-0.289000"
  },
  {
    "id": "210307",
    "country": "FR",
    "zipcode": "72350",
    "name": "Fontenay-sur-Vègre",
    "region": "Pays de la Loire",
    "short_region": "52",
    "lat": "47.904000",
    "lon": "-0.221000"
  },
  {
    "id": "210308",
    "country": "FR",
    "zipcode": "72350",
    "name": "Poillé-sur-Vègre",
    "region": "Pays de la Loire",
    "short_region": "52",
    "lat": "47.919400",
    "lon": "-0.265500"
  },
  {
    "id": "210309",
    "country": "FR",
    "zipcode": "72350",
    "name": "Brûlon",
    "region": "Pays de la Loire",
    "short_region": "52",
    "lat": "47.968600",
    "lon": "-0.234800"
  },
  {
    "id": "210310",
    "country": "FR",
    "zipcode": "72350",
    "name": "Saint-Ouen-en-Champagne",
    "region": "Pays de la Loire",
    "short_region": "52",
    "lat": "47.949800",
    "lon": "-0.189000"
  },
  {
    "id": "210311",
    "country": "FR",
    "zipcode": "72350",
    "name": "Avessé",
    "region": "Pays de la Loire",
    "short_region": "52",
    "lat": "47.954500",
    "lon": "-0.250000"
  },
  {
    "id": "210312",
    "country": "FR",
    "zipcode": "72350",
    "name": "Chevillé",
    "region": "Pays de la Loire",
    "short_region": "52",
    "lat": "47.948900",
    "lon": "-0.223200"
  },
  {
    "id": "210313",
    "country": "FR",
    "zipcode": "72350",
    "name": "Saint-Denis-d'Orques",
    "region": "Pays de la Loire",
    "short_region": "52",
    "lat": "48.029600",
    "lon": "-0.272500"
  },
  {
    "id": "210314",
    "country": "FR",
    "zipcode": "72360",
    "name": "Verneil-le-Chétif",
    "region": "Pays de la Loire",
    "short_region": "52",
    "lat": "47.733200",
    "lon": "0.294600"
  },
  {
    "id": "210315",
    "country": "FR",
    "zipcode": "72360",
    "name": "Sarcé",
    "region": "Pays de la Loire",
    "short_region": "52",
    "lat": "47.720400",
    "lon": "0.220300"
  },
  {
    "id": "210316",
    "country": "FR",
    "zipcode": "72360",
    "name": "Mayet",
    "region": "Pays de la Loire",
    "short_region": "52",
    "lat": "47.759400",
    "lon": "0.274700"
  },
  {
    "id": "210317",
    "country": "FR",
    "zipcode": "72370",
    "name": "Soulitré",
    "region": "Pays de la Loire",
    "short_region": "52",
    "lat": "48.011500",
    "lon": "0.456300"
  },
  {
    "id": "210318",
    "country": "FR",
    "zipcode": "72370",
    "name": "Nuillé-le-Jalais",
    "region": "Pays de la Loire",
    "short_region": "52",
    "lat": "48.019800",
    "lon": "0.481600"
  },
  {
    "id": "210319",
    "country": "FR",
    "zipcode": "72370",
    "name": "Surfonds",
    "region": "Pays de la Loire",
    "short_region": "52",
    "lat": "47.974700",
    "lon": "0.461300"
  },
  {
    "id": "210320",
    "country": "FR",
    "zipcode": "72370",
    "name": "Ardenay-sur-Mérize",
    "region": "Pays de la Loire",
    "short_region": "52",
    "lat": "47.995900",
    "lon": "0.424500"
  },
  {
    "id": "210321",
    "country": "FR",
    "zipcode": "72370",
    "name": "Le Breil-sur-Mérize",
    "region": "Pays de la Loire",
    "short_region": "52",
    "lat": "48.007800",
    "lon": "0.476700"
  },
  {
    "id": "210322",
    "country": "FR",
    "zipcode": "72380",
    "name": "La Guierche",
    "region": "Pays de la Loire",
    "short_region": "52",
    "lat": "48.114200",
    "lon": "0.194200"
  },
  {
    "id": "210323",
    "country": "FR",
    "zipcode": "72380",
    "name": "Montbizot",
    "region": "Pays de la Loire",
    "short_region": "52",
    "lat": "48.147700",
    "lon": "0.182100"
  },
  {
    "id": "210324",
    "country": "FR",
    "zipcode": "72380",
    "name": "Souillé",
    "region": "Pays de la Loire",
    "short_region": "52",
    "lat": "48.118800",
    "lon": "0.182400"
  },
  {
    "id": "210325",
    "country": "FR",
    "zipcode": "72380",
    "name": "Sainte-Jamme-sur-Sarthe",
    "region": "Pays de la Loire",
    "short_region": "52",
    "lat": "48.142100",
    "lon": "0.167200"
  },
  {
    "id": "210326",
    "country": "FR",
    "zipcode": "72380",
    "name": "Saint-Jean-d'Assé",
    "region": "Pays de la Loire",
    "short_region": "52",
    "lat": "48.150800",
    "lon": "0.120400"
  },
  {
    "id": "210327",
    "country": "FR",
    "zipcode": "72380",
    "name": "Joué-l'Abbé",
    "region": "Pays de la Loire",
    "short_region": "52",
    "lat": "48.110900",
    "lon": "0.216700"
  },
  {
    "id": "210328",
    "country": "FR",
    "zipcode": "72380",
    "name": "Sainte-Sabine-sur-Longève",
    "region": "Pays de la Loire",
    "short_region": "52",
    "lat": "48.140700",
    "lon": "0.095400"
  },
  {
    "id": "210329",
    "country": "FR",
    "zipcode": "72390",
    "name": "Bouër",
    "region": "Pays de la Loire",
    "short_region": "52",
    "lat": "48.082400",
    "lon": "0.630600"
  },
  {
    "id": "210330",
    "country": "FR",
    "zipcode": "72390",
    "name": "Semur-en-Vallon",
    "region": "Pays de la Loire",
    "short_region": "52",
    "lat": "48.023300",
    "lon": "0.653900"
  },
  {
    "id": "210331",
    "country": "FR",
    "zipcode": "72390",
    "name": "Le Luart",
    "region": "Pays de la Loire",
    "short_region": "52",
    "lat": "48.069700",
    "lon": "0.586600"
  },
  {
    "id": "210332",
    "country": "FR",
    "zipcode": "72390",
    "name": "Dollon",
    "region": "Pays de la Loire",
    "short_region": "52",
    "lat": "48.039600",
    "lon": "0.586500"
  },
  {
    "id": "210333",
    "country": "FR",
    "zipcode": "72390",
    "name": "Lavaré",
    "region": "Pays de la Loire",
    "short_region": "52",
    "lat": "48.053500",
    "lon": "0.644300"
  },
  {
    "id": "210334",
    "country": "FR",
    "zipcode": "72400",
    "name": "Boëssé-le-Sec",
    "region": "Pays de la Loire",
    "short_region": "52",
    "lat": "48.134700",
    "lon": "0.563600"
  },
  {
    "id": "210335",
    "country": "FR",
    "zipcode": "72400",
    "name": "Saint-Martin-des-Monts",
    "region": "Pays de la Loire",
    "short_region": "52",
    "lat": "48.149500",
    "lon": "0.596500"
  },
  {
    "id": "210336",
    "country": "FR",
    "zipcode": "72400",
    "name": "Cormes",
    "region": "Pays de la Loire",
    "short_region": "52",
    "lat": "48.169600",
    "lon": "0.704500"
  },
  {
    "id": "210337",
    "country": "FR",
    "zipcode": "72400",
    "name": "La Bosse",
    "region": "Pays de la Loire",
    "short_region": "52",
    "lat": "48.170400",
    "lon": "0.526000"
  },
  {
    "id": "210338",
    "country": "FR",
    "zipcode": "72400",
    "name": "Saint-Aubin-des-Coudrais",
    "region": "Pays de la Loire",
    "short_region": "52",
    "lat": "48.172700",
    "lon": "0.584800"
  },
  {
    "id": "210339",
    "country": "FR",
    "zipcode": "72400",
    "name": "Avezé",
    "region": "Pays de la Loire",
    "short_region": "52",
    "lat": "48.227000",
    "lon": "0.678700"
  },
  {
    "id": "210340",
    "country": "FR",
    "zipcode": "72400",
    "name": "Dehault",
    "region": "Pays de la Loire",
    "short_region": "52",
    "lat": "48.210800",
    "lon": "0.570300"
  },
  {
    "id": "210341",
    "country": "FR",
    "zipcode": "72400",
    "name": "Souvigné-sur-Même",
    "region": "Pays de la Loire",
    "short_region": "52",
    "lat": "48.220100",
    "lon": "0.636000"
  },
  {
    "id": "210342",
    "country": "FR",
    "zipcode": "72400",
    "name": "La Ferté-Bernard",
    "region": "Pays de la Loire",
    "short_region": "52",
    "lat": "48.187200",
    "lon": "0.652500"
  },
  {
    "id": "210343",
    "country": "FR",
    "zipcode": "72400",
    "name": "Préval",
    "region": "Pays de la Loire",
    "short_region": "52",
    "lat": "48.235000",
    "lon": "0.623700"
  },
  {
    "id": "210344",
    "country": "FR",
    "zipcode": "72400",
    "name": "La Chapelle-du-Bois",
    "region": "Pays de la Loire",
    "short_region": "52",
    "lat": "48.221200",
    "lon": "0.592500"
  },
  {
    "id": "210345",
    "country": "FR",
    "zipcode": "72400",
    "name": "Cherré",
    "region": "Pays de la Loire",
    "short_region": "52",
    "lat": "48.172900",
    "lon": "0.657800"
  },
  {
    "id": "210346",
    "country": "FR",
    "zipcode": "72400",
    "name": "Cherreau",
    "region": "Pays de la Loire",
    "short_region": "52",
    "lat": "48.192800",
    "lon": "0.681700"
  },
  {
    "id": "210347",
    "country": "FR",
    "zipcode": "72400",
    "name": "Villaines-la-Gonais",
    "region": "Pays de la Loire",
    "short_region": "52",
    "lat": "48.135900",
    "lon": "0.601700"
  },
  {
    "id": "210348",
    "country": "FR",
    "zipcode": "72401",
    "name": "La Ferté-Bernard",
    "region": "Pays de la Loire",
    "short_region": "52",
    "lat": "48.187200",
    "lon": "0.652500"
  },
  {
    "id": "210349",
    "country": "FR",
    "zipcode": "72402",
    "name": "La Ferté-Bernard",
    "region": "Pays de la Loire",
    "short_region": "52",
    "lat": "48.187200",
    "lon": "0.652500"
  },
  {
    "id": "210350",
    "country": "FR",
    "zipcode": "72403",
    "name": "La Ferté-Bernard",
    "region": "Pays de la Loire",
    "short_region": "52",
    "lat": "48.187200",
    "lon": "0.652500"
  },
  {
    "id": "210351",
    "country": "FR",
    "zipcode": "72404",
    "name": "La Ferté-Bernard",
    "region": "Pays de la Loire",
    "short_region": "52",
    "lat": "48.187200",
    "lon": "0.652500"
  },
  {
    "id": "210352",
    "country": "FR",
    "zipcode": "72405",
    "name": "La Ferté-Bernard",
    "region": "Pays de la Loire",
    "short_region": "52",
    "lat": "48.187200",
    "lon": "0.652500"
  },
  {
    "id": "210353",
    "country": "FR",
    "zipcode": "72406",
    "name": "La Ferté-Bernard",
    "region": "Pays de la Loire",
    "short_region": "52",
    "lat": "48.187200",
    "lon": "0.652500"
  },
  {
    "id": "210354",
    "country": "FR",
    "zipcode": "72407",
    "name": "La Ferté-Bernard",
    "region": "Pays de la Loire",
    "short_region": "52",
    "lat": "48.187200",
    "lon": "0.652500"
  },
  {
    "id": "210355",
    "country": "FR",
    "zipcode": "72409",
    "name": "La Ferté-Bernard",
    "region": "Pays de la Loire",
    "short_region": "52",
    "lat": "48.187200",
    "lon": "0.652500"
  },
  {
    "id": "210356",
    "country": "FR",
    "zipcode": "72430",
    "name": "Tassé",
    "region": "Pays de la Loire",
    "short_region": "52",
    "lat": "47.890200",
    "lon": "-0.136800"
  },
  {
    "id": "210357",
    "country": "FR",
    "zipcode": "72430",
    "name": "Asnières-sur-Vègre",
    "region": "Pays de la Loire",
    "short_region": "52",
    "lat": "47.888300",
    "lon": "-0.234200"
  },
  {
    "id": "210358",
    "country": "FR",
    "zipcode": "72430",
    "name": "Saint-Jean-du-Bois",
    "region": "Pays de la Loire",
    "short_region": "52",
    "lat": "47.872800",
    "lon": "-0.039400"
  },
  {
    "id": "210359",
    "country": "FR",
    "zipcode": "72430",
    "name": "Noyen-sur-Sarthe",
    "region": "Pays de la Loire",
    "short_region": "52",
    "lat": "47.872400",
    "lon": "-0.100000"
  },
  {
    "id": "210360",
    "country": "FR",
    "zipcode": "72430",
    "name": "Saint-Pierre-des-Bois",
    "region": "Pays de la Loire",
    "short_region": "52",
    "lat": "47.940500",
    "lon": "-0.140100"
  },
  {
    "id": "210361",
    "country": "FR",
    "zipcode": "72430",
    "name": "Pirmil",
    "region": "Pays de la Loire",
    "short_region": "52",
    "lat": "47.912300",
    "lon": "-0.097500"
  },
  {
    "id": "210362",
    "country": "FR",
    "zipcode": "72430",
    "name": "Fercé-sur-Sarthe",
    "region": "Pays de la Loire",
    "short_region": "52",
    "lat": "47.900200",
    "lon": "-0.032000"
  },
  {
    "id": "210363",
    "country": "FR",
    "zipcode": "72430",
    "name": "Avoise",
    "region": "Pays de la Loire",
    "short_region": "52",
    "lat": "47.865900",
    "lon": "-0.206700"
  },
  {
    "id": "210364",
    "country": "FR",
    "zipcode": "72430",
    "name": "Chantenay-Villedieu",
    "region": "Pays de la Loire",
    "short_region": "52",
    "lat": "47.920600",
    "lon": "-0.160800"
  },
  {
    "id": "210365",
    "country": "FR",
    "zipcode": "72440",
    "name": "Saint-Mars-de-Locquenay",
    "region": "Pays de la Loire",
    "short_region": "52",
    "lat": "47.928600",
    "lon": "0.484600"
  },
  {
    "id": "210366",
    "country": "FR",
    "zipcode": "72440",
    "name": "Coudrecieux",
    "region": "Pays de la Loire",
    "short_region": "52",
    "lat": "47.992600",
    "lon": "0.628700"
  },
  {
    "id": "210367",
    "country": "FR",
    "zipcode": "72440",
    "name": "Volnay",
    "region": "Pays de la Loire",
    "short_region": "52",
    "lat": "47.932700",
    "lon": "0.467500"
  },
  {
    "id": "210368",
    "country": "FR",
    "zipcode": "72440",
    "name": "Bouloire",
    "region": "Pays de la Loire",
    "short_region": "52",
    "lat": "47.973800",
    "lon": "0.547700"
  },
  {
    "id": "210369",
    "country": "FR",
    "zipcode": "72440",
    "name": "Tresson",
    "region": "Pays de la Loire",
    "short_region": "52",
    "lat": "47.903500",
    "lon": "0.573700"
  },
  {
    "id": "210370",
    "country": "FR",
    "zipcode": "72440",
    "name": "Maisoncelles",
    "region": "Pays de la Loire",
    "short_region": "52",
    "lat": "47.936100",
    "lon": "0.570600"
  },
  {
    "id": "210371",
    "country": "FR",
    "zipcode": "72440",
    "name": "Saint-Michel-de-Chavaignes",
    "region": "Pays de la Loire",
    "short_region": "52",
    "lat": "48.018400",
    "lon": "0.571200"
  },
  {
    "id": "210372",
    "country": "FR",
    "zipcode": "72450",
    "name": "Montfort-le-Gesnois",
    "region": "Pays de la Loire",
    "short_region": "52",
    "lat": "48.048000",
    "lon": "0.403400"
  },
  {
    "id": "210373",
    "country": "FR",
    "zipcode": "72450",
    "name": "Lombron",
    "region": "Pays de la Loire",
    "short_region": "52",
    "lat": "48.078500",
    "lon": "0.417900"
  },
  {
    "id": "210374",
    "country": "FR",
    "zipcode": "72460",
    "name": "Sillé-le-Philippe",
    "region": "Pays de la Loire",
    "short_region": "52",
    "lat": "48.107900",
    "lon": "0.351700"
  },
  {
    "id": "210375",
    "country": "FR",
    "zipcode": "72460",
    "name": "Saint-Corneille",
    "region": "Pays de la Loire",
    "short_region": "52",
    "lat": "48.067200",
    "lon": "0.342500"
  },
  {
    "id": "210376",
    "country": "FR",
    "zipcode": "72460",
    "name": "Savigné-l'Évêque",
    "region": "Pays de la Loire",
    "short_region": "52",
    "lat": "48.077300",
    "lon": "0.296400"
  },
  {
    "id": "210377",
    "country": "FR",
    "zipcode": "72470",
    "name": "Saint-Mars-la-Brière",
    "region": "Pays de la Loire",
    "short_region": "52",
    "lat": "48.030500",
    "lon": "0.373200"
  },
  {
    "id": "210378",
    "country": "FR",
    "zipcode": "72470",
    "name": "Fatines",
    "region": "Pays de la Loire",
    "short_region": "52",
    "lat": "48.045700",
    "lon": "0.347700"
  },
  {
    "id": "210379",
    "country": "FR",
    "zipcode": "72470",
    "name": "Champagné",
    "region": "Pays de la Loire",
    "short_region": "52",
    "lat": "48.021900",
    "lon": "0.331000"
  },
  {
    "id": "210380",
    "country": "FR",
    "zipcode": "72500",
    "name": "Vaas",
    "region": "Pays de la Loire",
    "short_region": "52",
    "lat": "47.669000",
    "lon": "0.311700"
  },
  {
    "id": "210381",
    "country": "FR",
    "zipcode": "72500",
    "name": "Chenu",
    "region": "Pays de la Loire",
    "short_region": "52",
    "lat": "47.612700",
    "lon": "0.337900"
  },
  {
    "id": "210382",
    "country": "FR",
    "zipcode": "72500",
    "name": "Flée",
    "region": "Pays de la Loire",
    "short_region": "52",
    "lat": "47.733300",
    "lon": "0.452700"
  },
  {
    "id": "210383",
    "country": "FR",
    "zipcode": "72500",
    "name": "Dissay-sous-Courcillon",
    "region": "Pays de la Loire",
    "short_region": "52",
    "lat": "47.665200",
    "lon": "0.471100"
  },
  {
    "id": "210384",
    "country": "FR",
    "zipcode": "72500",
    "name": "Thoiré-sur-Dinan",
    "region": "Pays de la Loire",
    "short_region": "52",
    "lat": "47.754500",
    "lon": "0.448600"
  },
  {
    "id": "210385",
    "country": "FR",
    "zipcode": "72500",
    "name": "Beaumont-Pied-de-Boeuf",
    "region": "Pays de la Loire",
    "short_region": "52",
    "lat": "47.760800",
    "lon": "0.401700"
  },
  {
    "id": "210386",
    "country": "FR",
    "zipcode": "72500",
    "name": "Nogent-sur-Loir",
    "region": "Pays de la Loire",
    "short_region": "52",
    "lat": "47.668800",
    "lon": "0.395700"
  },
  {
    "id": "210387",
    "country": "FR",
    "zipcode": "72500",
    "name": "Saint-Pierre-de-Chevillé",
    "region": "Pays de la Loire",
    "short_region": "52",
    "lat": "47.645700",
    "lon": "0.438900"
  },
  {
    "id": "210388",
    "country": "FR",
    "zipcode": "72500",
    "name": "Jupilles",
    "region": "Pays de la Loire",
    "short_region": "52",
    "lat": "47.791300",
    "lon": "0.412300"
  },
  {
    "id": "210389",
    "country": "FR",
    "zipcode": "72500",
    "name": "Montabon",
    "region": "Pays de la Loire",
    "short_region": "52",
    "lat": "47.683000",
    "lon": "0.384000"
  },
  {
    "id": "210390",
    "country": "FR",
    "zipcode": "72500",
    "name": "La Bruère-sur-Loir",
    "region": "Pays de la Loire",
    "short_region": "52",
    "lat": "47.651200",
    "lon": "0.347700"
  },
  {
    "id": "210391",
    "country": "FR",
    "zipcode": "72500",
    "name": "Vouvray-sur-Loir",
    "region": "Pays de la Loire",
    "short_region": "52",
    "lat": "47.695400",
    "lon": "0.463400"
  },
  {
    "id": "210392",
    "country": "FR",
    "zipcode": "72500",
    "name": "Château-du-Loir",
    "region": "Pays de la Loire",
    "short_region": "52",
    "lat": "47.694100",
    "lon": "0.418300"
  },
  {
    "id": "210393",
    "country": "FR",
    "zipcode": "72500",
    "name": "Luceau",
    "region": "Pays de la Loire",
    "short_region": "52",
    "lat": "47.711500",
    "lon": "0.397000"
  },
  {
    "id": "210394",
    "country": "FR",
    "zipcode": "72500",
    "name": "Lavernat",
    "region": "Pays de la Loire",
    "short_region": "52",
    "lat": "47.718300",
    "lon": "0.332800"
  },
  {
    "id": "210395",
    "country": "FR",
    "zipcode": "72510",
    "name": "Pontvallain",
    "region": "Pays de la Loire",
    "short_region": "52",
    "lat": "47.750900",
    "lon": "0.191900"
  },
  {
    "id": "210396",
    "country": "FR",
    "zipcode": "72510",
    "name": "Mansigné",
    "region": "Pays de la Loire",
    "short_region": "52",
    "lat": "47.747600",
    "lon": "0.135100"
  },
  {
    "id": "210397",
    "country": "FR",
    "zipcode": "72510",
    "name": "Saint-Jean-de-la-Motte",
    "region": "Pays de la Loire",
    "short_region": "52",
    "lat": "47.741800",
    "lon": "0.056800"
  },
  {
    "id": "210398",
    "country": "FR",
    "zipcode": "72510",
    "name": "Requeil",
    "region": "Pays de la Loire",
    "short_region": "52",
    "lat": "47.784900",
    "lon": "0.161800"
  },
  {
    "id": "210399",
    "country": "FR",
    "zipcode": "72510",
    "name": "Château-l'Hermitage",
    "region": "Pays de la Loire",
    "short_region": "52",
    "lat": "47.803600",
    "lon": "0.181300"
  },
  {
    "id": "210400",
    "country": "FR",
    "zipcode": "72530",
    "name": "Yvré-l'Évêque",
    "region": "Pays de la Loire",
    "short_region": "52",
    "lat": "48.015100",
    "lon": "0.269000"
  },
  {
    "id": "210401",
    "country": "FR",
    "zipcode": "72540",
    "name": "Vallon-sur-Gée",
    "region": "Pays de la Loire",
    "short_region": "52",
    "lat": "47.962900",
    "lon": "-0.068300"
  },
  {
    "id": "210402",
    "country": "FR",
    "zipcode": "72540",
    "name": "Auvers-sous-Montfaucon",
    "region": "Pays de la Loire",
    "short_region": "52",
    "lat": "48.006500",
    "lon": "-0.070900"
  },
  {
    "id": "210403",
    "country": "FR",
    "zipcode": "72540",
    "name": "Loué",
    "region": "Pays de la Loire",
    "short_region": "52",
    "lat": "47.995400",
    "lon": "-0.153700"
  },
  {
    "id": "210404",
    "country": "FR",
    "zipcode": "72540",
    "name": "Tassillé",
    "region": "Pays de la Loire",
    "short_region": "52",
    "lat": "47.992900",
    "lon": "-0.093400"
  },
  {
    "id": "210405",
    "country": "FR",
    "zipcode": "72540",
    "name": "Mareil-en-Champagne",
    "region": "Pays de la Loire",
    "short_region": "52",
    "lat": "47.984900",
    "lon": "-0.168700"
  },
  {
    "id": "210406",
    "country": "FR",
    "zipcode": "72540",
    "name": "Joué-en-Charnie",
    "region": "Pays de la Loire",
    "short_region": "52",
    "lat": "48.017900",
    "lon": "-0.190900"
  },
  {
    "id": "210407",
    "country": "FR",
    "zipcode": "72540",
    "name": "Crannes-en-Champagne",
    "region": "Pays de la Loire",
    "short_region": "52",
    "lat": "47.980300",
    "lon": "-0.052000"
  },
  {
    "id": "210408",
    "country": "FR",
    "zipcode": "72540",
    "name": "Longnes",
    "region": "Pays de la Loire",
    "short_region": "52",
    "lat": "48.020500",
    "lon": "-0.079400"
  },
  {
    "id": "210409",
    "country": "FR",
    "zipcode": "72540",
    "name": "Épineu-le-Chevreuil",
    "region": "Pays de la Loire",
    "short_region": "52",
    "lat": "48.037700",
    "lon": "-0.115800"
  },
  {
    "id": "210410",
    "country": "FR",
    "zipcode": "72540",
    "name": "Amné",
    "region": "Pays de la Loire",
    "short_region": "52",
    "lat": "48.033300",
    "lon": "-0.066700"
  },
  {
    "id": "210411",
    "country": "FR",
    "zipcode": "72540",
    "name": "Saint-Christophe-en-Champagne",
    "region": "Pays de la Loire",
    "short_region": "52",
    "lat": "47.968300",
    "lon": "-0.138100"
  },
  {
    "id": "210412",
    "country": "FR",
    "zipcode": "72540",
    "name": "Chassillé",
    "region": "Pays de la Loire",
    "short_region": "52",
    "lat": "48.020400",
    "lon": "-0.115600"
  },
  {
    "id": "210413",
    "country": "FR",
    "zipcode": "72540",
    "name": "Chemiré-en-Charnie",
    "region": "Pays de la Loire",
    "short_region": "52",
    "lat": "48.053800",
    "lon": "-0.202700"
  },
  {
    "id": "210414",
    "country": "FR",
    "zipcode": "72550",
    "name": "Chaufour-Notre-Dame",
    "region": "Pays de la Loire",
    "short_region": "52",
    "lat": "48.025200",
    "lon": "0.075900"
  },
  {
    "id": "210415",
    "country": "FR",
    "zipcode": "72550",
    "name": "Fay",
    "region": "Pays de la Loire",
    "short_region": "52",
    "lat": "48.007700",
    "lon": "0.070400"
  },
  {
    "id": "210416",
    "country": "FR",
    "zipcode": "72550",
    "name": "Brains-sur-Gée",
    "region": "Pays de la Loire",
    "short_region": "52",
    "lat": "48.016100",
    "lon": "-0.026200"
  },
  {
    "id": "210417",
    "country": "FR",
    "zipcode": "72550",
    "name": "Degré",
    "region": "Pays de la Loire",
    "short_region": "52",
    "lat": "48.049900",
    "lon": "0.068800"
  },
  {
    "id": "210418",
    "country": "FR",
    "zipcode": "72550",
    "name": "Coulans-sur-Gée",
    "region": "Pays de la Loire",
    "short_region": "52",
    "lat": "48.021400",
    "lon": "0.010600"
  },
  {
    "id": "210419",
    "country": "FR",
    "zipcode": "72550",
    "name": "La Quinte",
    "region": "Pays de la Loire",
    "short_region": "52",
    "lat": "48.059000",
    "lon": "0.038100"
  },
  {
    "id": "210420",
    "country": "FR",
    "zipcode": "72560",
    "name": "Changé",
    "region": "Pays de la Loire",
    "short_region": "52",
    "lat": "47.987100",
    "lon": "0.282800"
  },
  {
    "id": "210421",
    "country": "FR",
    "zipcode": "72600",
    "name": "Panon",
    "region": "Pays de la Loire",
    "short_region": "52",
    "lat": "48.338800",
    "lon": "0.294500"
  },
  {
    "id": "210422",
    "country": "FR",
    "zipcode": "72600",
    "name": "Montigny",
    "region": "Pays de la Loire",
    "short_region": "52",
    "lat": "48.458200",
    "lon": "0.183800"
  },
  {
    "id": "210423",
    "country": "FR",
    "zipcode": "72600",
    "name": "Marollette",
    "region": "Pays de la Loire",
    "short_region": "52",
    "lat": "48.370400",
    "lon": "0.350400"
  },
  {
    "id": "210424",
    "country": "FR",
    "zipcode": "72600",
    "name": "Contilly",
    "region": "Pays de la Loire",
    "short_region": "52",
    "lat": "48.400900",
    "lon": "0.369400"
  },
  {
    "id": "210425",
    "country": "FR",
    "zipcode": "72600",
    "name": "Chassé",
    "region": "Pays de la Loire",
    "short_region": "52",
    "lat": "48.446100",
    "lon": "0.203000"
  },
  {
    "id": "210426",
    "country": "FR",
    "zipcode": "72600",
    "name": "Commerveil",
    "region": "Pays de la Loire",
    "short_region": "52",
    "lat": "48.317500",
    "lon": "0.357200"
  },
  {
    "id": "210427",
    "country": "FR",
    "zipcode": "72600",
    "name": "Saint-Calez-en-Saosnois",
    "region": "Pays de la Loire",
    "short_region": "52",
    "lat": "48.312700",
    "lon": "0.304200"
  },
  {
    "id": "210428",
    "country": "FR",
    "zipcode": "72600",
    "name": "Louvigny",
    "region": "Pays de la Loire",
    "short_region": "52",
    "lat": "48.338800",
    "lon": "0.202000"
  },
  {
    "id": "210429",
    "country": "FR",
    "zipcode": "72600",
    "name": "Aillières-Beauvoir",
    "region": "Pays de la Loire",
    "short_region": "52",
    "lat": "48.405400",
    "lon": "0.324600"
  },
  {
    "id": "210430",
    "country": "FR",
    "zipcode": "72600",
    "name": "Saint-Longis",
    "region": "Pays de la Loire",
    "short_region": "52",
    "lat": "48.355400",
    "lon": "0.345900"
  },
  {
    "id": "210431",
    "country": "FR",
    "zipcode": "72600",
    "name": "Saosnes",
    "region": "Pays de la Loire",
    "short_region": "52",
    "lat": "48.325800",
    "lon": "0.277700"
  },
  {
    "id": "210432",
    "country": "FR",
    "zipcode": "72600",
    "name": "Saint-Vincent-des-Prés",
    "region": "Pays de la Loire",
    "short_region": "52",
    "lat": "48.296000",
    "lon": "0.385600"
  },
  {
    "id": "210433",
    "country": "FR",
    "zipcode": "72600",
    "name": "Les Aulneaux",
    "region": "Pays de la Loire",
    "short_region": "52",
    "lat": "48.436700",
    "lon": "0.332300"
  },
  {
    "id": "210434",
    "country": "FR",
    "zipcode": "72600",
    "name": "Villeneuve-en-Perseigne",
    "region": "Pays de la Loire",
    "short_region": "52",
    "lat": "48.447800",
    "lon": "0.253300"
  },
  {
    "id": "210435",
    "country": "FR",
    "zipcode": "72600",
    "name": "Louzes",
    "region": "Pays de la Loire",
    "short_region": "52",
    "lat": "48.428700",
    "lon": "0.301800"
  },
  {
    "id": "210436",
    "country": "FR",
    "zipcode": "72600",
    "name": "Neufchâtel-en-Saosnois",
    "region": "Pays de la Loire",
    "short_region": "52",
    "lat": "48.376700",
    "lon": "0.246500"
  },
  {
    "id": "210437",
    "country": "FR",
    "zipcode": "72600",
    "name": "Mamers",
    "region": "Pays de la Loire",
    "short_region": "52",
    "lat": "48.350400",
    "lon": "0.369400"
  },
  {
    "id": "210438",
    "country": "FR",
    "zipcode": "72600",
    "name": "Blèves",
    "region": "Pays de la Loire",
    "short_region": "52",
    "lat": "48.456400",
    "lon": "0.347100"
  },
  {
    "id": "210439",
    "country": "FR",
    "zipcode": "72600",
    "name": "La Fresnaye-sur-Chédouet",
    "region": "Pays de la Loire",
    "short_region": "52",
    "lat": "48.446700",
    "lon": "0.254800"
  },
  {
    "id": "210440",
    "country": "FR",
    "zipcode": "72600",
    "name": "Saint-Pierre-des-Ormes",
    "region": "Pays de la Loire",
    "short_region": "52",
    "lat": "48.306400",
    "lon": "0.421500"
  },
  {
    "id": "210441",
    "country": "FR",
    "zipcode": "72600",
    "name": "Saint-Rémy-du-Val",
    "region": "Pays de la Loire",
    "short_region": "52",
    "lat": "48.350000",
    "lon": "0.250000"
  },
  {
    "id": "210442",
    "country": "FR",
    "zipcode": "72600",
    "name": "Vezot",
    "region": "Pays de la Loire",
    "short_region": "52",
    "lat": "48.352800",
    "lon": "0.290600"
  },
  {
    "id": "210443",
    "country": "FR",
    "zipcode": "72600",
    "name": "Roullée",
    "region": "Pays de la Loire",
    "short_region": "52",
    "lat": "48.463000",
    "lon": "0.304000"
  },
  {
    "id": "210444",
    "country": "FR",
    "zipcode": "72600",
    "name": "Pizieux",
    "region": "Pays de la Loire",
    "short_region": "52",
    "lat": "48.322500",
    "lon": "0.331700"
  },
  {
    "id": "210445",
    "country": "FR",
    "zipcode": "72600",
    "name": "Saint-Rémy-des-Monts",
    "region": "Pays de la Loire",
    "short_region": "52",
    "lat": "48.308900",
    "lon": "0.400000"
  },
  {
    "id": "210446",
    "country": "FR",
    "zipcode": "72600",
    "name": "Villaines-la-Carelle",
    "region": "Pays de la Loire",
    "short_region": "52",
    "lat": "48.376800",
    "lon": "0.299200"
  },
  {
    "id": "210447",
    "country": "FR",
    "zipcode": "72610",
    "name": "Saint-Paterne",
    "region": "Pays de la Loire",
    "short_region": "52",
    "lat": "48.416500",
    "lon": "0.111100"
  },
  {
    "id": "210448",
    "country": "FR",
    "zipcode": "72610",
    "name": "Livet-en-Saosnois",
    "region": "Pays de la Loire",
    "short_region": "52",
    "lat": "48.359800",
    "lon": "0.211100"
  },
  {
    "id": "210449",
    "country": "FR",
    "zipcode": "72610",
    "name": "Thoiré-sous-Contensor",
    "region": "Pays de la Loire",
    "short_region": "52",
    "lat": "48.311200",
    "lon": "0.200700"
  },
  {
    "id": "210450",
    "country": "FR",
    "zipcode": "72610",
    "name": "Villeneuve-en-Perseigne",
    "region": "Pays de la Loire",
    "short_region": "52",
    "lat": "48.447800",
    "lon": "0.253300"
  },
  {
    "id": "210451",
    "country": "FR",
    "zipcode": "72610",
    "name": "Ancinnes",
    "region": "Pays de la Loire",
    "short_region": "52",
    "lat": "48.368300",
    "lon": "0.176600"
  },
  {
    "id": "210452",
    "country": "FR",
    "zipcode": "72610",
    "name": "Bérus",
    "region": "Pays de la Loire",
    "short_region": "52",
    "lat": "48.374300",
    "lon": "0.051000"
  },
  {
    "id": "210453",
    "country": "FR",
    "zipcode": "72610",
    "name": "Arçonnay",
    "region": "Pays de la Loire",
    "short_region": "52",
    "lat": "48.397200",
    "lon": "0.087400"
  },
  {
    "id": "210454",
    "country": "FR",
    "zipcode": "72610",
    "name": "Rouessé-Fontaine",
    "region": "Pays de la Loire",
    "short_region": "52",
    "lat": "48.323100",
    "lon": "0.150300"
  },
  {
    "id": "210455",
    "country": "FR",
    "zipcode": "72610",
    "name": "Chérisay",
    "region": "Pays de la Loire",
    "short_region": "52",
    "lat": "48.355800",
    "lon": "0.112500"
  },
  {
    "id": "210456",
    "country": "FR",
    "zipcode": "72610",
    "name": "Saint-Rigomer-des-Bois",
    "region": "Pays de la Loire",
    "short_region": "52",
    "lat": "48.389300",
    "lon": "0.175900"
  },
  {
    "id": "210457",
    "country": "FR",
    "zipcode": "72610",
    "name": "Fyé",
    "region": "Pays de la Loire",
    "short_region": "52",
    "lat": "48.325800",
    "lon": "0.080300"
  },
  {
    "id": "210458",
    "country": "FR",
    "zipcode": "72610",
    "name": "Oisseau-le-Petit",
    "region": "Pays de la Loire",
    "short_region": "52",
    "lat": "48.348400",
    "lon": "0.086100"
  },
  {
    "id": "210459",
    "country": "FR",
    "zipcode": "72610",
    "name": "Champfleur",
    "region": "Pays de la Loire",
    "short_region": "52",
    "lat": "48.386900",
    "lon": "0.127300"
  },
  {
    "id": "210460",
    "country": "FR",
    "zipcode": "72610",
    "name": "Béthon",
    "region": "Pays de la Loire",
    "short_region": "52",
    "lat": "48.360200",
    "lon": "0.087700"
  },
  {
    "id": "210461",
    "country": "FR",
    "zipcode": "72610",
    "name": "Chenay",
    "region": "Pays de la Loire",
    "short_region": "52",
    "lat": "48.449600",
    "lon": "0.162500"
  },
  {
    "id": "210462",
    "country": "FR",
    "zipcode": "72610",
    "name": "Lignières-la-Carelle",
    "region": "Pays de la Loire",
    "short_region": "52",
    "lat": "48.435200",
    "lon": "0.175900"
  },
  {
    "id": "210463",
    "country": "FR",
    "zipcode": "72610",
    "name": "Grandchamp",
    "region": "Pays de la Loire",
    "short_region": "52",
    "lat": "48.302700",
    "lon": "0.182200"
  },
  {
    "id": "210464",
    "country": "FR",
    "zipcode": "72610",
    "name": "Bourg-le-Roi",
    "region": "Pays de la Loire",
    "short_region": "52",
    "lat": "48.345600",
    "lon": "0.132900"
  },
  {
    "id": "210465",
    "country": "FR",
    "zipcode": "72610",
    "name": "Le Chevain",
    "region": "Pays de la Loire",
    "short_region": "52",
    "lat": "48.432300",
    "lon": "0.126200"
  },
  {
    "id": "210466",
    "country": "FR",
    "zipcode": "72650",
    "name": "Saint-Saturnin",
    "region": "Pays de la Loire",
    "short_region": "52",
    "lat": "48.064600",
    "lon": "0.160100"
  },
  {
    "id": "210467",
    "country": "FR",
    "zipcode": "72650",
    "name": "La Chapelle-Saint-Aubin",
    "region": "Pays de la Loire",
    "short_region": "52",
    "lat": "48.035600",
    "lon": "0.159900"
  },
  {
    "id": "210468",
    "country": "FR",
    "zipcode": "72650",
    "name": "La Milesse",
    "region": "Pays de la Loire",
    "short_region": "52",
    "lat": "48.064700",
    "lon": "0.135700"
  },
  {
    "id": "210469",
    "country": "FR",
    "zipcode": "72650",
    "name": "La Bazoge",
    "region": "Pays de la Loire",
    "short_region": "52",
    "lat": "48.099000",
    "lon": "0.154500"
  },
  {
    "id": "210470",
    "country": "FR",
    "zipcode": "72650",
    "name": "Trangé",
    "region": "Pays de la Loire",
    "short_region": "52",
    "lat": "48.026300",
    "lon": "0.110000"
  },
  {
    "id": "210471",
    "country": "FR",
    "zipcode": "72650",
    "name": "Aigné",
    "region": "Pays de la Loire",
    "short_region": "52",
    "lat": "48.067200",
    "lon": "0.119300"
  },
  {
    "id": "210472",
    "country": "FR",
    "zipcode": "72700",
    "name": "Étival-lès-le-Mans",
    "region": "Pays de la Loire",
    "short_region": "52",
    "lat": "47.956700",
    "lon": "0.087600"
  },
  {
    "id": "210473",
    "country": "FR",
    "zipcode": "72700",
    "name": "Pruillé-le-Chétif",
    "region": "Pays de la Loire",
    "short_region": "52",
    "lat": "47.993800",
    "lon": "0.106800"
  },
  {
    "id": "210474",
    "country": "FR",
    "zipcode": "72700",
    "name": "Allonnes",
    "region": "Pays de la Loire",
    "short_region": "52",
    "lat": "47.967400",
    "lon": "0.160200"
  },
  {
    "id": "210475",
    "country": "FR",
    "zipcode": "72700",
    "name": "Rouillon",
    "region": "Pays de la Loire",
    "short_region": "52",
    "lat": "48.006300",
    "lon": "0.135300"
  },
  {
    "id": "210476",
    "country": "FR",
    "zipcode": "72700",
    "name": "Saint-Georges-du-Bois",
    "region": "Pays de la Loire",
    "short_region": "52",
    "lat": "47.972600",
    "lon": "0.099600"
  },
  {
    "id": "210477",
    "country": "FR",
    "zipcode": "72700",
    "name": "Spay",
    "region": "Pays de la Loire",
    "short_region": "52",
    "lat": "47.923800",
    "lon": "0.150800"
  },
  {
    "id": "210478",
    "country": "FR",
    "zipcode": "72702",
    "name": "Allonnes",
    "region": "Pays de la Loire",
    "short_region": "52",
    "lat": "47.967400",
    "lon": "0.160200"
  },
  {
    "id": "210479",
    "country": "FR",
    "zipcode": "72703",
    "name": "Allonnes",
    "region": "Pays de la Loire",
    "short_region": "52",
    "lat": "47.967400",
    "lon": "0.160200"
  },