[
  {
    "id": "700001",
    "country": "MX",
    "zipcode": "43463",
    "name": "El Capulín",
    "region": "Hidalgo",
    "short_region": "13",
    "lat": "20.361600",
    "lon": "-98.369100"
  },
  {
    "id": "700002",
    "country": "MX",
    "zipcode": "43463",
    "name": "La Loma",
    "region": "Hidalgo",
    "short_region": "13",
    "lat": "20.361600",
    "lon": "-98.369100"
  },
  {
    "id": "700003",
    "country": "MX",
    "zipcode": "43463",
    "name": "El Vergel",
    "region": "Hidalgo",
    "short_region": "13",
    "lat": "20.361600",
    "lon": "-98.369100"
  },
  {
    "id": "700004",
    "country": "MX",
    "zipcode": "43464",
    "name": "El Trébol",
    "region": "Hidalgo",
    "short_region": "13",
    "lat": "20.360200",
    "lon": "-98.385400"
  },
  {
    "id": "700005",
    "country": "MX",
    "zipcode": "43468",
    "name": "Calabazas",
    "region": "Hidalgo",
    "short_region": "13",
    "lat": "20.353400",
    "lon": "-98.379400"
  },
  {
    "id": "700006",
    "country": "MX",
    "zipcode": "43468",
    "name": "Calabazas Segunda Sección",
    "region": "Hidalgo",
    "short_region": "13",
    "lat": "20.353400",
    "lon": "-98.379400"
  },
  {
    "id": "700007",
    "country": "MX",
    "zipcode": "43468",
    "name": "Chichicaxtle",
    "region": "Hidalgo",
    "short_region": "13",
    "lat": "20.369700",
    "lon": "-98.375000"
  },
  {
    "id": "700008",
    "country": "MX",
    "zipcode": "43468",
    "name": "Rosa de Castilla",
    "region": "Hidalgo",
    "short_region": "13",
    "lat": "20.356800",
    "lon": "-98.412000"
  },
  {
    "id": "700009",
    "country": "MX",
    "zipcode": "43468",
    "name": "Palizar",
    "region": "Hidalgo",
    "short_region": "13",
    "lat": "20.374400",
    "lon": "-98.388600"
  },
  {
    "id": "700010",
    "country": "MX",
    "zipcode": "43468",
    "name": "Calabazas Primera Sección",
    "region": "Hidalgo",
    "short_region": "13",
    "lat": "20.344000",
    "lon": "-98.369800"
  },
  {
    "id": "700011",
    "country": "MX",
    "zipcode": "43468",
    "name": "Agua Blanca (Cerro Alto)",
    "region": "Hidalgo",
    "short_region": "13",
    "lat": "20.324700",
    "lon": "-98.372500"
  },
  {
    "id": "700012",
    "country": "MX",
    "zipcode": "43468",
    "name": "Los Cubes",
    "region": "Hidalgo",
    "short_region": "13",
    "lat": "20.363300",
    "lon": "-98.400600"
  },
  {
    "id": "700013",
    "country": "MX",
    "zipcode": "43468",
    "name": "Loma Ancha",
    "region": "Hidalgo",
    "short_region": "13",
    "lat": "20.329800",
    "lon": "-98.429600"
  },
  {
    "id": "700014",
    "country": "MX",
    "zipcode": "43469",
    "name": "El Remudadero",
    "region": "Hidalgo",
    "short_region": "13",
    "lat": "20.363600",
    "lon": "-98.361100"
  },
  {
    "id": "700015",
    "country": "MX",
    "zipcode": "43469",
    "name": "Potrero de Monroy",
    "region": "Hidalgo",
    "short_region": "13",
    "lat": "20.361600",
    "lon": "-98.369100"
  },
  {
    "id": "700016",
    "country": "MX",
    "zipcode": "43469",
    "name": "El Vivero (El Pujido)",
    "region": "Hidalgo",
    "short_region": "13",
    "lat": "20.353500",
    "lon": "-98.360000"
  },
  {
    "id": "700017",
    "country": "MX",
    "zipcode": "43469",
    "name": "El Palizar",
    "region": "Hidalgo",
    "short_region": "13",
    "lat": "20.374400",
    "lon": "-98.388600"
  },
  {
    "id": "700018",
    "country": "MX",
    "zipcode": "43469",
    "name": "Plan Grande",
    "region": "Hidalgo",
    "short_region": "13",
    "lat": "20.386000",
    "lon": "-98.375200"
  },
  {
    "id": "700019",
    "country": "MX",
    "zipcode": "43470",
    "name": "San Martín",
    "region": "Hidalgo",
    "short_region": "13",
    "lat": "20.393300",
    "lon": "-98.358400"
  },
  {
    "id": "700020",
    "country": "MX",
    "zipcode": "43470",
    "name": "La Laguna",
    "region": "Hidalgo",
    "short_region": "13",
    "lat": "20.392800",
    "lon": "-98.345500"
  },
  {
    "id": "700021",
    "country": "MX",
    "zipcode": "43470",
    "name": "San Pedrito (Potrerillos)",
    "region": "Hidalgo",
    "short_region": "13",
    "lat": "20.390000",
    "lon": "-98.343500"
  },
  {
    "id": "700022",
    "country": "MX",
    "zipcode": "43470",
    "name": "San Pedrito",
    "region": "Hidalgo",
    "short_region": "13",
    "lat": "20.383800",
    "lon": "-98.326500"
  },
  {
    "id": "700023",
    "country": "MX",
    "zipcode": "43470",
    "name": "Tetetla",
    "region": "Hidalgo",
    "short_region": "13",
    "lat": "20.390000",
    "lon": "-98.343500"
  },
  {
    "id": "700024",
    "country": "MX",
    "zipcode": "43472",
    "name": "El Xúchitl",
    "region": "Hidalgo",
    "short_region": "13",
    "lat": "20.412500",
    "lon": "-98.312000"
  },
  {
    "id": "700025",
    "country": "MX",
    "zipcode": "43472",
    "name": "San Cornelio",
    "region": "Hidalgo",
    "short_region": "13",
    "lat": "20.389600",
    "lon": "-98.312100"
  },
  {
    "id": "700026",
    "country": "MX",
    "zipcode": "43473",
    "name": "La Torre",
    "region": "Hidalgo",
    "short_region": "13",
    "lat": "20.344700",
    "lon": "-98.342000"
  },
  {
    "id": "700027",
    "country": "MX",
    "zipcode": "43473",
    "name": "Sabanillas",
    "region": "Hidalgo",
    "short_region": "13",
    "lat": "20.336200",
    "lon": "-98.361800"
  },
  {
    "id": "700028",
    "country": "MX",
    "zipcode": "43474",
    "name": "Milpa Vieja",
    "region": "Hidalgo",
    "short_region": "13",
    "lat": "20.325100",
    "lon": "-98.345100"
  },
  {
    "id": "700029",
    "country": "MX",
    "zipcode": "43474",
    "name": "Milpa Vieja (Apulco)",
    "region": "Hidalgo",
    "short_region": "13",
    "lat": "20.311400",
    "lon": "-98.340700"
  },
  {
    "id": "700030",
    "country": "MX",
    "zipcode": "42150",
    "name": "Ajacuba Centro",
    "region": "Hidalgo",
    "short_region": "13",
    "lat": "20.156400",
    "lon": "-99.043700"
  },
  {
    "id": "700031",
    "country": "MX",
    "zipcode": "42151",
    "name": "Santiago Tezontlale",
    "region": "Hidalgo",
    "short_region": "13",
    "lat": "20.162200",
    "lon": "-99.098600"
  },
  {
    "id": "700032",
    "country": "MX",
    "zipcode": "42152",
    "name": "San Nicolás Tecomatlan",
    "region": "Hidalgo",
    "short_region": "13",
    "lat": "20.179400",
    "lon": "-99.036400"
  },
  {
    "id": "700033",
    "country": "MX",
    "zipcode": "42153",
    "name": "Los Arcos",
    "region": "Hidalgo",
    "short_region": "13",
    "lat": "20.119800",
    "lon": "-99.078000"
  },
  {
    "id": "700034",
    "country": "MX",
    "zipcode": "42153",
    "name": "El Satélite (Hidalgo)",
    "region": "Hidalgo",
    "short_region": "13",
    "lat": "20.156400",
    "lon": "-99.043700"
  },
  {
    "id": "700035",
    "country": "MX",
    "zipcode": "42153",
    "name": "Los Gallineros",
    "region": "Hidalgo",
    "short_region": "13",
    "lat": "20.156400",
    "lon": "-99.043700"
  },
  {
    "id": "700036",
    "country": "MX",
    "zipcode": "42154",
    "name": "La Presa",
    "region": "Hidalgo",
    "short_region": "13",
    "lat": "20.119800",
    "lon": "-99.078000"
  },
  {
    "id": "700037",
    "country": "MX",
    "zipcode": "42154",
    "name": "Arboledas",
    "region": "Hidalgo",
    "short_region": "13",
    "lat": "20.119800",
    "lon": "-99.078000"
  },
  {
    "id": "700038",
    "country": "MX",
    "zipcode": "42154",
    "name": "La Palma",
    "region": "Hidalgo",
    "short_region": "13",
    "lat": "20.119800",
    "lon": "-99.078000"
  },
  {
    "id": "700039",
    "country": "MX",
    "zipcode": "42154",
    "name": "Santa Teresa (Las Campanitas)",
    "region": "Hidalgo",
    "short_region": "13",
    "lat": "20.216400",
    "lon": "-98.951100"
  },
  {
    "id": "700040",
    "country": "MX",
    "zipcode": "42154",
    "name": "Santa Jacoba",
    "region": "Hidalgo",
    "short_region": "13",
    "lat": "20.216400",
    "lon": "-98.951100"
  },
  {
    "id": "700041",
    "country": "MX",
    "zipcode": "42155",
    "name": "Cuauhtémoc",
    "region": "Hidalgo",
    "short_region": "13",
    "lat": "20.158800",
    "lon": "-99.114400"
  },
  {
    "id": "700042",
    "country": "MX",
    "zipcode": "42156",
    "name": "Santa Cruz Sur",
    "region": "Hidalgo",
    "short_region": "13",
    "lat": "20.165700",
    "lon": "-99.057500"
  },
  {
    "id": "700043",
    "country": "MX",
    "zipcode": "42156",
    "name": "Santa Cruz Norte Centro",
    "region": "Hidalgo",
    "short_region": "13",
    "lat": "20.165700",
    "lon": "-99.057500"
  },
  {
    "id": "700044",
    "country": "MX",
    "zipcode": "42156",
    "name": "Palma 1ra. Sección",
    "region": "Hidalgo",
    "short_region": "13",
    "lat": "20.165700",
    "lon": "-99.057500"
  },
  {
    "id": "700045",
    "country": "MX",
    "zipcode": "42156",
    "name": "Palma 2da. Sección",
    "region": "Hidalgo",
    "short_region": "13",
    "lat": "20.165700",
    "lon": "-99.057500"
  },
  {
    "id": "700046",
    "country": "MX",
    "zipcode": "42156",
    "name": "Rincón Norte 1ra. Sección",
    "region": "Hidalgo",
    "short_region": "13",
    "lat": "20.165700",
    "lon": "-99.057500"
  },
  {
    "id": "700047",
    "country": "MX",
    "zipcode": "42156",
    "name": "Rincón Norte 2da. Sección",
    "region": "Hidalgo",
    "short_region": "13",
    "lat": "20.165700",
    "lon": "-99.057500"
  },
  {
    "id": "700048",
    "country": "MX",
    "zipcode": "42156",
    "name": "Rincón Sur 1ra. Sección",
    "region": "Hidalgo",
    "short_region": "13",
    "lat": "20.165700",
    "lon": "-99.057500"
  },
  {
    "id": "700049",
    "country": "MX",
    "zipcode": "42156",
    "name": "Rincón Sur 2da. Sección",
    "region": "Hidalgo",
    "short_region": "13",
    "lat": "20.165700",
    "lon": "-99.057500"
  },
  {
    "id": "700050",
    "country": "MX",
    "zipcode": "42156",
    "name": "Vicente Guerrero",
    "region": "Hidalgo",
    "short_region": "13",
    "lat": "20.165700",
    "lon": "-99.057500"
  },
  {
    "id": "700051",
    "country": "MX",
    "zipcode": "42157",
    "name": "El Santo Niño",
    "region": "Hidalgo",
    "short_region": "13",
    "lat": "20.153700",
    "lon": "-99.044900"
  },
  {
    "id": "700052",
    "country": "MX",
    "zipcode": "42157",
    "name": "Nuevo Venero (Cuernavaca)",
    "region": "Hidalgo",
    "short_region": "13",
    "lat": "20.177700",
    "lon": "-99.068800"
  },
  {
    "id": "700053",
    "country": "MX",
    "zipcode": "42157",
    "name": "Emiliano Zapata",
    "region": "Hidalgo",
    "short_region": "13",
    "lat": "20.155600",
    "lon": "-99.027200"
  },
  {
    "id": "700054",
    "country": "MX",
    "zipcode": "42157",
    "name": "El Cerrito de las Colmenas",
    "region": "Hidalgo",
    "short_region": "13",
    "lat": "20.140700",
    "lon": "-99.010700"
  },
  {
    "id": "700055",
    "country": "MX",
    "zipcode": "42157",
    "name": "El Gorrión",
    "region": "Hidalgo",
    "short_region": "13",
    "lat": "20.130000",
    "lon": "-99.085800"
  },
  {
    "id": "700056",
    "country": "MX",
    "zipcode": "42157",
    "name": "Ignacio Zaragoza",
    "region": "Hidalgo",
    "short_region": "13",
    "lat": "20.130000",
    "lon": "-99.000400"
  },
  {
    "id": "700057",
    "country": "MX",
    "zipcode": "42157",
    "name": "Tulancalco",
    "region": "Hidalgo",
    "short_region": "13",
    "lat": "20.106600",
    "lon": "-99.028800"
  },
  {
    "id": "700058",
    "country": "MX",
    "zipcode": "42157",
    "name": "Los Corrales",
    "region": "Hidalgo",
    "short_region": "13",
    "lat": "20.119800",
    "lon": "-99.078000"
  },
  {
    "id": "700059",
    "country": "MX",
    "zipcode": "42390",
    "name": "San Francisco Sacachichilco",
    "region": "Hidalgo",
    "short_region": "13",
    "lat": "20.487500",
    "lon": "-99.408500"
  },
  {
    "id": "700060",
    "country": "MX",
    "zipcode": "42390",
    "name": "Naxthéy",
    "region": "Hidalgo",
    "short_region": "13",
    "lat": "20.439400",
    "lon": "-99.325300"
  },
  {
    "id": "700061",
    "country": "MX",
    "zipcode": "42390",
    "name": "Cebolletas",
    "region": "Hidalgo",
    "short_region": "13",
    "lat": "20.392200",
    "lon": "-99.312500"
  },
  {
    "id": "700062",
    "country": "MX",
    "zipcode": "42390",
    "name": "Santa María Xigui",
    "region": "Hidalgo",
    "short_region": "13",
    "lat": "20.461100",
    "lon": "-99.345000"
  },
  {
    "id": "700063",
    "country": "MX",
    "zipcode": "42390",
    "name": "Baxthe",
    "region": "Hidalgo",
    "short_region": "13",
    "lat": "20.379000",
    "lon": "-99.415000"
  },
  {
    "id": "700064",
    "country": "MX",
    "zipcode": "42390",
    "name": "San Pablo Oxtotipan",
    "region": "Hidalgo",
    "short_region": "13",
    "lat": "20.340700",
    "lon": "-99.377600"
  },
  {
    "id": "700065",
    "country": "MX",
    "zipcode": "42390",
    "name": "San Antonio Tezoquipan",
    "region": "Hidalgo",
    "short_region": "13",
    "lat": "20.474700",
    "lon": "-99.468600"
  },
  {
    "id": "700066",
    "country": "MX",
    "zipcode": "42390",
    "name": "Alfajayucan Centro",
    "region": "Hidalgo",
    "short_region": "13",
    "lat": "20.426900",
    "lon": "-99.370100"
  },
  {
    "id": "700067",
    "country": "MX",
    "zipcode": "42390",
    "name": "Taxhié",
    "region": "Hidalgo",
    "short_region": "13",
    "lat": "20.430000",
    "lon": "-99.321300"
  },
  {
    "id": "700068",
    "country": "MX",
    "zipcode": "42390",
    "name": "Zozea",
    "region": "Hidalgo",
    "short_region": "13",
    "lat": "20.437600",
    "lon": "-99.357400"
  },
  {
    "id": "700069",
    "country": "MX",
    "zipcode": "42392",
    "name": "Primera Manzana Dosdha",
    "region": "Hidalgo",
    "short_region": "13",
    "lat": "20.415000",
    "lon": "-99.337800"
  },
  {
    "id": "700070",
    "country": "MX",
    "zipcode": "42392",
    "name": "Buenavista",
    "region": "Hidalgo",
    "short_region": "13",
    "lat": "20.429200",
    "lon": "-99.419300"
  },
  {
    "id": "700071",
    "country": "MX",
    "zipcode": "42392",
    "name": "Cuarta Manzana Toxtha",
    "region": "Hidalgo",
    "short_region": "13",
    "lat": "20.408900",
    "lon": "-99.355300"
  },
  {
    "id": "700072",
    "country": "MX",
    "zipcode": "42392",
    "name": "La Huapilla",
    "region": "Hidalgo",
    "short_region": "13",
    "lat": "20.421900",
    "lon": "-99.372500"
  },
  {
    "id": "700073",
    "country": "MX",
    "zipcode": "42392",
    "name": "El Mayorazgo",
    "region": "Hidalgo",
    "short_region": "13",
    "lat": "20.417100",
    "lon": "-99.369100"
  },
  {
    "id": "700074",
    "country": "MX",
    "zipcode": "42392",
    "name": "Cuarta Manzana Bathahuai",
    "region": "Hidalgo",
    "short_region": "13",
    "lat": "20.417100",
    "lon": "-99.369100"
  },
  {
    "id": "700075",
    "country": "MX",
    "zipcode": "42392",
    "name": "San Antonio Corrales",
    "region": "Hidalgo",
    "short_region": "13",
    "lat": "20.406500",
    "lon": "-99.369900"
  },
  {
    "id": "700076",
    "country": "MX",
    "zipcode": "42392",
    "name": "El Espíritu",
    "region": "Hidalgo",
    "short_region": "13",
    "lat": "20.421200",
    "lon": "-99.360000"
  },
  {
    "id": "700077",
    "country": "MX",
    "zipcode": "42393",
    "name": "Tercera Manzana",
    "region": "Hidalgo",
    "short_region": "13",
    "lat": "20.394000",
    "lon": "-99.348800"
  },
  {
    "id": "700078",
    "country": "MX",
    "zipcode": "42393",
    "name": "San Pedro Xamagé",
    "region": "Hidalgo",
    "short_region": "13",
    "lat": "20.379600",
    "lon": "-99.363900"
  },
  {
    "id": "700079",
    "country": "MX",
    "zipcode": "42393",
    "name": "La Palma",
    "region": "Hidalgo",
    "short_region": "13",
    "lat": "20.370100",
    "lon": "-99.387700"
  },
  {
    "id": "700080",
    "country": "MX",
    "zipcode": "42393",
    "name": "Boxthó",
    "region": "Hidalgo",
    "short_region": "13",
    "lat": "20.393500",
    "lon": "-99.368300"
  },
  {
    "id": "700081",
    "country": "MX",
    "zipcode": "42393",
    "name": "Pueblo Nuevo",
    "region": "Hidalgo",
    "short_region": "13",
    "lat": "20.385000",
    "lon": "-99.351400"
  },
  {
    "id": "700082",
    "country": "MX",
    "zipcode": "42393",
    "name": "Xamagé",
    "region": "Hidalgo",
    "short_region": "13",
    "lat": "20.379600",
    "lon": "-99.363900"
  },
  {
    "id": "700083",
    "country": "MX",
    "zipcode": "42393",
    "name": "Arias",
    "region": "Hidalgo",
    "short_region": "13",
    "lat": "20.383600",
    "lon": "-99.364000"
  },
  {
    "id": "700084",
    "country": "MX",
    "zipcode": "42394",
    "name": "El Perú",
    "region": "Hidalgo",
    "short_region": "13",
    "lat": "20.376900",
    "lon": "-99.396600"
  },
  {
    "id": "700085",
    "country": "MX",
    "zipcode": "42394",
    "name": "Cerro Azul",
    "region": "Hidalgo",
    "short_region": "13",
    "lat": "20.331600",
    "lon": "-99.310100"
  },
  {
    "id": "700086",
    "country": "MX",
    "zipcode": "42394",
    "name": "Santa María la Palma",
    "region": "Hidalgo",
    "short_region": "13",
    "lat": "20.370100",
    "lon": "-99.387700"
  },
  {
    "id": "700087",
    "country": "MX",
    "zipcode": "42394",
    "name": "El Dadhó",
    "region": "Hidalgo",
    "short_region": "13",
    "lat": "20.330100",
    "lon": "-99.337500"
  },
  {
    "id": "700088",
    "country": "MX",
    "zipcode": "42394",
    "name": "Dolores",
    "region": "Hidalgo",
    "short_region": "13",
    "lat": "20.342300",
    "lon": "-99.351100"
  },
  {
    "id": "700089",
    "country": "MX",
    "zipcode": "42394",
    "name": "Huixthéy",
    "region": "Hidalgo",
    "short_region": "13",
    "lat": "20.373200",
    "lon": "-99.351800"
  },
  {
    "id": "700090",
    "country": "MX",
    "zipcode": "42394",
    "name": "Los Trejo",
    "region": "Hidalgo",
    "short_region": "13",
    "lat": "20.372400",
    "lon": "-99.357100"
  },
  {
    "id": "700091",
    "country": "MX",
    "zipcode": "42394",
    "name": "El Peñón",
    "region": "Hidalgo",
    "short_region": "13",
    "lat": "20.356900",
    "lon": "-99.365000"
  },
  {
    "id": "700092",
    "country": "MX",
    "zipcode": "42394",
    "name": "La Cañada",
    "region": "Hidalgo",
    "short_region": "13",
    "lat": "20.368600",
    "lon": "-99.322200"
  },
  {
    "id": "700093",
    "country": "MX",
    "zipcode": "42394",
    "name": "La Piedad",
    "region": "Hidalgo",
    "short_region": "13",
    "lat": "20.362500",
    "lon": "-99.344100"
  },
  {
    "id": "700094",
    "country": "MX",
    "zipcode": "42395",
    "name": "Xothé",
    "region": "Hidalgo",
    "short_region": "13",
    "lat": "20.352400",
    "lon": "-99.430100"
  },
  {
    "id": "700095",
    "country": "MX",
    "zipcode": "42395",
    "name": "El Puerto",
    "region": "Hidalgo",
    "short_region": "13",
    "lat": "20.407100",
    "lon": "-99.405500"
  },
  {
    "id": "700096",
    "country": "MX",
    "zipcode": "42395",
    "name": "San Pedro la Paz",
    "region": "Hidalgo",
    "short_region": "13",
    "lat": "20.329100",
    "lon": "-99.432400"
  },
  {
    "id": "700097",
    "country": "MX",
    "zipcode": "42395",
    "name": "Santa María la Palma",
    "region": "Hidalgo",
    "short_region": "13",
    "lat": "20.370100",
    "lon": "-99.387700"
  },
  {
    "id": "700098",
    "country": "MX",
    "zipcode": "42395",
    "name": "Los Puertecitos (Ejido de Baxthe)",
    "region": "Hidalgo",
    "short_region": "13",
    "lat": "20.355500",
    "lon": "-99.419000"
  },
  {
    "id": "700099",
    "country": "MX",
    "zipcode": "42395",
    "name": "El Zapote (Fontezuelas)",
    "region": "Hidalgo",
    "short_region": "13",
    "lat": "20.355500",
    "lon": "-99.419000"
  },
  {
    "id": "700100",
    "country": "MX",
    "zipcode": "42395",
    "name": "La Cruz",
    "region": "Hidalgo",
    "short_region": "13",
    "lat": "20.387500",
    "lon": "-99.401700"
  },
  {
    "id": "700101",
    "country": "MX",
    "zipcode": "42395",
    "name": "La Salitrera",
    "region": "Hidalgo",
    "short_region": "13",
    "lat": "20.338600",
    "lon": "-99.443100"
  },
  {
    "id": "700102",
    "country": "MX",
    "zipcode": "42396",
    "name": "Cuarta Manzana (La Loma Dotzihai)",
    "region": "Hidalgo",
    "short_region": "13",
    "lat": "20.423100",
    "lon": "-99.349700"
  },
  {
    "id": "700103",
    "country": "MX",
    "zipcode": "42396",
    "name": "La Nopalera Naxthéy",
    "region": "Hidalgo",
    "short_region": "13",
    "lat": "20.407800",
    "lon": "-99.340900"
  },
  {
    "id": "700104",
    "country": "MX",
    "zipcode": "42396",
    "name": "Yonthe Chico",
    "region": "Hidalgo",
    "short_region": "13",
    "lat": "20.415800",
    "lon": "-99.327500"
  },
  {
    "id": "700105",
    "country": "MX",
    "zipcode": "42396",
    "name": "El Doydhe",
    "region": "Hidalgo",
    "short_region": "13",
    "lat": "20.405800",
    "lon": "-99.338100"
  },
  {
    "id": "700106",
    "country": "MX",
    "zipcode": "42396",
    "name": "Segunda Manzana Zundhó",
    "region": "Hidalgo",
    "short_region": "13",
    "lat": "20.400300",
    "lon": "-99.340300"
  },
  {
    "id": "700107",
    "country": "MX",
    "zipcode": "42396",
    "name": "Tercera Manzana la Ladera",
    "region": "Hidalgo",
    "short_region": "13",
    "lat": "20.394000",
    "lon": "-99.348800"
  },
  {
    "id": "700108",
    "country": "MX",
    "zipcode": "42397",
    "name": "Golondrinas",
    "region": "Hidalgo",
    "short_region": "13",
    "lat": "20.440900",
    "lon": "-99.374100"
  },
  {
    "id": "700109",
    "country": "MX",
    "zipcode": "42397",
    "name": "La Noria",
    "region": "Hidalgo",
    "short_region": "13",
    "lat": "20.441200",
    "lon": "-99.427000"
  },
  {
    "id": "700110",
    "country": "MX",
    "zipcode": "42397",
    "name": "Milpa Grande",
    "region": "Hidalgo",
    "short_region": "13",
    "lat": "20.459600",
    "lon": "-99.429200"
  },
  {
    "id": "700111",
    "country": "MX",
    "zipcode": "42397",
    "name": "El Potrerito",
    "region": "Hidalgo",
    "short_region": "13",
    "lat": "20.433000",
    "lon": "-99.415300"
  },
  {
    "id": "700112",
    "country": "MX",
    "zipcode": "42397",
    "name": "La Vega",
    "region": "Hidalgo",
    "short_region": "13",
    "lat": "20.491400",
    "lon": "-99.329400"
  },
  {
    "id": "700113",
    "country": "MX",
    "zipcode": "42397",
    "name": "La Venta",
    "region": "Hidalgo",
    "short_region": "13",
    "lat": "20.456900",
    "lon": "-99.422300"
  },
  {
    "id": "700114",
    "country": "MX",
    "zipcode": "42397",
    "name": "Madho Corrales",
    "region": "Hidalgo",
    "short_region": "13",
    "lat": "20.499000",
    "lon": "-99.371700"
  },
  {
    "id": "700115",
    "country": "MX",
    "zipcode": "42397",
    "name": "El Bermejo",
    "region": "Hidalgo",
    "short_region": "13",
    "lat": "20.483500",
    "lon": "-99.366000"
  },
  {
    "id": "700116",
    "country": "MX",
    "zipcode": "42397",
    "name": "Yonthe Grande",
    "region": "Hidalgo",
    "short_region": "13",
    "lat": "20.473500",
    "lon": "-99.366500"
  },
  {
    "id": "700117",
    "country": "MX",
    "zipcode": "42397",
    "name": "Madho San Pablo",
    "region": "Hidalgo",
    "short_region": "13",
    "lat": "20.464300",
    "lon": "-99.389000"
  },
  {
    "id": "700118",
    "country": "MX",
    "zipcode": "42399",
    "name": "Tercera Manzana Tezoquipan (Los Ángeles Ngodho)",
    "region": "Hidalgo",
    "short_region": "13",
    "lat": "20.461200",
    "lon": "-99.424500"
  },
  {
    "id": "700119",
    "country": "MX",
    "zipcode": "42399",
    "name": "Nexni",
    "region": "Hidalgo",
    "short_region": "13",
    "lat": "20.488200",
    "lon": "-99.425500"
  },
  {
    "id": "700120",
    "country": "MX",
    "zipcode": "42399",
    "name": "San Lucas",
    "region": "Hidalgo",
    "short_region": "13",
    "lat": "20.468900",
    "lon": "-99.436600"
  },
  {
    "id": "700121",
    "country": "MX",
    "zipcode": "42399",
    "name": "Puithe San Antonio Tezoquipan",
    "region": "Hidalgo",
    "short_region": "13",
    "lat": "20.461200",
    "lon": "-99.424500"
  },
  {
    "id": "700122",
    "country": "MX",
    "zipcode": "42399",
    "name": "Donguiño",
    "region": "Hidalgo",
    "short_region": "13",
    "lat": "20.461200",
    "lon": "-99.424500"
  },
  {
    "id": "700123",
    "country": "MX",
    "zipcode": "42399",
    "name": "Madho Cerro Prieto",
    "region": "Hidalgo",
    "short_region": "13",
    "lat": "20.461200",
    "lon": "-99.424500"
  },
  {
    "id": "700124",
    "country": "MX",
    "zipcode": "42399",
    "name": "Deca",
    "region": "Hidalgo",
    "short_region": "13",
    "lat": "20.460600",
    "lon": "-99.408900"
  },
  {
    "id": "700125",
    "country": "MX",
    "zipcode": "42399",
    "name": "El Deca Tezoquipan",
    "region": "Hidalgo",
    "short_region": "13",
    "lat": "20.454000",
    "lon": "-99.510700"
  },
  {
    "id": "700126",
    "country": "MX",
    "zipcode": "42399",
    "name": "San Agustín Tlalixticapa",
    "region": "Hidalgo",
    "short_region": "13",
    "lat": "20.394700",
    "lon": "-99.330800"
  },
  {
    "id": "700127",
    "country": "MX",
    "zipcode": "42399",
    "name": "Tres Hermanas",
    "region": "Hidalgo",
    "short_region": "13",
    "lat": "20.501100",
    "lon": "-99.434200"
  },
  {
    "id": "700128",
    "country": "MX",
    "zipcode": "43940",
    "name": "Almoloya Centro",
    "region": "Hidalgo",
    "short_region": "13",
    "lat": "19.696100",
    "lon": "-98.433200"
  },
  {
    "id": "700129",
    "country": "MX",
    "zipcode": "43940",
    "name": "Ocotepec",
    "region": "Hidalgo",
    "short_region": "13",
    "lat": "19.696100",
    "lon": "-98.433200"
  },
  {
    "id": "700130",
    "country": "MX",
    "zipcode": "43941",
    "name": "Rancho Nuevo",
    "region": "Hidalgo",
    "short_region": "13",
    "lat": "19.747900",
    "lon": "-98.279900"
  },
  {
    "id": "700131",
    "country": "MX",
    "zipcode": "43941",
    "name": "Las Vigas",
    "region": "Hidalgo",
    "short_region": "13",
    "lat": "19.716500",
    "lon": "-98.263700"
  },
  {
    "id": "700132",
    "country": "MX",
    "zipcode": "43943",
    "name": "Antonio P. Ramírez",
    "region": "Hidalgo",
    "short_region": "13",
    "lat": "19.698100",
    "lon": "-98.393000"
  },
  {
    "id": "700133",
    "country": "MX",
    "zipcode": "43943",
    "name": "Calvario",
    "region": "Hidalgo",
    "short_region": "13",
    "lat": "19.711500",
    "lon": "-98.395300"
  },
  {
    "id": "700134",
    "country": "MX",
    "zipcode": "43943",
    "name": "Del Can",
    "region": "Hidalgo",
    "short_region": "13",
    "lat": "19.704800",
    "lon": "-98.394100"
  },
  {
    "id": "700135",
    "country": "MX",
    "zipcode": "43943",
    "name": "Techin",
    "region": "Hidalgo",
    "short_region": "13",
    "lat": "19.704800",
    "lon": "-98.394100"
  },
  {
    "id": "700136",
    "country": "MX",
    "zipcode": "43944",
    "name": "Martínez",
    "region": "Hidalgo",
    "short_region": "13",
    "lat": "19.697700",
    "lon": "-98.409600"
  },
  {
    "id": "700137",
    "country": "MX",
    "zipcode": "43944",
    "name": "Tepozán",
    "region": "Hidalgo",
    "short_region": "13",
    "lat": "19.811400",
    "lon": "-98.265800"
  },
  {
    "id": "700138",
    "country": "MX",
    "zipcode": "43945",
    "name": "El Recuerdo",
    "region": "Hidalgo",
    "short_region": "13",
    "lat": "19.707800",
    "lon": "-98.435300"
  },
  {
    "id": "700139",
    "country": "MX",
    "zipcode": "43945",
    "name": "El Nopal",
    "region": "Hidalgo",
    "short_region": "13",
    "lat": "19.722900",
    "lon": "-98.400800"
  },
  {
    "id": "700140",
    "country": "MX",
    "zipcode": "43945",
    "name": "El Venado (Tomás Castillo Cortés)",
    "region": "Hidalgo",
    "short_region": "13",
    "lat": "19.722900",
    "lon": "-98.400800"
  },
  {
    "id": "700141",
    "country": "MX",
    "zipcode": "43945",
    "name": "La Frontera",
    "region": "Hidalgo",
    "short_region": "13",
    "lat": "19.707200",
    "lon": "-98.413600"
  },
  {
    "id": "700142",
    "country": "MX",
    "zipcode": "43945",
    "name": "El Durazno",
    "region": "Hidalgo",
    "short_region": "13",
    "lat": "19.741700",
    "lon": "-98.327100"
  },
  {
    "id": "700143",
    "country": "MX",
    "zipcode": "43945",
    "name": "Los Sosa",
    "region": "Hidalgo",
    "short_region": "13",
    "lat": "19.741700",
    "lon": "-98.327100"
  },
  {
    "id": "700144",
    "country": "MX",
    "zipcode": "43945",
    "name": "Cuautlatilpan",
    "region": "Hidalgo",
    "short_region": "13",
    "lat": "19.742600",
    "lon": "-98.391700"
  },
  {
    "id": "700145",
    "country": "MX",
    "zipcode": "43945",
    "name": "Ocotepec de Morelos",
    "region": "Hidalgo",
    "short_region": "13",
    "lat": "19.673100",
    "lon": "-98.379700"
  },
  {
    "id": "700146",
    "country": "MX",
    "zipcode": "43945",
    "name": "El Capulín",
    "region": "Hidalgo",
    "short_region": "13",
    "lat": "19.780300",
    "lon": "-98.276100"
  },
  {
    "id": "700147",
    "country": "MX",
    "zipcode": "43945",
    "name": "El Llorón",
    "region": "Hidalgo",
    "short_region": "13",
    "lat": "19.700500",
    "lon": "-98.440900"
  },
  {
    "id": "700148",
    "country": "MX",
    "zipcode": "43946",
    "name": "El Cuervo",
    "region": "Hidalgo",
    "short_region": "13",
    "lat": "19.738000",
    "lon": "-98.314800"
  },
  {
    "id": "700149",
    "country": "MX",
    "zipcode": "43946",
    "name": "San Francisco",
    "region": "Hidalgo",
    "short_region": "13",
    "lat": "19.738400",
    "lon": "-98.313200"
  },
  {
    "id": "700150",
    "country": "MX",
    "zipcode": "43946",
    "name": "El Sabinal",
    "region": "Hidalgo",
    "short_region": "13",
    "lat": "19.749300",
    "lon": "-98.352700"
  },
  {
    "id": "700151",
    "country": "MX",
    "zipcode": "43946",
    "name": "El Pozo",
    "region": "Hidalgo",
    "short_region": "13",
    "lat": "19.740300",
    "lon": "-98.293100"
  },
  {
    "id": "700152",
    "country": "MX",
    "zipcode": "43946",
    "name": "Álvaro López Avilés",
    "region": "Hidalgo",
    "short_region": "13",
    "lat": "19.746600",
    "lon": "-98.335200"
  },
  {
    "id": "700153",
    "country": "MX",
    "zipcode": "43946",
    "name": "Los Morales",
    "region": "Hidalgo",
    "short_region": "13",
    "lat": "19.746600",
    "lon": "-98.335200"
  },
  {
    "id": "700154",
    "country": "MX",
    "zipcode": "43946",
    "name": "Tepepatlaxco",
    "region": "Hidalgo",
    "short_region": "13",
    "lat": "19.752600",
    "lon": "-98.371600"
  },
  {
    "id": "700155",
    "country": "MX",
    "zipcode": "43946",
    "name": "Los Órganos",
    "region": "Hidalgo",
    "short_region": "13",
    "lat": "19.761300",
    "lon": "-98.363800"
  },
  {
    "id": "700156",
    "country": "MX",
    "zipcode": "43946",
    "name": "La Coronilla",
    "region": "Hidalgo",
    "short_region": "13",
    "lat": "19.742800",
    "lon": "-98.333800"
  },
  {
    "id": "700157",
    "country": "MX",
    "zipcode": "43946",
    "name": "Santa Brígida",
    "region": "Hidalgo",
    "short_region": "13",
    "lat": "19.749900",
    "lon": "-98.339000"
  },
  {
    "id": "700158",
    "country": "MX",
    "zipcode": "43946",
    "name": "La Palma",
    "region": "Hidalgo",
    "short_region": "13",
    "lat": "19.741700",
    "lon": "-98.327100"
  },
  {
    "id": "700159",
    "country": "MX",
    "zipcode": "43947",
    "name": "Cuatro Vientos",
    "region": "Hidalgo",
    "short_region": "13",
    "lat": "19.741700",
    "lon": "-98.327100"
  },
  {
    "id": "700160",
    "country": "MX",
    "zipcode": "43947",
    "name": "La Providencia",
    "region": "Hidalgo",
    "short_region": "13",
    "lat": "19.741700",
    "lon": "-98.327100"
  },
  {
    "id": "700161",
    "country": "MX",
    "zipcode": "43947",
    "name": "Golondrinas",
    "region": "Hidalgo",
    "short_region": "13",
    "lat": "19.790000",
    "lon": "-98.340000"
  },
  {
    "id": "700162",
    "country": "MX",
    "zipcode": "43947",
    "name": "San José Coliuca",
    "region": "Hidalgo",
    "short_region": "13",
    "lat": "19.822600",
    "lon": "-98.276500"
  },
  {
    "id": "700163",
    "country": "MX",
    "zipcode": "43947",
    "name": "Huimiyucan",
    "region": "Hidalgo",
    "short_region": "13",
    "lat": "19.766000",
    "lon": "-98.305900"
  },
  {
    "id": "700164",
    "country": "MX",
    "zipcode": "43947",
    "name": "Santa Elena",
    "region": "Hidalgo",
    "short_region": "13",
    "lat": "19.791400",
    "lon": "-98.331000"
  },
  {
    "id": "700165",
    "country": "MX",
    "zipcode": "43947",
    "name": "La Violeta",
    "region": "Hidalgo",
    "short_region": "13",
    "lat": "19.788900",
    "lon": "-98.326700"
  },
  {
    "id": "700166",
    "country": "MX",
    "zipcode": "43947",
    "name": "Laguna del Puerco",
    "region": "Hidalgo",
    "short_region": "13",
    "lat": "19.805700",
    "lon": "-98.320800"
  },
  {
    "id": "700167",
    "country": "MX",
    "zipcode": "43947",
    "name": "La Soledad",
    "region": "Hidalgo",
    "short_region": "13",
    "lat": "19.779100",
    "lon": "-98.280900"
  },
  {
    "id": "700168",
    "country": "MX",
    "zipcode": "43947",
    "name": "Techachales",
    "region": "Hidalgo",
    "short_region": "13",
    "lat": "19.836200",
    "lon": "-98.283600"
  },
  {
    "id": "700169",
    "country": "MX",
    "zipcode": "43947",
    "name": "San Juan Violeta",
    "region": "Hidalgo",
    "short_region": "13",
    "lat": "19.784100",
    "lon": "-98.328600"
  },
  {
    "id": "700170",
    "country": "MX",
    "zipcode": "43947",
    "name": "El Carmen",
    "region": "Hidalgo",
    "short_region": "13",
    "lat": "19.758400",
    "lon": "-98.308100"
  },
  {
    "id": "700171",
    "country": "MX",
    "zipcode": "43947",
    "name": "Los Ángeles",
    "region": "Hidalgo",
    "short_region": "13",
    "lat": "19.662500",
    "lon": "-98.356900"
  },
  {
    "id": "700172",
    "country": "MX",
    "zipcode": "43947",
    "name": "El Mexicano",
    "region": "Hidalgo",
    "short_region": "13",
    "lat": "19.774400",
    "lon": "-98.311900"
  },
  {
    "id": "700173",
    "country": "MX",
    "zipcode": "43947",
    "name": "Coliuca",
    "region": "Hidalgo",
    "short_region": "13",
    "lat": "19.837800",
    "lon": "-98.266200"
  },
  {
    "id": "700174",
    "country": "MX",
    "zipcode": "43947",
    "name": "Huacalillos",
    "region": "Hidalgo",
    "short_region": "13",
    "lat": "19.815900",
    "lon": "-98.298000"
  },
  {
    "id": "700175",
    "country": "MX",
    "zipcode": "43947",
    "name": "El Nido",
    "region": "Hidalgo",
    "short_region": "13",
    "lat": "19.789700",
    "lon": "-98.307300"
  },
  {
    "id": "700176",
    "country": "MX",
    "zipcode": "43947",
    "name": "Los Ojitos",
    "region": "Hidalgo",
    "short_region": "13",
    "lat": "19.789700",
    "lon": "-98.307300"
  },
  {
    "id": "700177",
    "country": "MX",
    "zipcode": "43947",
    "name": "El Refugio",
    "region": "Hidalgo",
    "short_region": "13",
    "lat": "19.789400",
    "lon": "-98.272900"
  },
  {
    "id": "700178",
    "country": "MX",
    "zipcode": "43947",
    "name": "Las Maravillas",
    "region": "Hidalgo",
    "short_region": "13",
    "lat": "19.838100",
    "lon": "-98.266100"
  },
  {
    "id": "700179",
    "country": "MX",
    "zipcode": "43947",
    "name": "Cuatlaco",
    "region": "Hidalgo",
    "short_region": "13",
    "lat": "19.783800",
    "lon": "-98.350700"
  },
  {
    "id": "700180",
    "country": "MX",
    "zipcode": "43948",
    "name": "Rancho Nuevo",
    "region": "Hidalgo",
    "short_region": "13",
    "lat": "19.747900",
    "lon": "-98.279900"
  },
  {
    "id": "700181",
    "country": "MX",
    "zipcode": "43948",
    "name": "El Pozo",
    "region": "Hidalgo",
    "short_region": "13",
    "lat": "19.740300",
    "lon": "-98.293100"
  },
  {
    "id": "700182",
    "country": "MX",
    "zipcode": "43948",
    "name": "Santa Inés",
    "region": "Hidalgo",
    "short_region": "13",
    "lat": "19.741700",
    "lon": "-98.327100"
  },
  {
    "id": "700183",
    "country": "MX",
    "zipcode": "43948",
    "name": "El Mirador",
    "region": "Hidalgo",
    "short_region": "13",
    "lat": "19.741700",
    "lon": "-98.327100"
  },
  {
    "id": "700184",
    "country": "MX",
    "zipcode": "43948",
    "name": "El Pájaro",
    "region": "Hidalgo",
    "short_region": "13",
    "lat": "19.741700",
    "lon": "-98.327100"
  },
  {
    "id": "700185",
    "country": "MX",
    "zipcode": "43948",
    "name": "La Mesa del Gallo",
    "region": "Hidalgo",
    "short_region": "13",
    "lat": "19.742300",
    "lon": "-98.285000"
  },
  {
    "id": "700186",
    "country": "MX",
    "zipcode": "43948",
    "name": "La Ordeña",
    "region": "Hidalgo",
    "short_region": "13",
    "lat": "19.741100",
    "lon": "-98.290800"
  },
  {
    "id": "700187",
    "country": "MX",
    "zipcode": "43948",
    "name": "El Cuatezón",
    "region": "Hidalgo",
    "short_region": "13",
    "lat": "19.740000",
    "lon": "-98.276300"
  },
  {
    "id": "700188",
    "country": "MX",
    "zipcode": "43949",
    "name": "La Misa",
    "region": "Hidalgo",
    "short_region": "13",
    "lat": "19.790800",
    "lon": "-98.268500"
  },
  {
    "id": "700189",
    "country": "MX",
    "zipcode": "43949",
    "name": "El Capulín",
    "region": "Hidalgo",
    "short_region": "13",
    "lat": "19.780300",
    "lon": "-98.276100"
  },
  {
    "id": "700190",
    "country": "MX",
    "zipcode": "43949",
    "name": "La Fragua",
    "region": "Hidalgo",
    "short_region": "13",
    "lat": "19.773600",
    "lon": "-98.291700"
  },
  {
    "id": "700191",
    "country": "MX",
    "zipcode": "43949",
    "name": "El Tepozán (San Gabriel)",
    "region": "Hidalgo",
    "short_region": "13",
    "lat": "19.811400",
    "lon": "-98.265800"
  },
  {
    "id": "700192",
    "country": "MX",
    "zipcode": "43949",
    "name": "Tepozán",
    "region": "Hidalgo",
    "short_region": "13",
    "lat": "19.811400",
    "lon": "-98.265800"
  },
  {
    "id": "700193",
    "country": "MX",
    "zipcode": "43949",
    "name": "La Presa (La Haciendita)",
    "region": "Hidalgo",
    "short_region": "13",
    "lat": "19.800300",
    "lon": "-98.285500"
  },
  {
    "id": "700194",
    "country": "MX",
    "zipcode": "43949",
    "name": "Las Palomas",
    "region": "Hidalgo",
    "short_region": "13",
    "lat": "19.769200",
    "lon": "-98.283300"
  },
  {
    "id": "700195",
    "country": "MX",
    "zipcode": "43949",
    "name": "El Portezuelo",
    "region": "Hidalgo",
    "short_region": "13",
    "lat": "19.794200",
    "lon": "-98.281600"
  },
  {
    "id": "700196",
    "country": "MX",
    "zipcode": "43949",
    "name": "La Venta",
    "region": "Hidalgo",
    "short_region": "13",
    "lat": "19.782900",
    "lon": "-98.287500"
  },
  {
    "id": "700197",
    "country": "MX",
    "zipcode": "43949",
    "name": "El Lindero",
    "region": "Hidalgo",
    "short_region": "13",
    "lat": "19.801700",
    "lon": "-98.251800"
  },
  {
    "id": "700198",
    "country": "MX",
    "zipcode": "43949",
    "name": "El Rincón del Aserradero",
    "region": "Hidalgo",
    "short_region": "13",
    "lat": "19.790900",
    "lon": "-98.276000"
  },
  {
    "id": "700199",
    "country": "MX",
    "zipcode": "43949",
    "name": "San Francisco Javier (La Fe)",
    "region": "Hidalgo",
    "short_region": "13",
    "lat": "19.790900",
    "lon": "-98.276000"
  },
  {
    "id": "700200",
    "country": "MX",
    "zipcode": "43949",
    "name": "El Lindero Viejo",
    "region": "Hidalgo",
    "short_region": "13",
    "lat": "19.790900",
    "lon": "-98.276000"
  },
  {
    "id": "700201",
    "country": "MX",
    "zipcode": "43949",
    "name": "La Providencia",
    "region": "Hidalgo",
    "short_region": "13",
    "lat": "19.741700",
    "lon": "-98.327100"
  },
  {
    "id": "700202",
    "country": "MX",
    "zipcode": "43949",
    "name": "La Loma",
    "region": "Hidalgo",
    "short_region": "13",
    "lat": "19.784000",
    "lon": "-98.278400"
  },
  {
    "id": "700203",
    "country": "MX",
    "zipcode": "43950",
    "name": "Santiago Tetlapayac",
    "region": "Hidalgo",
    "short_region": "13",
    "lat": "19.690900",
    "lon": "-98.332600"
  },
  {
    "id": "700204",
    "country": "MX",
    "zipcode": "43950",
    "name": "Del Cristo",
    "region": "Hidalgo",
    "short_region": "13",
    "lat": "19.741700",
    "lon": "-98.327100"
  },
  {
    "id": "700205",
    "country": "MX",
    "zipcode": "43950",
    "name": "Los Carrasco",
    "region": "Hidalgo",
    "short_region": "13",
    "lat": "19.728500",
    "lon": "-98.447400"
  },
  {
    "id": "700206",
    "country": "MX",
    "zipcode": "43953",
    "name": "San Antonio Alconedo",
    "region": "Hidalgo",
    "short_region": "13",
    "lat": "19.709500",
    "lon": "-98.386000"
  },
  {
    "id": "700207",
    "country": "MX",
    "zipcode": "43953",
    "name": "Buenavista",
    "region": "Hidalgo",
    "short_region": "13",
    "lat": "19.724900",
    "lon": "-98.378000"
  },
  {
    "id": "700208",
    "country": "MX",
    "zipcode": "43953",
    "name": "El Calvario",
    "region": "Hidalgo",
    "short_region": "13",
    "lat": "19.711500",
    "lon": "-98.395300"
  },
  {
    "id": "700209",
    "country": "MX",
    "zipcode": "43953",
    "name": "Los Rosales",
    "region": "Hidalgo",
    "short_region": "13",
    "lat": "19.701400",
    "lon": "-98.392900"
  },
  {
    "id": "700210",
    "country": "MX",
    "zipcode": "43953",
    "name": "La Loma Bonita",
    "region": "Hidalgo",
    "short_region": "13",
    "lat": "19.741700",
    "lon": "-98.327100"
  },
  {
    "id": "700211",
    "country": "MX",
    "zipcode": "43953",
    "name": "El Durazno",
    "region": "Hidalgo",
    "short_region": "13",
    "lat": "19.741700",
    "lon": "-98.327100"
  },
  {
    "id": "700212",
    "country": "MX",
    "zipcode": "43954",
    "name": "San Lorenzo Xicoténcatl",
    "region": "Hidalgo",
    "short_region": "13",
    "lat": "19.693900",
    "lon": "-98.375000"
  },
  {
    "id": "700213",
    "country": "MX",
    "zipcode": "43954",
    "name": "San Isidro Tetlapayac",
    "region": "Hidalgo",
    "short_region": "13",
    "lat": "19.673600",
    "lon": "-98.372500"
  },
  {
    "id": "700214",
    "country": "MX",
    "zipcode": "43954",
    "name": "Tepetlayuca",
    "region": "Hidalgo",
    "short_region": "13",
    "lat": "19.686700",
    "lon": "-98.397400"
  },
  {
    "id": "700215",
    "country": "MX",
    "zipcode": "43955",
    "name": "Daniel Muñoz",
    "region": "Hidalgo",
    "short_region": "13",
    "lat": "19.649500",
    "lon": "-98.366200"
  },
  {
    "id": "700216",
    "country": "MX",
    "zipcode": "43955",
    "name": "Estación Tetlapayac",
    "region": "Hidalgo",
    "short_region": "13",
    "lat": "19.649500",
    "lon": "-98.366200"
  },
  {
    "id": "700217",
    "country": "MX",
    "zipcode": "43955",
    "name": "Tlalpiza",
    "region": "Hidalgo",
    "short_region": "13",
    "lat": "19.649500",
    "lon": "-98.366200"
  },
  {
    "id": "700218",
    "country": "MX",
    "zipcode": "43955",
    "name": "Alejandro Saldivar",
    "region": "Hidalgo",
    "short_region": "13",
    "lat": "19.649500",
    "lon": "-98.366200"
  },
  {
    "id": "700219",
    "country": "MX",
    "zipcode": "43956",
    "name": "La Soledad",
    "region": "Hidalgo",
    "short_region": "13",
    "lat": "19.779100",
    "lon": "-98.280900"
  },
  {
    "id": "700220",
    "country": "MX",
    "zipcode": "43900",
    "name": "Centro",
    "region": "Hidalgo",
    "short_region": "13",
    "lat": "19.722900",
    "lon": "-98.447100"
  },
  {
    "id": "700221",
    "country": "MX",
    "zipcode": "43900",
    "name": "San Francisco Marañon (La Virgencita)",
    "region": "Hidalgo",
    "short_region": "13",
    "lat": "19.745100",
    "lon": "-98.465000"
  },
  {
    "id": "700222",
    "country": "MX",
    "zipcode": "43902",
    "name": "San Pedro",
    "region": "Hidalgo",
    "short_region": "13",
    "lat": "19.745100",
    "lon": "-98.465000"
  },
  {
    "id": "700223",
    "country": "MX",
    "zipcode": "43903",
    "name": "Josefa Ortiz de Domínguez",
    "region": "Hidalgo",
    "short_region": "13",
    "lat": "19.745100",
    "lon": "-98.465000"
  },
  {
    "id": "700224",
    "country": "MX",
    "zipcode": "43904",
    "name": "Ampliación San Miguel del Arco",
    "region": "Hidalgo",
    "short_region": "13",
    "lat": "19.745100",
    "lon": "-98.465000"
  },
  {
    "id": "700225",
    "country": "MX",
    "zipcode": "43904",
    "name": "San Miguel del Arco",
    "region": "Hidalgo",
    "short_region": "13",
    "lat": "19.745100",
    "lon": "-98.465000"
  },
  {
    "id": "700226",
    "country": "MX",
    "zipcode": "43904",
    "name": "Bellavista",
    "region": "Hidalgo",
    "short_region": "13",
    "lat": "19.722900",
    "lon": "-98.447100"
  },
  {
    "id": "700227",
    "country": "MX",
    "zipcode": "43904",
    "name": "Azteca",
    "region": "Hidalgo",
    "short_region": "13",
    "lat": "19.745100",
    "lon": "-98.465000"
  },
  {
    "id": "700228",
    "country": "MX",
    "zipcode": "43905",
    "name": "Ampliación La Conchita",
    "region": "Hidalgo",
    "short_region": "13",
    "lat": "19.936900",
    "lon": "-98.509200"
  },
  {
    "id": "700229",
    "country": "MX",
    "zipcode": "43905",
    "name": "Vicente Guerrero",
    "region": "Hidalgo",
    "short_region": "13",
    "lat": "19.722900",
    "lon": "-98.447100"
  },
  {
    "id": "700230",
    "country": "MX",
    "zipcode": "43905",
    "name": "La Conchita",
    "region": "Hidalgo",
    "short_region": "13",
    "lat": "19.722900",
    "lon": "-98.447100"
  },
  {
    "id": "700231",
    "country": "MX",
    "zipcode": "43905",
    "name": "El Carmen",
    "region": "Hidalgo",
    "short_region": "13",
    "lat": "19.722900",
    "lon": "-98.447100"
  },
  {
    "id": "700232",
    "country": "MX",
    "zipcode": "43906",
    "name": "Lomas de Chulco",
    "region": "Hidalgo",
    "short_region": "13",
    "lat": "19.697500",
    "lon": "-98.460300"
  },
  {
    "id": "700233",
    "country": "MX",
    "zipcode": "43906",
    "name": "El Ciervo",
    "region": "Hidalgo",
    "short_region": "13",
    "lat": "19.697500",
    "lon": "-98.460300"
  },
  {
    "id": "700234",
    "country": "MX",
    "zipcode": "43906",
    "name": "Loma Bonita",
    "region": "Hidalgo",
    "short_region": "13",
    "lat": "19.697500",
    "lon": "-98.460300"
  },
  {
    "id": "700235",
    "country": "MX",
    "zipcode": "43906",
    "name": "Ampliación Loma Bonita",
    "region": "Hidalgo",
    "short_region": "13",
    "lat": "19.697500",
    "lon": "-98.460300"
  },
  {
    "id": "700236",
    "country": "MX",
    "zipcode": "43907",
    "name": "Niños Héroes",
    "region": "Hidalgo",
    "short_region": "13",
    "lat": "19.722900",
    "lon": "-98.447100"
  },
  {
    "id": "700237",
    "country": "MX",
    "zipcode": "43907",
    "name": "La Josefina",
    "region": "Hidalgo",
    "short_region": "13",
    "lat": "19.703600",
    "lon": "-98.475800"
  },
  {
    "id": "700238",
    "country": "MX",
    "zipcode": "43907",
    "name": "Magisterial Luis Donaldo Colosio",
    "region": "Hidalgo",
    "short_region": "13",
    "lat": "19.703600",
    "lon": "-98.475800"
  },
  {
    "id": "700239",
    "country": "MX",
    "zipcode": "43908",
    "name": "Los Capulines",
    "region": "Hidalgo",
    "short_region": "13",
    "lat": "19.722900",
    "lon": "-98.447100"
  },
  {
    "id": "700240",
    "country": "MX",
    "zipcode": "43909",
    "name": "Unidad Deportiva",
    "region": "Hidalgo",
    "short_region": "13",
    "lat": "19.715800",
    "lon": "-98.465300"
  },
  {
    "id": "700241",
    "country": "MX",
    "zipcode": "43909",
    "name": "La Joyita",
    "region": "Hidalgo",
    "short_region": "13",
    "lat": "19.715800",
    "lon": "-98.465300"
  },
  {
    "id": "700242",
    "country": "MX",
    "zipcode": "43909",
    "name": "Lealtad",
    "region": "Hidalgo",
    "short_region": "13",
    "lat": "19.715800",
    "lon": "-98.465300"
  },
  {
    "id": "700243",
    "country": "MX",
    "zipcode": "43909",
    "name": "Independencia",
    "region": "Hidalgo",
    "short_region": "13",
    "lat": "19.715800",
    "lon": "-98.465300"
  },
  {
    "id": "700244",
    "country": "MX",
    "zipcode": "43909",
    "name": "Calvario",
    "region": "Hidalgo",
    "short_region": "13",
    "lat": "19.715800",
    "lon": "-98.465300"
  },
  {
    "id": "700245",
    "country": "MX",
    "zipcode": "43909",
    "name": "Las Haciendas",
    "region": "Hidalgo",
    "short_region": "13",
    "lat": "19.715800",
    "lon": "-98.465300"
  },
  {
    "id": "700246",
    "country": "MX",
    "zipcode": "43909",
    "name": "San Rafael",
    "region": "Hidalgo",
    "short_region": "13",
    "lat": "19.722900",
    "lon": "-98.447100"
  },
  {
    "id": "700247",
    "country": "MX",
    "zipcode": "43909",
    "name": "San Javier",
    "region": "Hidalgo",
    "short_region": "13",
    "lat": "19.722900",
    "lon": "-98.447100"
  },
  {
    "id": "700248",
    "country": "MX",
    "zipcode": "43915",
    "name": "La Virgencita",
    "region": "Hidalgo",
    "short_region": "13",
    "lat": "19.756500",
    "lon": "-98.497500"
  },
  {
    "id": "700249",
    "country": "MX",
    "zipcode": "43915",
    "name": "San Lucas",
    "region": "Hidalgo",
    "short_region": "13",
    "lat": "19.761200",
    "lon": "-98.427300"
  },
  {
    "id": "700250",
    "country": "MX",
    "zipcode": "43915",
    "name": "El Alcanfor",
    "region": "Hidalgo",
    "short_region": "13",
    "lat": "19.776200",
    "lon": "-98.425100"
  },
  {
    "id": "700251",
    "country": "MX",
    "zipcode": "43915",
    "name": "Los Barrera",
    "region": "Hidalgo",
    "short_region": "13",
    "lat": "19.820300",
    "lon": "-98.404700"
  },
  {
    "id": "700252",
    "country": "MX",
    "zipcode": "43915",
    "name": "Los Montalvo",
    "region": "Hidalgo",
    "short_region": "13",
    "lat": "19.802800",
    "lon": "-98.399200"
  },
  {
    "id": "700253",
    "country": "MX",
    "zipcode": "43915",
    "name": "San Diego Tlazala Avilés (Los Quintos)",
    "region": "Hidalgo",
    "short_region": "13",
    "lat": "19.784700",
    "lon": "-98.418900"
  },
  {
    "id": "700254",
    "country": "MX",
    "zipcode": "43915",
    "name": "Ex-hacienda Santa Cruz",
    "region": "Hidalgo",
    "short_region": "13",
    "lat": "19.784700",
    "lon": "-98.418900"
  },
  {
    "id": "700255",
    "country": "MX",
    "zipcode": "43915",
    "name": "Hacienda San Miguel de las Tunas",
    "region": "Hidalgo",
    "short_region": "13",
    "lat": "19.784700",
    "lon": "-98.418900"
  },
  {
    "id": "700256",
    "country": "MX",
    "zipcode": "43915",
    "name": "Ojo de Agua",
    "region": "Hidalgo",
    "short_region": "13",
    "lat": "19.780800",
    "lon": "-98.407200"
  },
  {
    "id": "700257",
    "country": "MX",
    "zipcode": "43915",
    "name": "El Mirador",
    "region": "Hidalgo",
    "short_region": "13",
    "lat": "19.808600",
    "lon": "-98.403300"
  },
  {
    "id": "700258",
    "country": "MX",
    "zipcode": "43915",
    "name": "San Miguel de las Tunas",
    "region": "Hidalgo",
    "short_region": "13",
    "lat": "19.781300",
    "lon": "-98.435800"
  },
  {
    "id": "700259",
    "country": "MX",
    "zipcode": "43915",
    "name": "Santa Cruz",
    "region": "Hidalgo",
    "short_region": "13",
    "lat": "19.812500",
    "lon": "-98.396300"
  },
  {
    "id": "700260",
    "country": "MX",
    "zipcode": "43915",
    "name": "La Joya",
    "region": "Hidalgo",
    "short_region": "13",
    "lat": "19.805300",
    "lon": "-98.395600"
  },
  {
    "id": "700261",
    "country": "MX",
    "zipcode": "43915",
    "name": "Los Morales (El Jagüey)",
    "region": "Hidalgo",
    "short_region": "13",
    "lat": "19.765800",
    "lon": "-98.395600"
  },
  {
    "id": "700262",
    "country": "MX",
    "zipcode": "43915",
    "name": "San Diego Tlalayote",
    "region": "Hidalgo",
    "short_region": "13",
    "lat": "19.745000",
    "lon": "-98.439900"
  },
  {
    "id": "700263",
    "country": "MX",
    "zipcode": "43915",
    "name": "El Capulín (La Mesa)",
    "region": "Hidalgo",
    "short_region": "13",
    "lat": "19.784700",
    "lon": "-98.418900"
  },
  {
    "id": "700264",
    "country": "MX",
    "zipcode": "43915",
    "name": "Celedonio Márquez Sánchez",
    "region": "Hidalgo",
    "short_region": "13",
    "lat": "19.784700",
    "lon": "-98.418900"
  },
  {
    "id": "700265",
    "country": "MX",
    "zipcode": "43916",
    "name": "La Ermita",
    "region": "Hidalgo",
    "short_region": "13",
    "lat": "19.786900",
    "lon": "-98.378100"
  },
  {
    "id": "700266",
    "country": "MX",
    "zipcode": "43916",
    "name": "Alcantarillas",
    "region": "Hidalgo",
    "short_region": "13",
    "lat": "19.797600",
    "lon": "-98.382400"
  },
  {
    "id": "700267",
    "country": "MX",
    "zipcode": "43916",
    "name": "El Tejón",
    "region": "Hidalgo",
    "short_region": "13",
    "lat": "19.787200",
    "lon": "-98.370600"
  },
  {
    "id": "700268",
    "country": "MX",
    "zipcode": "43916",
    "name": "Teteyo",
    "region": "Hidalgo",
    "short_region": "13",
    "lat": "19.789200",
    "lon": "-98.382500"
  },
  {
    "id": "700269",
    "country": "MX",
    "zipcode": "43916",
    "name": "Marcelino Guzmán González",
    "region": "Hidalgo",
    "short_region": "13",
    "lat": "19.792500",
    "lon": "-98.386900"
  },
  {
    "id": "700270",
    "country": "MX",
    "zipcode": "43917",
    "name": "Los Reyes",
    "region": "Hidalgo",
    "short_region": "13",
    "lat": "19.744200",
    "lon": "-98.428100"
  },
  {
    "id": "700271",
    "country": "MX",
    "zipcode": "43917",
    "name": "La Lagunilla",
    "region": "Hidalgo",
    "short_region": "13",
    "lat": "19.768000",
    "lon": "-98.493200"
  },
  {
    "id": "700272",
    "country": "MX",
    "zipcode": "43917",
    "name": "El Jazmín",
    "region": "Hidalgo",
    "short_region": "13",
    "lat": "19.722900",
    "lon": "-98.447100"
  },
  {
    "id": "700273",
    "country": "MX",
    "zipcode": "43917",
    "name": "Ex-hacienda Espejel",
    "region": "Hidalgo",
    "short_region": "13",
    "lat": "19.769000",
    "lon": "-98.450700"
  },
  {
    "id": "700274",
    "country": "MX",
    "zipcode": "43917",
    "name": "San Antonio",
    "region": "Hidalgo",
    "short_region": "13",
    "lat": "19.727300",
    "lon": "-98.468200"
  },
  {
    "id": "700275",
    "country": "MX",
    "zipcode": "43917",
    "name": "Lomas del Pedregal",
    "region": "Hidalgo",
    "short_region": "13",
    "lat": "19.746400",
    "lon": "-98.491900"
  },
  {
    "id": "700276",
    "country": "MX",
    "zipcode": "43917",
    "name": "La Curva",
    "region": "Hidalgo",
    "short_region": "13",
    "lat": "19.753100",
    "lon": "-98.440000"
  },
  {
    "id": "700277",
    "country": "MX",
    "zipcode": "43917",
    "name": "La Hidalguense",
    "region": "Hidalgo",
    "short_region": "13",
    "lat": "19.724700",
    "lon": "-98.465300"
  },
  {
    "id": "700278",
    "country": "MX",
    "zipcode": "43917",
    "name": "Buena Vista",
    "region": "Hidalgo",
    "short_region": "13",
    "lat": "19.764700",
    "lon": "-98.463100"
  },
  {
    "id": "700279",
    "country": "MX",
    "zipcode": "43917",
    "name": "San Sebastián",
    "region": "Hidalgo",
    "short_region": "13",
    "lat": "19.745400",
    "lon": "-98.469800"
  },
  {
    "id": "700280",
    "country": "MX",
    "zipcode": "43917",
    "name": "Jagüeyes Cuates",
    "region": "Hidalgo",
    "short_region": "13",
    "lat": "19.778100",
    "lon": "-98.473400"
  },
  {
    "id": "700281",
    "country": "MX",
    "zipcode": "43917",
    "name": "La Soledad",
    "region": "Hidalgo",
    "short_region": "13",
    "lat": "19.738200",
    "lon": "-98.446800"
  },
  {
    "id": "700282",
    "country": "MX",
    "zipcode": "43917",
    "name": "El Tecorrál",
    "region": "Hidalgo",
    "short_region": "13",
    "lat": "19.748300",
    "lon": "-98.449400"
  },
  {
    "id": "700283",
    "country": "MX",
    "zipcode": "43917",
    "name": "La Leona",
    "region": "Hidalgo",
    "short_region": "13",
    "lat": "19.785200",
    "lon": "-98.460900"
  },
  {
    "id": "700284",
    "country": "MX",
    "zipcode": "43917",
    "name": "Las Peñitas",
    "region": "Hidalgo",
    "short_region": "13",
    "lat": "19.722900",
    "lon": "-98.447100"
  },
  {
    "id": "700285",
    "country": "MX",
    "zipcode": "43918",
    "name": "Santa Rosa",
    "region": "Hidalgo",
    "short_region": "13",
    "lat": "19.722900",
    "lon": "-98.447100"
  },
  {
    "id": "700286",
    "country": "MX",
    "zipcode": "43918",
    "name": "San Rafael",
    "region": "Hidalgo",
    "short_region": "13",
    "lat": "19.722900",
    "lon": "-98.447100"
  },
  {
    "id": "700287",
    "country": "MX",
    "zipcode": "43918",
    "name": "El Balconcillo (La Palma)",
    "region": "Hidalgo",
    "short_region": "13",
    "lat": "19.855400",
    "lon": "-98.383700"
  },
  {
    "id": "700288",
    "country": "MX",
    "zipcode": "43918",
    "name": "El Coyote (El Chupadero)",
    "region": "Hidalgo",
    "short_region": "13",
    "lat": "19.803800",
    "lon": "-98.369700"
  },
  {
    "id": "700289",
    "country": "MX",
    "zipcode": "43918",
    "name": "El Colorado",
    "region": "Hidalgo",
    "short_region": "13",
    "lat": "19.821800",
    "lon": "-98.344500"
  },
  {
    "id": "700290",
    "country": "MX",
    "zipcode": "43918",
    "name": "Cocinillas",
    "region": "Hidalgo",
    "short_region": "13",
    "lat": "19.844900",
    "lon": "-98.373100"
  },
  {
    "id": "700291",
    "country": "MX",
    "zipcode": "43918",
    "name": "Guadalupe",
    "region": "Hidalgo",
    "short_region": "13",
    "lat": "19.828400",
    "lon": "-98.371400"
  },
  {
    "id": "700292",
    "country": "MX",
    "zipcode": "43919",
    "name": "El Tigre",
    "region": "Hidalgo",
    "short_region": "13",
    "lat": "19.826600",
    "lon": "-98.319100"
  },
  {
    "id": "700293",
    "country": "MX",
    "zipcode": "43919",
    "name": "El Tezoyo",
    "region": "Hidalgo",
    "short_region": "13",
    "lat": "19.826600",
    "lon": "-98.319100"
  },
  {
    "id": "700294",
    "country": "MX",
    "zipcode": "43919",
    "name": "Los Ojitos",
    "region": "Hidalgo",
    "short_region": "13",
    "lat": "19.826600",
    "lon": "-98.319100"
  },
  {
    "id": "700295",
    "country": "MX",
    "zipcode": "43919",
    "name": "Cerro del Coyote",
    "region": "Hidalgo",
    "short_region": "13",
    "lat": "19.826600",
    "lon": "-98.319100"
  },
  {
    "id": "700296",
    "country": "MX",
    "zipcode": "43919",
    "name": "Cerro del Conejo",
    "region": "Hidalgo",
    "short_region": "13",
    "lat": "19.826600",
    "lon": "-98.319100"
  },
  {
    "id": "700297",
    "country": "MX",
    "zipcode": "43920",
    "name": "El Llano",
    "region": "Hidalgo",
    "short_region": "13",
    "lat": "19.722900",
    "lon": "-98.447100"
  },
  {
    "id": "700298",
    "country": "MX",
    "zipcode": "43920",
    "name": "Los Voladores",
    "region": "Hidalgo",
    "short_region": "13",
    "lat": "19.681600",
    "lon": "-98.494400"
  },
  {
    "id": "700299",
    "country": "MX",
    "zipcode": "43920",
    "name": "Lomas del Tepeyac",
    "region": "Hidalgo",
    "short_region": "13",
    "lat": "19.749600",
    "lon": "-98.497300"
  },
  {
    "id": "700300",
    "country": "MX",
    "zipcode": "43920",
    "name": "San Joaquín",
    "region": "Hidalgo",
    "short_region": "13",
    "lat": "19.723100",
    "lon": "-98.470300"
  },
  {
    "id": "700301",
    "country": "MX",
    "zipcode": "43920",
    "name": "San José el Mirador",
    "region": "Hidalgo",
    "short_region": "13",
    "lat": "19.692200",
    "lon": "-98.458600"
  },
  {
    "id": "700302",
    "country": "MX",
    "zipcode": "43920",
    "name": "Acopinalco",
    "region": "Hidalgo",
    "short_region": "13",
    "lat": "19.709600",
    "lon": "-98.532600"
  },
  {
    "id": "700303",
    "country": "MX",
    "zipcode": "43920",
    "name": "La Laguna",
    "region": "Hidalgo",
    "short_region": "13",
    "lat": "19.734500",
    "lon": "-98.499900"
  },
  {
    "id": "700304",
    "country": "MX",
    "zipcode": "43920",
    "name": "Chimalpa Tlalayote",
    "region": "Hidalgo",
    "short_region": "13",
    "lat": "19.665200",
    "lon": "-98.512200"
  },
  {
    "id": "700305",
    "country": "MX",
    "zipcode": "43920",
    "name": "Las Ventas",
    "region": "Hidalgo",
    "short_region": "13",
    "lat": "19.720000",
    "lon": "-98.497800"
  },
  {
    "id": "700306",
    "country": "MX",
    "zipcode": "43921",
    "name": "San Juan Ixtilmaco",
    "region": "Hidalgo",
    "short_region": "13",
    "lat": "19.666100",
    "lon": "-98.449500"
  },
  {
    "id": "700307",
    "country": "MX",
    "zipcode": "43921",
    "name": "Lázaro Cárdenas",
    "region": "Hidalgo",
    "short_region": "13",
    "lat": "19.640300",
    "lon": "-98.471700"
  },
  {
    "id": "700308",
    "country": "MX",
    "zipcode": "43922",
    "name": "Los Encinos",
    "region": "Hidalgo",
    "short_region": "13",
    "lat": "19.656000",
    "lon": "-98.468200"
  },
  {
    "id": "700309",
    "country": "MX",
    "zipcode": "43922",
    "name": "San Isidro (Rosendo Luna Orozco)",
    "region": "Hidalgo",
    "short_region": "13",
    "lat": "19.637600",
    "lon": "-98.490800"
  },
  {
    "id": "700310",
    "country": "MX",
    "zipcode": "43922",
    "name": "Zotoluca (Veloz)",
    "region": "Hidalgo",
    "short_region": "13",
    "lat": "19.637600",
    "lon": "-98.490800"
  },
  {
    "id": "700311",
    "country": "MX",
    "zipcode": "43922",
    "name": "El Cerrito",
    "region": "Hidalgo",
    "short_region": "13",
    "lat": "19.619200",
    "lon": "-98.513300"
  },
  {
    "id": "700312",
    "country": "MX",
    "zipcode": "43923",
    "name": "Malayerba",
    "region": "Hidalgo",
    "short_region": "13",
    "lat": "19.637100",
    "lon": "-98.438100"
  },
  {
    "id": "700313",
    "country": "MX",
    "zipcode": "43923",
    "name": "San José Jiquilpan",
    "region": "Hidalgo",
    "short_region": "13",
    "lat": "19.627200",
    "lon": "-98.387900"
  },
  {
    "id": "700314",
    "country": "MX",
    "zipcode": "43923",
    "name": "Ex-hacienda San Juan Ixtilmaco",
    "region": "Hidalgo",
    "short_region": "13",
    "lat": "19.646300",
    "lon": "-98.410300"
  },
  {
    "id": "700315",
    "country": "MX",
    "zipcode": "43923",
    "name": "Zacatepec",
    "region": "Hidalgo",
    "short_region": "13",
    "lat": "19.674700",
    "lon": "-98.404800"
  },
  {
    "id": "700316",
    "country": "MX",
    "zipcode": "43924",
    "name": "El Tejocote",
    "region": "Hidalgo",
    "short_region": "13",
    "lat": "19.697100",
    "lon": "-98.417200"
  },
  {
    "id": "700317",
    "country": "MX",
    "zipcode": "43924",
    "name": "Lindero de Ocotepec",
    "region": "Hidalgo",
    "short_region": "13",
    "lat": "19.697100",
    "lon": "-98.417200"
  },
  {
    "id": "700318",
    "country": "MX",
    "zipcode": "43924",
    "name": "La Era de Ocotepec (Campo Deportivo)",
    "region": "Hidalgo",
    "short_region": "13",
    "lat": "19.697100",
    "lon": "-98.417200"
  },
  {
    "id": "700319",
    "country": "MX",
    "zipcode": "43924",
    "name": "Ex-hacienda Ocotepec",
    "region": "Hidalgo",
    "short_region": "13",
    "lat": "19.697100",
    "lon": "-98.417200"
  },
  {
    "id": "700320",
    "country": "MX",
    "zipcode": "42680",
    "name": "El Arenal Centro",
    "region": "Hidalgo",
    "short_region": "13",
    "lat": "20.252100",
    "lon": "-98.893000"
  },
  {
    "id": "700321",
    "country": "MX",
    "zipcode": "42680",
    "name": "El Rincón",
    "region": "Hidalgo",
    "short_region": "13",
    "lat": "20.273300",
    "lon": "-98.904300"
  },
  {
    "id": "700322",
    "country": "MX",
    "zipcode": "42680",
    "name": "El Jiadi",
    "region": "Hidalgo",
    "short_region": "13",
    "lat": "20.248400",
    "lon": "-98.928100"
  },
  {
    "id": "700323",
    "country": "MX",
    "zipcode": "42680",
    "name": "San Jerónimo",
    "region": "Hidalgo",
    "short_region": "13",
    "lat": "20.234700",
    "lon": "-98.846400"
  },
  {
    "id": "700324",
    "country": "MX",
    "zipcode": "42682",
    "name": "El Meje",
    "region": "Hidalgo",
    "short_region": "13",
    "lat": "20.259000",
    "lon": "-98.916500"
  },
  {
    "id": "700325",
    "country": "MX",
    "zipcode": "42682",
    "name": "Veinte de Noviembre",
    "region": "Hidalgo",
    "short_region": "13",
    "lat": "20.239400",
    "lon": "-98.928900"
  },
  {
    "id": "700326",
    "country": "MX",
    "zipcode": "42682",
    "name": "Cosahuayán Grande",
    "region": "Hidalgo",
    "short_region": "13",
    "lat": "20.242200",
    "lon": "-98.905800"
  },
  {
    "id": "700327",
    "country": "MX",
    "zipcode": "42682",
    "name": "La Mesa",
    "region": "Hidalgo",
    "short_region": "13",
    "lat": "20.248100",
    "lon": "-98.885600"
  },
  {
    "id": "700328",
    "country": "MX",
    "zipcode": "42683",
    "name": "El Bocja",
    "region": "Hidalgo",
    "short_region": "13",
    "lat": "20.210100",
    "lon": "-98.920900"
  },
  {
    "id": "700329",
    "country": "MX",
    "zipcode": "42683",
    "name": "Chimilpa",
    "region": "Hidalgo",
    "short_region": "13",
    "lat": "20.204200",
    "lon": "-98.940600"
  },
  {
    "id": "700330",
    "country": "MX",
    "zipcode": "42683",
    "name": "El Frutilán",
    "region": "Hidalgo",
    "short_region": "13",
    "lat": "20.207100",
    "lon": "-98.930700"
  },
  {
    "id": "700331",
    "country": "MX",
    "zipcode": "42683",
    "name": "El Ojua",
    "region": "Hidalgo",
    "short_region": "13",
    "lat": "20.207100",
    "lon": "-98.930700"
  },
  {
    "id": "700332",
    "country": "MX",
    "zipcode": "42683",
    "name": "La Colorada",
    "region": "Hidalgo",
    "short_region": "13",
    "lat": "20.207100",
    "lon": "-98.930700"
  },
  {
    "id": "700333",
    "country": "MX",
    "zipcode": "42684",
    "name": "El Calvario",
    "region": "Hidalgo",
    "short_region": "13",
    "lat": "20.217200",
    "lon": "-98.882600"
  },
  {
    "id": "700334",
    "country": "MX",
    "zipcode": "42684",
    "name": "Las Águilas",
    "region": "Hidalgo",
    "short_region": "13",
    "lat": "20.217200",
    "lon": "-98.882600"
  },
  {
    "id": "700335",
    "country": "MX",
    "zipcode": "42684",
    "name": "Los Frailes",
    "region": "Hidalgo",
    "short_region": "13",
    "lat": "20.217200",
    "lon": "-98.882600"
  },
  {
    "id": "700336",
    "country": "MX",
    "zipcode": "42684",
    "name": "Capilla",
    "region": "Hidalgo",
    "short_region": "13",
    "lat": "20.239700",
    "lon": "-98.902000"
  },
  {
    "id": "700337",
    "country": "MX",
    "zipcode": "42684",
    "name": "Casahuayan",
    "region": "Hidalgo",
    "short_region": "13",
    "lat": "20.239700",
    "lon": "-98.902000"
  },
  {
    "id": "700338",
    "country": "MX",
    "zipcode": "42685",
    "name": "El Pozo (Santa Ana)",
    "region": "Hidalgo",
    "short_region": "13",
    "lat": "20.209700",
    "lon": "-98.897500"
  },
  {
    "id": "700339",
    "country": "MX",
    "zipcode": "42685",
    "name": "La Manzana Uno",
    "region": "Hidalgo",
    "short_region": "13",
    "lat": "20.201400",
    "lon": "-98.909700"
  },
  {
    "id": "700340",
    "country": "MX",
    "zipcode": "42686",
    "name": "El Paje",
    "region": "Hidalgo",
    "short_region": "13",
    "lat": "20.292400",
    "lon": "-98.878800"
  },
  {
    "id": "700341",
    "country": "MX",
    "zipcode": "42689",
    "name": "Fray Francisco",
    "region": "Hidalgo",
    "short_region": "13",
    "lat": "20.253100",
    "lon": "-98.862800"
  },
  {
    "id": "700342",
    "country": "MX",
    "zipcode": "42690",
    "name": "San José Tepenene (Tepenene)",
    "region": "Hidalgo",
    "short_region": "13",
    "lat": "20.201100",
    "lon": "-98.903900"
  },
  {
    "id": "700343",
    "country": "MX",
    "zipcode": "42693",
    "name": "La Garita (La Mina)",
    "region": "Hidalgo",
    "short_region": "13",
    "lat": "20.215600",
    "lon": "-98.877200"
  },
  {
    "id": "700344",
    "country": "MX",
    "zipcode": "42693",
    "name": "La Sala (La Caliente)",
    "region": "Hidalgo",
    "short_region": "13",
    "lat": "20.207200",
    "lon": "-98.872500"
  },
  {
    "id": "700345",
    "country": "MX",
    "zipcode": "42694",
    "name": "Puerto del Oro",
    "region": "Hidalgo",
    "short_region": "13",
    "lat": "20.189900",
    "lon": "-98.849500"
  },
  {
    "id": "700346",
    "country": "MX",
    "zipcode": "42694",
    "name": "Santa Rosa",
    "region": "Hidalgo",
    "short_region": "13",
    "lat": "20.206700",
    "lon": "-98.836000"
  },
  {
    "id": "700347",
    "country": "MX",
    "zipcode": "42695",
    "name": "El Puerto de San Pedro",
    "region": "Hidalgo",
    "short_region": "13",
    "lat": "20.217200",
    "lon": "-98.882600"
  },
  {
    "id": "700348",
    "country": "MX",
    "zipcode": "42695",
    "name": "Ojo de Agua Santa Rosa",
    "region": "Hidalgo",
    "short_region": "13",
    "lat": "20.199500",
    "lon": "-98.957400"
  },
  {
    "id": "700349",
    "country": "MX",
    "zipcode": "42695",
    "name": "Ojo de Agua San José Tepenene",
    "region": "Hidalgo",
    "short_region": "13",
    "lat": "20.199500",
    "lon": "-98.957400"
  },
  {
    "id": "700350",
    "country": "MX",
    "zipcode": "42695",
    "name": "Las Peñitas",
    "region": "Hidalgo",
    "short_region": "13",
    "lat": "20.178400",
    "lon": "-98.893900"
  },
  {
    "id": "700351",
    "country": "MX",
    "zipcode": "42970",
    "name": "Los Atlantes",
    "region": "Hidalgo",
    "short_region": "13",
    "lat": "20.055100",
    "lon": "-99.221700"
  },
  {
    "id": "700352",
    "country": "MX",
    "zipcode": "42970",
    "name": "Loma del Barrio del Cardonal",
    "region": "Hidalgo",
    "short_region": "13",
    "lat": "20.055100",
    "lon": "-99.221700"
  },
  {
    "id": "700353",
    "country": "MX",
    "zipcode": "42970",
    "name": "El Cardonal",
    "region": "Hidalgo",
    "short_region": "13",
    "lat": "20.055100",
    "lon": "-99.221700"
  },
  {
    "id": "700354",
    "country": "MX",
    "zipcode": "42970",
    "name": "Atitalaquia Centro",
    "region": "Hidalgo",
    "short_region": "13",
    "lat": "20.055100",
    "lon": "-99.221700"
  },
  {
    "id": "700355",
    "country": "MX",
    "zipcode": "42970",
    "name": "18 de Marzo",
    "region": "Hidalgo",
    "short_region": "13",
    "lat": "20.055100",
    "lon": "-99.221700"
  },
  {
    "id": "700356",
    "country": "MX",
    "zipcode": "42970",
    "name": "Villas de Atitalaquia",
    "region": "Hidalgo",
    "short_region": "13",
    "lat": "20.055100",
    "lon": "-99.221700"
  },
  {
    "id": "700357",
    "country": "MX",
    "zipcode": "42970",
    "name": "Los Ángeles",
    "region": "Hidalgo",
    "short_region": "13",
    "lat": "20.054700",
    "lon": "-99.221400"
  },
  {
    "id": "700358",
    "country": "MX",
    "zipcode": "42970",
    "name": "Dendho",
    "region": "Hidalgo",
    "short_region": "13",
    "lat": "20.068000",
    "lon": "-99.238000"
  },
  {
    "id": "700359",
    "country": "MX",
    "zipcode": "42970",
    "name": "San José Bojay el Grande",
    "region": "Hidalgo",
    "short_region": "13",
    "lat": "20.042400",
    "lon": "-99.203400"
  },
  {
    "id": "700360",
    "country": "MX",
    "zipcode": "42970",
    "name": "Tlalminulpa",
    "region": "Hidalgo",
    "short_region": "13",
    "lat": "20.074900",
    "lon": "-99.222200"
  },
  {
    "id": "700361",
    "country": "MX",
    "zipcode": "42970",
    "name": "Tlamaco",
    "region": "Hidalgo",
    "short_region": "13",
    "lat": "20.034200",
    "lon": "-99.232000"
  },
  {
    "id": "700362",
    "country": "MX",
    "zipcode": "42970",
    "name": "Cardonal",
    "region": "Hidalgo",
    "short_region": "13",
    "lat": "20.056900",
    "lon": "-99.230300"
  },
  {
    "id": "700363",
    "country": "MX",
    "zipcode": "42970",
    "name": "Tezoquipa",
    "region": "Hidalgo",
    "short_region": "13",
    "lat": "20.056400",
    "lon": "-99.204700"
  },
  {
    "id": "700364",
    "country": "MX",
    "zipcode": "42970",
    "name": "Atitalaquia",
    "region": "Hidalgo",
    "short_region": "13",
    "lat": "20.059600",
    "lon": "-99.221600"
  },
  {
    "id": "700365",
    "country": "MX",
    "zipcode": "42970",
    "name": "El Tablón",
    "region": "Hidalgo",
    "short_region": "13",
    "lat": "20.048600",
    "lon": "-99.221600"
  },
  {
    "id": "700366",
    "country": "MX",
    "zipcode": "42973",
    "name": "Ampliación Dendho",
    "region": "Hidalgo",
    "short_region": "13",
    "lat": "20.054700",
    "lon": "-99.226600"
  },
  {
    "id": "700367",
    "country": "MX",
    "zipcode": "42974",
    "name": "15 de Enero 1a. Sección",
    "region": "Hidalgo",
    "short_region": "13",
    "lat": "20.054700",
    "lon": "-99.226600"
  },
  {
    "id": "700368",
    "country": "MX",
    "zipcode": "42975",
    "name": "Llanos de Iztazacuala",
    "region": "Hidalgo",
    "short_region": "13",
    "lat": "20.043900",
    "lon": "-99.244700"
  },
  {
    "id": "700369",
    "country": "MX",
    "zipcode": "42975",
    "name": "5 de Mayo",
    "region": "Hidalgo",
    "short_region": "13",
    "lat": "20.043900",
    "lon": "-99.244700"
  },
  {
    "id": "700370",
    "country": "MX",
    "zipcode": "42975",
    "name": "Antonio Osorio de León",
    "region": "Hidalgo",
    "short_region": "13",
    "lat": "20.043900",
    "lon": "-99.244700"
  },
  {
    "id": "700371",
    "country": "MX",
    "zipcode": "42976",
    "name": "Chihuahua",
    "region": "Hidalgo",
    "short_region": "13",
    "lat": "20.064800",
    "lon": "-99.197000"
  },
  {
    "id": "700372",
    "country": "MX",
    "zipcode": "42976",
    "name": "Magueyal Viejo",
    "region": "Hidalgo",
    "short_region": "13",
    "lat": "20.064800",
    "lon": "-99.197000"
  },
  {
    "id": "700373",
    "country": "MX",
    "zipcode": "42976",
    "name": "San Isidro Bojayito (Ex-hacienda Bojayito)",
    "region": "Hidalgo",
    "short_region": "13",
    "lat": "20.068300",
    "lon": "-99.197500"
  },
  {
    "id": "700374",
    "country": "MX",
    "zipcode": "42976",
    "name": "La Cantera",
    "region": "Hidalgo",
    "short_region": "13",
    "lat": "20.058600",
    "lon": "-99.184500"
  },
  {
    "id": "700375",
    "country": "MX",
    "zipcode": "42976",
    "name": "Chelita",
    "region": "Hidalgo",
    "short_region": "13",
    "lat": "20.067500",
    "lon": "-99.209200"
  },
  {
    "id": "700376",
    "country": "MX",
    "zipcode": "42977",
    "name": "San Luis",
    "region": "Hidalgo",
    "short_region": "13",
    "lat": "20.036100",
    "lon": "-99.213000"
  },
  {
    "id": "700377",
    "country": "MX",
    "zipcode": "42977",
    "name": "El Olimpo",
    "region": "Hidalgo",
    "short_region": "13",
    "lat": "20.036100",
    "lon": "-99.213000"
  },
  {
    "id": "700378",
    "country": "MX",
    "zipcode": "42978",
    "name": "Los Cedros",
    "region": "Hidalgo",
    "short_region": "13",
    "lat": "20.053300",
    "lon": "-99.240000"
  },
  {
    "id": "700379",
    "country": "MX",
    "zipcode": "42978",
    "name": "La Loma de Ixtazacuala (La Loma)",
    "region": "Hidalgo",
    "short_region": "13",
    "lat": "20.043100",
    "lon": "-99.259400"
  },
  {
    "id": "700380",
    "country": "MX",
    "zipcode": "42978",
    "name": "El Gavillero",
    "region": "Hidalgo",
    "short_region": "13",
    "lat": "20.063900",
    "lon": "-99.260000"
  },
  {
    "id": "700381",
    "country": "MX",
    "zipcode": "42978",
    "name": "Empleados Pemex",
    "region": "Hidalgo",
    "short_region": "13",
    "lat": "20.045800",
    "lon": "-99.267500"
  },
  {
    "id": "700382",
    "country": "MX",
    "zipcode": "42979",
    "name": "La Vega",
    "region": "Hidalgo",
    "short_region": "13",
    "lat": "20.062200",
    "lon": "-99.228400"
  },
  {
    "id": "700383",
    "country": "MX",
    "zipcode": "43060",
    "name": "Subestación",
    "region": "Hidalgo",
    "short_region": "13",
    "lat": "21.012700",
    "lon": "-98.398800"
  },
  {
    "id": "700384",
    "country": "MX",
    "zipcode": "43060",
    "name": "Cochiscuatitla",
    "region": "Hidalgo",
    "short_region": "13",
    "lat": "21.009000",
    "lon": "-98.422000"
  },
  {
    "id": "700385",
    "country": "MX",
    "zipcode": "43060",
    "name": "Cochotla",
    "region": "Hidalgo",
    "short_region": "13",
    "lat": "21.024000",
    "lon": "-98.410900"
  },
  {
    "id": "700386",
    "country": "MX",
    "zipcode": "43060",
    "name": "Tecolotitla",
    "region": "Hidalgo",
    "short_region": "13",
    "lat": "21.005300",
    "lon": "-98.363600"
  },
  {
    "id": "700387",
    "country": "MX",
    "zipcode": "43060",
    "name": "Deportiva",
    "region": "Hidalgo",
    "short_region": "13",
    "lat": "21.012700",
    "lon": "-98.398800"
  },
  {
    "id": "700388",
    "country": "MX",
    "zipcode": "43060",
    "name": "Atlapexco Centro",
    "region": "Hidalgo",
    "short_region": "13",
    "lat": "21.012700",
    "lon": "-98.398800"
  },
  {
    "id": "700389",
    "country": "MX",
    "zipcode": "43061",
    "name": "Atlaltipa Tecolotitla",
    "region": "Hidalgo",
    "short_region": "13",
    "lat": "20.974400",
    "lon": "-98.356300"
  },
  {
    "id": "700390",
    "country": "MX",
    "zipcode": "43061",
    "name": "Pahactla",
    "region": "Hidalgo",
    "short_region": "13",
    "lat": "20.974400",
    "lon": "-98.356300"
  },
  {
    "id": "700391",
    "country": "MX",
    "zipcode": "43062",
    "name": "Tzintepetzintla",
    "region": "Hidalgo",
    "short_region": "13",
    "lat": "20.994200",
    "lon": "-98.353400"
  },
  {
    "id": "700392",
    "country": "MX",
    "zipcode": "43062",
    "name": "Tierra Playa",
    "region": "Hidalgo",
    "short_region": "13",
    "lat": "21.008600",
    "lon": "-98.366900"
  },
  {
    "id": "700393",
    "country": "MX",
    "zipcode": "43062",
    "name": "Tecacahuaco",
    "region": "Hidalgo",
    "short_region": "13",
    "lat": "20.941300",
    "lon": "-98.338900"
  },
  {
    "id": "700394",
    "country": "MX",
    "zipcode": "43062",
    "name": "Tlachapa",
    "region": "Hidalgo",
    "short_region": "13",
    "lat": "20.991800",
    "lon": "-98.382700"
  },
  {
    "id": "700395",
    "country": "MX",
    "zipcode": "43062",
    "name": "Granja Acuícola",
    "region": "Hidalgo",
    "short_region": "13",
    "lat": "20.990700",
    "lon": "-98.362000"
  },
  {
    "id": "700396",
    "country": "MX",
    "zipcode": "43062",
    "name": "Xancaltitla",
    "region": "Hidalgo",
    "short_region": "13",
    "lat": "20.978100",
    "lon": "-98.361900"
  },
  {
    "id": "700397",
    "country": "MX",
    "zipcode": "43062",
    "name": "Las Flores",
    "region": "Hidalgo",
    "short_region": "13",
    "lat": "21.010000",
    "lon": "-98.373500"
  },
  {
    "id": "700398",
    "country": "MX",
    "zipcode": "43062",
    "name": "Samaria",
    "region": "Hidalgo",
    "short_region": "13",
    "lat": "21.010900",
    "lon": "-98.356900"
  },
  {
    "id": "700399",
    "country": "MX",
    "zipcode": "43062",
    "name": "Santo Tomás",
    "region": "Hidalgo",
    "short_region": "13",
    "lat": "21.027400",
    "lon": "-98.363600"
  },
  {
    "id": "700400",
    "country": "MX",
    "zipcode": "43063",
    "name": "Atlajco",
    "region": "Hidalgo",
    "short_region": "13",
    "lat": "20.988900",
    "lon": "-98.391900"
  },
  {
    "id": "700401",
    "country": "MX",
    "zipcode": "43063",
    "name": "Poxtla Atlajco",
    "region": "Hidalgo",
    "short_region": "13",
    "lat": "20.995800",
    "lon": "-98.387000"
  },
  {
    "id": "700402",
    "country": "MX",
    "zipcode": "43063",
    "name": "Achiquihuixtla",
    "region": "Hidalgo",
    "short_region": "13",
    "lat": "20.981900",
    "lon": "-98.367100"
  },
  {
    "id": "700403",
    "country": "MX",
    "zipcode": "43063",
    "name": "Itzócal",
    "region": "Hidalgo",
    "short_region": "13",
    "lat": "21.016600",
    "lon": "-98.401900"
  },
  {
    "id": "700404",
    "country": "MX",
    "zipcode": "43064",
    "name": "7 de Mayo",
    "region": "Hidalgo",
    "short_region": "13",
    "lat": "21.030200",
    "lon": "-98.373000"
  },
  {
    "id": "700405",
    "country": "MX",
    "zipcode": "43064",
    "name": "Abajo",
    "region": "Hidalgo",
    "short_region": "13",
    "lat": "21.030200",
    "lon": "-98.373000"
  },
  {
    "id": "700406",
    "country": "MX",
    "zipcode": "43064",
    "name": "Tulipanes",
    "region": "Hidalgo",
    "short_region": "13",
    "lat": "21.027400",
    "lon": "-98.363600"
  },
  {
    "id": "700407",
    "country": "MX",
    "zipcode": "43064",
    "name": "Progreso",
    "region": "Hidalgo",
    "short_region": "13",
    "lat": "21.027400",
    "lon": "-98.363600"
  },
  {
    "id": "700408",
    "country": "MX",
    "zipcode": "43064",
    "name": "Valle Verde",
    "region": "Hidalgo",
    "short_region": "13",
    "lat": "21.027400",
    "lon": "-98.363600"
  },
  {
    "id": "700409",
    "country": "MX",
    "zipcode": "43065",
    "name": "10 de Mayo",
    "region": "Hidalgo",
    "short_region": "13",
    "lat": "21.075000",
    "lon": "-98.300200"
  },
  {
    "id": "700410",
    "country": "MX",
    "zipcode": "43065",
    "name": "Tecoluco Calpan",
    "region": "Hidalgo",
    "short_region": "13",
    "lat": "21.027400",
    "lon": "-98.363600"
  },
  {
    "id": "700411",
    "country": "MX",
    "zipcode": "43065",
    "name": "Humberta Hernández Tovar",
    "region": "Hidalgo",
    "short_region": "13",
    "lat": "21.017500",
    "lon": "-98.350500"
  },
  {
    "id": "700412",
    "country": "MX",
    "zipcode": "43066",
    "name": "Plan Huasteca",
    "region": "Hidalgo",
    "short_region": "13",
    "lat": "21.043100",
    "lon": "-98.369400"
  },
  {
    "id": "700413",
    "country": "MX",
    "zipcode": "43066",
    "name": "Atencuapa",
    "region": "Hidalgo",
    "short_region": "13",
    "lat": "21.041900",
    "lon": "-98.395300"
  },
  {
    "id": "700414",
    "country": "MX",
    "zipcode": "43066",
    "name": "La Reforma",
    "region": "Hidalgo",
    "short_region": "13",
    "lat": "21.031700",
    "lon": "-98.358700"
  },
  {
    "id": "700415",
    "country": "MX",
    "zipcode": "43066",
    "name": "Atlaltipa Mirador",
    "region": "Hidalgo",
    "short_region": "13",
    "lat": "21.043300",
    "lon": "-98.401400"
  },
  {
    "id": "700416",
    "country": "MX",
    "zipcode": "43066",
    "name": "Huitzotlaco",
    "region": "Hidalgo",
    "short_region": "13",
    "lat": "21.040200",
    "lon": "-98.377500"
  },
  {
    "id": "700417",
    "country": "MX",
    "zipcode": "43066",
    "name": "Oxpantla",
    "region": "Hidalgo",
    "short_region": "13",
    "lat": "21.031700",
    "lon": "-98.404200"
  },
  {
    "id": "700418",
    "country": "MX",
    "zipcode": "43066",
    "name": "Ixtacuayo",
    "region": "Hidalgo",
    "short_region": "13",
    "lat": "21.060700",
    "lon": "-98.390500"
  },
  {
    "id": "700419",
    "country": "MX",
    "zipcode": "43066",
    "name": "Pochoíca",
    "region": "Hidalgo",
    "short_region": "13",
    "lat": "21.035000",
    "lon": "-98.371200"
  },
  {
    "id": "700420",
    "country": "MX",
    "zipcode": "43066",
    "name": "El Mirador",
    "region": "Hidalgo",
    "short_region": "13",
    "lat": "21.038100",
    "lon": "-98.401400"
  },
  {
    "id": "700421",
    "country": "MX",
    "zipcode": "43066",
    "name": "Palo Gordo",
    "region": "Hidalgo",
    "short_region": "13",
    "lat": "21.045600",
    "lon": "-98.373500"
  },
  {
    "id": "700422",
    "country": "MX",
    "zipcode": "43066",
    "name": "Atotomoc",
    "region": "Hidalgo",
    "short_region": "13",
    "lat": "21.041100",
    "lon": "-98.384300"
  },
  {
    "id": "700423",
    "country": "MX",
    "zipcode": "43066",
    "name": "Ixtacuatitla",
    "region": "Hidalgo",
    "short_region": "13",
    "lat": "21.041100",
    "lon": "-98.384300"
  },
  {
    "id": "700424",
    "country": "MX",
    "zipcode": "43066",
    "name": "Atlaltipa Huitzotlaco",
    "region": "Hidalgo",
    "short_region": "13",
    "lat": "21.041100",
    "lon": "-98.384300"
  },
  {
    "id": "700425",
    "country": "MX",
    "zipcode": "43067",
    "name": "Tenexco 1",
    "region": "Hidalgo",
    "short_region": "13",
    "lat": "21.061200",
    "lon": "-98.377400"
  },
  {
    "id": "700426",
    "country": "MX",
    "zipcode": "43067",
    "name": "La Providencia",
    "region": "Hidalgo",
    "short_region": "13",
    "lat": "21.052800",
    "lon": "-98.342900"
  },
  {
    "id": "700427",
    "country": "MX",
    "zipcode": "43067",
    "name": "Cuatapa",
    "region": "Hidalgo",
    "short_region": "13",
    "lat": "21.073300",
    "lon": "-98.374800"
  },
  {
    "id": "700428",
    "country": "MX",
    "zipcode": "43067",
    "name": "General Emiliano Zapata",
    "region": "Hidalgo",
    "short_region": "13",
    "lat": "21.086100",
    "lon": "-98.328600"
  },
  {
    "id": "700429",
    "country": "MX",
    "zipcode": "43067",
    "name": "San Isidro",
    "region": "Hidalgo",
    "short_region": "13",
    "lat": "21.018600",
    "lon": "-98.431700"
  },
  {
    "id": "700430",
    "country": "MX",
    "zipcode": "43067",
    "name": "Tempexquite",
    "region": "Hidalgo",
    "short_region": "13",
    "lat": "21.082600",
    "lon": "-98.350400"
  },
  {
    "id": "700431",
    "country": "MX",
    "zipcode": "43067",
    "name": "Los Naranjos",
    "region": "Hidalgo",
    "short_region": "13",
    "lat": "21.080400",
    "lon": "-98.327400"
  },
  {
    "id": "700432",
    "country": "MX",
    "zipcode": "43067",
    "name": "El Porvenir",
    "region": "Hidalgo",
    "short_region": "13",
    "lat": "21.027400",
    "lon": "-98.363600"
  },
  {
    "id": "700433",
    "country": "MX",
    "zipcode": "43067",
    "name": "Tenexco II",
    "region": "Hidalgo",
    "short_region": "13",
    "lat": "21.065200",
    "lon": "-98.351100"
  },
  {
    "id": "700434",
    "country": "MX",
    "zipcode": "43067",
    "name": "El Suspiro",
    "region": "Hidalgo",
    "short_region": "13",
    "lat": "21.027400",
    "lon": "-98.363600"
  },
  {
    "id": "700435",
    "country": "MX",
    "zipcode": "43067",
    "name": "Coyolapa",
    "region": "Hidalgo",
    "short_region": "13",
    "lat": "21.042500",
    "lon": "-98.349800"
  },
  {
    "id": "700436",
    "country": "MX",
    "zipcode": "43067",
    "name": "Tlahica",
    "region": "Hidalgo",
    "short_region": "13",
    "lat": "21.053900",
    "lon": "-98.359700"
  },
  {
    "id": "700437",
    "country": "MX",
    "zipcode": "43068",
    "name": "6 de Enero",
    "region": "Hidalgo",
    "short_region": "13",
    "lat": "21.008100",
    "lon": "-98.334400"
  },
  {
    "id": "700438",
    "country": "MX",
    "zipcode": "43068",
    "name": "Teocoatitla",
    "region": "Hidalgo",
    "short_region": "13",
    "lat": "21.008100",
    "lon": "-98.334400"
  },
  {
    "id": "700439",
    "country": "MX",
    "zipcode": "43068",
    "name": "Ejido Atlapexco",
    "region": "Hidalgo",
    "short_region": "13",
    "lat": "21.008100",
    "lon": "-98.334400"
  },
  {
    "id": "700440",
    "country": "MX",
    "zipcode": "43300",
    "name": "La Puebla",
    "region": "Hidalgo",
    "short_region": "13",
    "lat": "20.275400",
    "lon": "-98.669200"
  },
  {
    "id": "700441",
    "country": "MX",
    "zipcode": "43300",
    "name": "Atotonilco el Grande Centro",
    "region": "Hidalgo",
    "short_region": "13",
    "lat": "20.275400",
    "lon": "-98.669200"
  },
  {
    "id": "700442",
    "country": "MX",
    "zipcode": "43301",
    "name": "San Miguel",
    "region": "Hidalgo",
    "short_region": "13",
    "lat": "20.279000",
    "lon": "-98.677800"
  },
  {
    "id": "700443",
    "country": "MX",
    "zipcode": "43301",
    "name": "La Cruz",
    "region": "Hidalgo",
    "short_region": "13",
    "lat": "20.266300",
    "lon": "-98.635400"
  },
  {
    "id": "700444",
    "country": "MX",
    "zipcode": "43302",
    "name": "Montecillos",
    "region": "Hidalgo",
    "short_region": "13",
    "lat": "20.288900",
    "lon": "-98.606400"
  },
  {
    "id": "700445",
    "country": "MX",
    "zipcode": "43304",
    "name": "El Tinacal",
    "region": "Hidalgo",
    "short_region": "13",
    "lat": "20.197800",
    "lon": "-98.578600"
  },
  {
    "id": "700446",
    "country": "MX",
    "zipcode": "43304",
    "name": "Las Hortalizas",
    "region": "Hidalgo",
    "short_region": "13",
    "lat": "20.197800",
    "lon": "-98.578600"
  },
  {
    "id": "700447",
    "country": "MX",
    "zipcode": "43304",
    "name": "La Galera",
    "region": "Hidalgo",
    "short_region": "13",
    "lat": "20.197800",
    "lon": "-98.578600"
  },
  {
    "id": "700448",
    "country": "MX",
    "zipcode": "43304",
    "name": "La Palma",
    "region": "Hidalgo",
    "short_region": "13",
    "lat": "20.354800",
    "lon": "-98.676500"
  },
  {
    "id": "700449",
    "country": "MX",
    "zipcode": "43305",
    "name": "Las Manzanas",
    "region": "Hidalgo",
    "short_region": "13",
    "lat": "20.354800",
    "lon": "-98.676500"
  },
  {
    "id": "700450",
    "country": "MX",
    "zipcode": "43305",
    "name": "Las Flores",
    "region": "Hidalgo",
    "short_region": "13",
    "lat": "20.354800",
    "lon": "-98.676500"
  },
  {
    "id": "700451",
    "country": "MX",
    "zipcode": "43305",
    "name": "Las Baranquitas",
    "region": "Hidalgo",
    "short_region": "13",
    "lat": "20.292800",
    "lon": "-98.667300"
  },
  {
    "id": "700452",
    "country": "MX",
    "zipcode": "43305",
    "name": "Central Campesina Independiente",
    "region": "Hidalgo",
    "short_region": "13",
    "lat": "20.292800",
    "lon": "-98.667300"
  },
  {
    "id": "700453",
    "country": "MX",
    "zipcode": "43305",
    "name": "La Bodega",
    "region": "Hidalgo",
    "short_region": "13",
    "lat": "20.292800",
    "lon": "-98.667300"
  },
  {
    "id": "700454",
    "country": "MX",
    "zipcode": "43306",
    "name": "Chichipilco",
    "region": "Hidalgo",
    "short_region": "13",
    "lat": "20.371600",
    "lon": "-98.669200"
  },
  {
    "id": "700455",
    "country": "MX",
    "zipcode": "43306",
    "name": "San Rafael",
    "region": "Hidalgo",
    "short_region": "13",
    "lat": "20.354800",
    "lon": "-98.676500"
  },
  {
    "id": "700456",
    "country": "MX",
    "zipcode": "43306",
    "name": "El Calvario",
    "region": "Hidalgo",
    "short_region": "13",
    "lat": "20.354800",
    "lon": "-98.676500"
  },
  {
    "id": "700457",
    "country": "MX",
    "zipcode": "43306",
    "name": "Los Nogales",
    "region": "Hidalgo",
    "short_region": "13",
    "lat": "20.371600",
    "lon": "-98.669200"
  },
  {
    "id": "700458",
    "country": "MX",
    "zipcode": "43307",
    "name": "Cerro Blanco",
    "region": "Hidalgo",
    "short_region": "13",
    "lat": "20.305000",
    "lon": "-98.749300"
  },
  {
    "id": "700459",
    "country": "MX",
    "zipcode": "43307",
    "name": "Los Baños de Santa María Amajac",
    "region": "Hidalgo",
    "short_region": "13",
    "lat": "20.303800",
    "lon": "-98.733400"
  },
  {
    "id": "700460",
    "country": "MX",
    "zipcode": "43307",
    "name": "Los Tepetates",
    "region": "Hidalgo",
    "short_region": "13",
    "lat": "20.307200",
    "lon": "-98.725000"
  },
  {
    "id": "700461",
    "country": "MX",
    "zipcode": "43307",
    "name": "Paso de Amajac",
    "region": "Hidalgo",
    "short_region": "13",
    "lat": "20.299100",
    "lon": "-98.725900"
  },
  {
    "id": "700462",
    "country": "MX",
    "zipcode": "43308",
    "name": "Los Reyes",
    "region": "Hidalgo",
    "short_region": "13",
    "lat": "20.331500",
    "lon": "-98.619300"
  },
  {
    "id": "700463",
    "country": "MX",
    "zipcode": "43308",
    "name": "Cieneguillas",
    "region": "Hidalgo",
    "short_region": "13",
    "lat": "20.305200",
    "lon": "-98.642000"
  },
  {
    "id": "700464",
    "country": "MX",
    "zipcode": "43308",
    "name": "Apipilhuasco",
    "region": "Hidalgo",
    "short_region": "13",
    "lat": "20.296700",
    "lon": "-98.619100"
  },
  {
    "id": "700465",
    "country": "MX",
    "zipcode": "43309",
    "name": "La Estancia",
    "region": "Hidalgo",
    "short_region": "13",
    "lat": "20.298900",
    "lon": "-98.689400"
  },
  {
    "id": "700466",
    "country": "MX",
    "zipcode": "43309",
    "name": "La Estancia (Aguacatitlán)",
    "region": "Hidalgo",
    "short_region": "13",
    "lat": "20.289300",
    "lon": "-98.697200"
  },
  {
    "id": "700467",
    "country": "MX",
    "zipcode": "43309",
    "name": "Del Salto",
    "region": "Hidalgo",
    "short_region": "13",
    "lat": "20.286900",
    "lon": "-98.679400"
  },
  {
    "id": "700468",
    "country": "MX",
    "zipcode": "43309",
    "name": "Santa Ana",
    "region": "Hidalgo",
    "short_region": "13",
    "lat": "20.282200",
    "lon": "-98.722800"
  },
  {
    "id": "700469",
    "country": "MX",
    "zipcode": "43310",
    "name": "Cerro Colorado",
    "region": "Hidalgo",
    "short_region": "13",
    "lat": "20.407500",
    "lon": "-98.718100"
  },
  {
    "id": "700470",
    "country": "MX",
    "zipcode": "43310",
    "name": "Coyula",
    "region": "Hidalgo",
    "short_region": "13",
    "lat": "20.403100",
    "lon": "-98.730600"
  },
  {
    "id": "700471",
    "country": "MX",
    "zipcode": "43310",
    "name": "San Nicolás Xathé",
    "region": "Hidalgo",
    "short_region": "13",
    "lat": "20.393300",
    "lon": "-98.744800"
  },
  {
    "id": "700472",
    "country": "MX",
    "zipcode": "43310",
    "name": "El Zoquital",
    "region": "Hidalgo",
    "short_region": "13",
    "lat": "20.368700",
    "lon": "-98.730000"
  },
  {
    "id": "700473",
    "country": "MX",
    "zipcode": "43310",
    "name": "Santa María Amajac",
    "region": "Hidalgo",
    "short_region": "13",
    "lat": "20.324800",
    "lon": "-98.743600"
  },
  {
    "id": "700474",
    "country": "MX",
    "zipcode": "43310",
    "name": "Sanctórum",
    "region": "Hidalgo",
    "short_region": "13",
    "lat": "20.302000",
    "lon": "-98.782500"
  },
  {
    "id": "700475",
    "country": "MX",
    "zipcode": "43311",
    "name": "Sauz Xathé",
    "region": "Hidalgo",
    "short_region": "13",
    "lat": "20.369000",
    "lon": "-98.770700"
  },
  {
    "id": "700476",
    "country": "MX",
    "zipcode": "43311",
    "name": "El Sabino",
    "region": "Hidalgo",
    "short_region": "13",
    "lat": "20.388200",
    "lon": "-98.659400"
  },
  {
    "id": "700477",
    "country": "MX",
    "zipcode": "43311",
    "name": "Doñana",
    "region": "Hidalgo",
    "short_region": "13",
    "lat": "20.332000",
    "lon": "-98.792700"
  },
  {
    "id": "700478",
    "country": "MX",
    "zipcode": "43311",
    "name": "Sauz y Sabino",
    "region": "Hidalgo",
    "short_region": "13",
    "lat": "20.353100",
    "lon": "-98.773800"
  },
  {
    "id": "700479",
    "country": "MX",
    "zipcode": "43311",
    "name": "Cabrera",
    "region": "Hidalgo",
    "short_region": "13",
    "lat": "20.411200",
    "lon": "-98.749300"
  },
  {
    "id": "700480",
    "country": "MX",
    "zipcode": "43311",
    "name": "Ramal de San Nicolás",
    "region": "Hidalgo",
    "short_region": "13",
    "lat": "20.380100",
    "lon": "-98.751900"
  },
  {
    "id": "700481",
    "country": "MX",
    "zipcode": "43311",
    "name": "Pedregal de San Nicolás",
    "region": "Hidalgo",
    "short_region": "13",
    "lat": "20.389200",
    "lon": "-98.753900"
  },
  {
    "id": "700482",
    "country": "MX",
    "zipcode": "43311",
    "name": "Rincón de Xathé",
    "region": "Hidalgo",
    "short_region": "13",
    "lat": "20.417900",
    "lon": "-98.763300"
  },
  {
    "id": "700483",
    "country": "MX",
    "zipcode": "43313",
    "name": "Metlapa",
    "region": "Hidalgo",
    "short_region": "13",
    "lat": "20.418900",
    "lon": "-98.723100"
  },
  {
    "id": "700484",
    "country": "MX",
    "zipcode": "43313",
    "name": "El Novillero",
    "region": "Hidalgo",
    "short_region": "13",
    "lat": "20.429600",
    "lon": "-98.698700"
  },
  {
    "id": "700485",
    "country": "MX",
    "zipcode": "43320",
    "name": "San José Zoquital",
    "region": "Hidalgo",
    "short_region": "13",
    "lat": "20.345500",
    "lon": "-98.697200"
  },
  {
    "id": "700486",
    "country": "MX",
    "zipcode": "43320",
    "name": "Tiltepec",
    "region": "Hidalgo",
    "short_region": "13",
    "lat": "20.313900",
    "lon": "-98.682900"
  },
  {
    "id": "700487",
    "country": "MX",
    "zipcode": "43320",
    "name": "Mesa de San Lucas",
    "region": "Hidalgo",
    "short_region": "13",
    "lat": "20.375800",
    "lon": "-98.698000"
  },
  {
    "id": "700488",
    "country": "MX",
    "zipcode": "43320",
    "name": "El Aguacate",
    "region": "Hidalgo",
    "short_region": "13",
    "lat": "20.354800",
    "lon": "-98.676500"
  },
  {
    "id": "700489",
    "country": "MX",
    "zipcode": "43320",
    "name": "San Martín",
    "region": "Hidalgo",
    "short_region": "13",
    "lat": "20.367200",
    "lon": "-98.656500"
  },
  {
    "id": "700490",
    "country": "MX",
    "zipcode": "43320",
    "name": "El Sabino",
    "region": "Hidalgo",
    "short_region": "13",
    "lat": "20.388200",
    "lon": "-98.659400"
  },
  {
    "id": "700491",
    "country": "MX",
    "zipcode": "43320",
    "name": "El Atorón",
    "region": "Hidalgo",
    "short_region": "13",
    "lat": "20.396400",
    "lon": "-98.719400"
  },
  {
    "id": "700492",
    "country": "MX",
    "zipcode": "43320",
    "name": "El Contadero",
    "region": "Hidalgo",
    "short_region": "13",
    "lat": "20.368200",
    "lon": "-98.694300"
  },
  {
    "id": "700493",
    "country": "MX",
    "zipcode": "43320",
    "name": "La Nogalera",
    "region": "Hidalgo",
    "short_region": "13",
    "lat": "20.386200",
    "lon": "-98.655900"
  },