[
  {
    "id": "780001",
    "country": "MX",
    "zipcode": "90234",
    "name": "Julio Roldán",
    "region": "Tlaxcala",
    "short_region": "29",
    "lat": "19.460000",
    "lon": "-98.496600"
  },
  {
    "id": "780002",
    "country": "MX",
    "zipcode": "90280",
    "name": "Niños Héroes de Chapultepec",
    "region": "Tlaxcala",
    "short_region": "29",
    "lat": "19.601500",
    "lon": "-98.501200"
  },
  {
    "id": "780003",
    "country": "MX",
    "zipcode": "90280",
    "name": "INFONAVIT Mineros",
    "region": "Tlaxcala",
    "short_region": "29",
    "lat": "19.601500",
    "lon": "-98.501200"
  },
  {
    "id": "780004",
    "country": "MX",
    "zipcode": "90280",
    "name": "Domingo Arenas",
    "region": "Tlaxcala",
    "short_region": "29",
    "lat": "19.601500",
    "lon": "-98.501200"
  },
  {
    "id": "780005",
    "country": "MX",
    "zipcode": "90280",
    "name": "Obregón",
    "region": "Tlaxcala",
    "short_region": "29",
    "lat": "19.601500",
    "lon": "-98.501200"
  },
  {
    "id": "780006",
    "country": "MX",
    "zipcode": "90280",
    "name": "Loreto",
    "region": "Tlaxcala",
    "short_region": "29",
    "lat": "19.601500",
    "lon": "-98.501200"
  },
  {
    "id": "780007",
    "country": "MX",
    "zipcode": "90280",
    "name": "Loma Bonita",
    "region": "Tlaxcala",
    "short_region": "29",
    "lat": "19.499800",
    "lon": "-98.554000"
  },
  {
    "id": "780008",
    "country": "MX",
    "zipcode": "90280",
    "name": "La Villa",
    "region": "Tlaxcala",
    "short_region": "29",
    "lat": "19.499800",
    "lon": "-98.554000"
  },
  {
    "id": "780009",
    "country": "MX",
    "zipcode": "90280",
    "name": "Chapultepec",
    "region": "Tlaxcala",
    "short_region": "29",
    "lat": "19.499800",
    "lon": "-98.554000"
  },
  {
    "id": "780010",
    "country": "MX",
    "zipcode": "90280",
    "name": "Francisco Villa",
    "region": "Tlaxcala",
    "short_region": "29",
    "lat": "19.499800",
    "lon": "-98.554000"
  },
  {
    "id": "780011",
    "country": "MX",
    "zipcode": "90283",
    "name": "Santos Lozano",
    "region": "Tlaxcala",
    "short_region": "29",
    "lat": "19.541400",
    "lon": "-98.514400"
  },
  {
    "id": "780012",
    "country": "MX",
    "zipcode": "90283",
    "name": "Adrián Hernández",
    "region": "Tlaxcala",
    "short_region": "29",
    "lat": "19.541400",
    "lon": "-98.514400"
  },
  {
    "id": "780013",
    "country": "MX",
    "zipcode": "90283",
    "name": "Amaxac",
    "region": "Tlaxcala",
    "short_region": "29",
    "lat": "19.554000",
    "lon": "-98.507100"
  },
  {
    "id": "780014",
    "country": "MX",
    "zipcode": "90283",
    "name": "Los Delgadillo",
    "region": "Tlaxcala",
    "short_region": "29",
    "lat": "19.532200",
    "lon": "-98.514600"
  },
  {
    "id": "780015",
    "country": "MX",
    "zipcode": "90283",
    "name": "Salima (La Candelaria)",
    "region": "Tlaxcala",
    "short_region": "29",
    "lat": "19.537900",
    "lon": "-98.521400"
  },
  {
    "id": "780016",
    "country": "MX",
    "zipcode": "90284",
    "name": "Ixtafiayuca",
    "region": "Tlaxcala",
    "short_region": "29",
    "lat": "19.523500",
    "lon": "-98.500000"
  },
  {
    "id": "780017",
    "country": "MX",
    "zipcode": "90284",
    "name": "Francisco I. Madero",
    "region": "Tlaxcala",
    "short_region": "29",
    "lat": "19.521000",
    "lon": "-98.490500"
  },
  {
    "id": "780018",
    "country": "MX",
    "zipcode": "90284",
    "name": "Entronque Nanacamilpa",
    "region": "Tlaxcala",
    "short_region": "29",
    "lat": "19.526700",
    "lon": "-98.480900"
  },
  {
    "id": "780019",
    "country": "MX",
    "zipcode": "90284",
    "name": "Domingo Arenas",
    "region": "Tlaxcala",
    "short_region": "29",
    "lat": "19.523700",
    "lon": "-98.490500"
  },
  {
    "id": "780020",
    "country": "MX",
    "zipcode": "90285",
    "name": "Mifive",
    "region": "Tlaxcala",
    "short_region": "29",
    "lat": "19.502900",
    "lon": "-98.524100"
  },
  {
    "id": "780021",
    "country": "MX",
    "zipcode": "90285",
    "name": "Los Manueles",
    "region": "Tlaxcala",
    "short_region": "29",
    "lat": "19.501200",
    "lon": "-98.527700"
  },
  {
    "id": "780022",
    "country": "MX",
    "zipcode": "90285",
    "name": "Las Bugambilias",
    "region": "Tlaxcala",
    "short_region": "29",
    "lat": "19.505800",
    "lon": "-98.530600"
  },
  {
    "id": "780023",
    "country": "MX",
    "zipcode": "90285",
    "name": "Media Caballería",
    "region": "Tlaxcala",
    "short_region": "29",
    "lat": "19.504100",
    "lon": "-98.521400"
  },
  {
    "id": "780024",
    "country": "MX",
    "zipcode": "90285",
    "name": "La Unión",
    "region": "Tlaxcala",
    "short_region": "29",
    "lat": "19.497800",
    "lon": "-98.521900"
  },
  {
    "id": "780025",
    "country": "MX",
    "zipcode": "90285",
    "name": "Los Rosales",
    "region": "Tlaxcala",
    "short_region": "29",
    "lat": "19.505400",
    "lon": "-98.518900"
  },
  {
    "id": "780026",
    "country": "MX",
    "zipcode": "90286",
    "name": "Tepuente",
    "region": "Tlaxcala",
    "short_region": "29",
    "lat": "19.505300",
    "lon": "-98.582500"
  },
  {
    "id": "780027",
    "country": "MX",
    "zipcode": "90286",
    "name": "Manuel Estrada",
    "region": "Tlaxcala",
    "short_region": "29",
    "lat": "19.507300",
    "lon": "-98.559500"
  },
  {
    "id": "780028",
    "country": "MX",
    "zipcode": "90286",
    "name": "Constantino Zavala",
    "region": "Tlaxcala",
    "short_region": "29",
    "lat": "19.507300",
    "lon": "-98.559500"
  },
  {
    "id": "780029",
    "country": "MX",
    "zipcode": "90286",
    "name": "San Cayetano",
    "region": "Tlaxcala",
    "short_region": "29",
    "lat": "19.509400",
    "lon": "-98.536600"
  },
  {
    "id": "780030",
    "country": "MX",
    "zipcode": "90287",
    "name": "El Carmen",
    "region": "Tlaxcala",
    "short_region": "29",
    "lat": "19.477900",
    "lon": "-98.529200"
  },
  {
    "id": "780031",
    "country": "MX",
    "zipcode": "90287",
    "name": "Agua Escondida",
    "region": "Tlaxcala",
    "short_region": "29",
    "lat": "19.499800",
    "lon": "-98.554000"
  },
  {
    "id": "780032",
    "country": "MX",
    "zipcode": "90287",
    "name": "Ramón Contreras",
    "region": "Tlaxcala",
    "short_region": "29",
    "lat": "19.477900",
    "lon": "-98.529200"
  },
  {
    "id": "780033",
    "country": "MX",
    "zipcode": "90288",
    "name": "San Felipe Hidalgo",
    "region": "Tlaxcala",
    "short_region": "29",
    "lat": "19.481300",
    "lon": "-98.565500"
  },
  {
    "id": "780034",
    "country": "MX",
    "zipcode": "90288",
    "name": "Miguel Lira y Ortega",
    "region": "Tlaxcala",
    "short_region": "29",
    "lat": "19.481300",
    "lon": "-98.565500"
  },
  {
    "id": "780035",
    "country": "MX",
    "zipcode": "90288",
    "name": "Jagüey Seco",
    "region": "Tlaxcala",
    "short_region": "29",
    "lat": "19.481300",
    "lon": "-98.565500"
  },
  {
    "id": "780036",
    "country": "MX",
    "zipcode": "90288",
    "name": "San Isidro",
    "region": "Tlaxcala",
    "short_region": "29",
    "lat": "19.481300",
    "lon": "-98.565500"
  },
  {
    "id": "780037",
    "country": "MX",
    "zipcode": "90860",
    "name": "Acuamanala",
    "region": "Tlaxcala",
    "short_region": "29",
    "lat": "19.223600",
    "lon": "-98.200600"
  },
  {
    "id": "780038",
    "country": "MX",
    "zipcode": "90860",
    "name": "Concepción Chimalpa",
    "region": "Tlaxcala",
    "short_region": "29",
    "lat": "19.216400",
    "lon": "-98.198100"
  },
  {
    "id": "780039",
    "country": "MX",
    "zipcode": "90861",
    "name": "Guadalupe Hidalgo",
    "region": "Tlaxcala",
    "short_region": "29",
    "lat": "19.226100",
    "lon": "-98.187500"
  },
  {
    "id": "780040",
    "country": "MX",
    "zipcode": "90864",
    "name": "Olextla de Juárez",
    "region": "Tlaxcala",
    "short_region": "29",
    "lat": "19.213300",
    "lon": "-98.190300"
  },
  {
    "id": "780041",
    "country": "MX",
    "zipcode": "90710",
    "name": "Nativitas",
    "region": "Tlaxcala",
    "short_region": "29",
    "lat": "19.233300",
    "lon": "-98.314700"
  },
  {
    "id": "780042",
    "country": "MX",
    "zipcode": "90710",
    "name": "La Concordia",
    "region": "Tlaxcala",
    "short_region": "29",
    "lat": "19.233300",
    "lon": "-98.314700"
  },
  {
    "id": "780043",
    "country": "MX",
    "zipcode": "90712",
    "name": "San Miguel del Milagro",
    "region": "Tlaxcala",
    "short_region": "29",
    "lat": "19.236400",
    "lon": "-98.345700"
  },
  {
    "id": "780044",
    "country": "MX",
    "zipcode": "90712",
    "name": "San Miguel Xochitecatitla",
    "region": "Tlaxcala",
    "short_region": "29",
    "lat": "19.238800",
    "lon": "-98.354200"
  },
  {
    "id": "780045",
    "country": "MX",
    "zipcode": "90712",
    "name": "San Bernabé Capula",
    "region": "Tlaxcala",
    "short_region": "29",
    "lat": "19.234100",
    "lon": "-98.337300"
  },
  {
    "id": "780046",
    "country": "MX",
    "zipcode": "90713",
    "name": "Jesús Tepactepec",
    "region": "Tlaxcala",
    "short_region": "29",
    "lat": "19.229200",
    "lon": "-98.314200"
  },
  {
    "id": "780047",
    "country": "MX",
    "zipcode": "90715",
    "name": "Guadalupe Victoria",
    "region": "Tlaxcala",
    "short_region": "29",
    "lat": "19.232500",
    "lon": "-98.334700"
  },
  {
    "id": "780048",
    "country": "MX",
    "zipcode": "90716",
    "name": "San Vicente Xiloxochitla",
    "region": "Tlaxcala",
    "short_region": "29",
    "lat": "19.284800",
    "lon": "-98.315900"
  },
  {
    "id": "780049",
    "country": "MX",
    "zipcode": "90716",
    "name": "Santa Cruz",
    "region": "Tlaxcala",
    "short_region": "29",
    "lat": "19.233300",
    "lon": "-98.332000"
  },
  {
    "id": "780050",
    "country": "MX",
    "zipcode": "90716",
    "name": "Emiliano Zapata",
    "region": "Tlaxcala",
    "short_region": "29",
    "lat": "19.233300",
    "lon": "-98.332000"
  },
  {
    "id": "780051",
    "country": "MX",
    "zipcode": "90716",
    "name": "San Francisco Tenexyecac",
    "region": "Tlaxcala",
    "short_region": "29",
    "lat": "19.278100",
    "lon": "-98.315300"
  },
  {
    "id": "780052",
    "country": "MX",
    "zipcode": "90717",
    "name": "El Rosario",
    "region": "Tlaxcala",
    "short_region": "29",
    "lat": "19.256900",
    "lon": "-98.337400"
  },
  {
    "id": "780053",
    "country": "MX",
    "zipcode": "90717",
    "name": "San José Atoyatenco",
    "region": "Tlaxcala",
    "short_region": "29",
    "lat": "19.250800",
    "lon": "-98.355300"
  },
  {
    "id": "780054",
    "country": "MX",
    "zipcode": "90717",
    "name": "Colecturía",
    "region": "Tlaxcala",
    "short_region": "29",
    "lat": "19.253900",
    "lon": "-98.346400"
  },
  {
    "id": "780055",
    "country": "MX",
    "zipcode": "90717",
    "name": "Matamoros",
    "region": "Tlaxcala",
    "short_region": "29",
    "lat": "19.233300",
    "lon": "-98.332000"
  },
  {
    "id": "780056",
    "country": "MX",
    "zipcode": "90718",
    "name": "San Rafael Tenanyecac",
    "region": "Tlaxcala",
    "short_region": "29",
    "lat": "19.247900",
    "lon": "-98.371200"
  },
  {
    "id": "780057",
    "country": "MX",
    "zipcode": "90721",
    "name": "Santiago Michac",
    "region": "Tlaxcala",
    "short_region": "29",
    "lat": "19.219900",
    "lon": "-98.339300"
  },
  {
    "id": "780058",
    "country": "MX",
    "zipcode": "90722",
    "name": "San Antonio Teacalco",
    "region": "Tlaxcala",
    "short_region": "29",
    "lat": "19.206300",
    "lon": "-98.324400"
  },
  {
    "id": "780059",
    "country": "MX",
    "zipcode": "90722",
    "name": "Santa Clara Atoyac",
    "region": "Tlaxcala",
    "short_region": "29",
    "lat": "19.191400",
    "lon": "-98.330000"
  },
  {
    "id": "780060",
    "country": "MX",
    "zipcode": "90722",
    "name": "San Juan Tepactepec",
    "region": "Tlaxcala",
    "short_region": "29",
    "lat": "19.212600",
    "lon": "-98.306400"
  },
  {
    "id": "780061",
    "country": "MX",
    "zipcode": "90722",
    "name": "San Miguel Tlale",
    "region": "Tlaxcala",
    "short_region": "29",
    "lat": "19.210800",
    "lon": "-98.305300"
  },
  {
    "id": "780062",
    "country": "MX",
    "zipcode": "90722",
    "name": "San Miguel Analco",
    "region": "Tlaxcala",
    "short_region": "29",
    "lat": "19.205300",
    "lon": "-98.316500"
  },
  {
    "id": "780063",
    "country": "MX",
    "zipcode": "90722",
    "name": "La Remolacha",
    "region": "Tlaxcala",
    "short_region": "29",
    "lat": "19.205300",
    "lon": "-98.316500"
  },
  {
    "id": "780064",
    "country": "MX",
    "zipcode": "90722",
    "name": "La Cabaña",
    "region": "Tlaxcala",
    "short_region": "29",
    "lat": "19.233300",
    "lon": "-98.332000"
  },
  {
    "id": "780065",
    "country": "MX",
    "zipcode": "90723",
    "name": "Segura Michac",
    "region": "Tlaxcala",
    "short_region": "29",
    "lat": "19.211800",
    "lon": "-98.330800"
  },
  {
    "id": "780066",
    "country": "MX",
    "zipcode": "90723",
    "name": "Loma Verde",
    "region": "Tlaxcala",
    "short_region": "29",
    "lat": "19.217600",
    "lon": "-98.344500"
  },
  {
    "id": "780067",
    "country": "MX",
    "zipcode": "90723",
    "name": "Santa Elena",
    "region": "Tlaxcala",
    "short_region": "29",
    "lat": "19.225300",
    "lon": "-98.349400"
  },
  {
    "id": "780068",
    "country": "MX",
    "zipcode": "90723",
    "name": "Zanja Real",
    "region": "Tlaxcala",
    "short_region": "29",
    "lat": "19.239100",
    "lon": "-98.369300"
  },
  {
    "id": "780069",
    "country": "MX",
    "zipcode": "90723",
    "name": "San Antonio",
    "region": "Tlaxcala",
    "short_region": "29",
    "lat": "19.206300",
    "lon": "-98.324400"
  },
  {
    "id": "780070",
    "country": "MX",
    "zipcode": "90723",
    "name": "NCP Santa Elena Teacalco",
    "region": "Tlaxcala",
    "short_region": "29",
    "lat": "19.221000",
    "lon": "-98.343700"
  },
  {
    "id": "780071",
    "country": "MX",
    "zipcode": "90723",
    "name": "Piedra Blanca",
    "region": "Tlaxcala",
    "short_region": "29",
    "lat": "19.225800",
    "lon": "-98.343700"
  },
  {
    "id": "780072",
    "country": "MX",
    "zipcode": "90140",
    "name": "La Virgen",
    "region": "Tlaxcala",
    "short_region": "29",
    "lat": "19.323100",
    "lon": "-98.273900"
  },
  {
    "id": "780073",
    "country": "MX",
    "zipcode": "90140",
    "name": "San Nicolás Panotla",
    "region": "Tlaxcala",
    "short_region": "29",
    "lat": "19.316200",
    "lon": "-98.270100"
  },
  {
    "id": "780074",
    "country": "MX",
    "zipcode": "90140",
    "name": "San Mateo Huexoyucan",
    "region": "Tlaxcala",
    "short_region": "29",
    "lat": "19.381700",
    "lon": "-98.293800"
  },
  {
    "id": "780075",
    "country": "MX",
    "zipcode": "90140",
    "name": "San Tadeo Huiloapan",
    "region": "Tlaxcala",
    "short_region": "29",
    "lat": "19.386800",
    "lon": "-98.269900"
  },
  {
    "id": "780076",
    "country": "MX",
    "zipcode": "90140",
    "name": "Segundo",
    "region": "Tlaxcala",
    "short_region": "29",
    "lat": "19.352100",
    "lon": "-98.284100"
  },
  {
    "id": "780077",
    "country": "MX",
    "zipcode": "90140",
    "name": "Santa Elena",
    "region": "Tlaxcala",
    "short_region": "29",
    "lat": "19.352100",
    "lon": "-98.284100"
  },
  {
    "id": "780078",
    "country": "MX",
    "zipcode": "90140",
    "name": "Primero",
    "region": "Tlaxcala",
    "short_region": "29",
    "lat": "19.351900",
    "lon": "-98.276900"
  },
  {
    "id": "780079",
    "country": "MX",
    "zipcode": "90140",
    "name": "Militar",
    "region": "Tlaxcala",
    "short_region": "29",
    "lat": "19.351900",
    "lon": "-98.276900"
  },
  {
    "id": "780080",
    "country": "MX",
    "zipcode": "90140",
    "name": "Zona Militar",
    "region": "Tlaxcala",
    "short_region": "29",
    "lat": "19.351900",
    "lon": "-98.276900"
  },
  {
    "id": "780081",
    "country": "MX",
    "zipcode": "90140",
    "name": "Cuarto",
    "region": "Tlaxcala",
    "short_region": "29",
    "lat": "19.351900",
    "lon": "-98.276900"
  },
  {
    "id": "780082",
    "country": "MX",
    "zipcode": "90140",
    "name": "Quinto",
    "region": "Tlaxcala",
    "short_region": "29",
    "lat": "19.351900",
    "lon": "-98.276900"
  },
  {
    "id": "780083",
    "country": "MX",
    "zipcode": "90140",
    "name": "Tercero",
    "region": "Tlaxcala",
    "short_region": "29",
    "lat": "19.351900",
    "lon": "-98.276900"
  },
  {
    "id": "780084",
    "country": "MX",
    "zipcode": "90145",
    "name": "Santa Cruz Techachalco",
    "region": "Tlaxcala",
    "short_region": "29",
    "lat": "19.328000",
    "lon": "-98.303000"
  },
  {
    "id": "780085",
    "country": "MX",
    "zipcode": "90147",
    "name": "San Jorge Tezoquipan",
    "region": "Tlaxcala",
    "short_region": "29",
    "lat": "19.320900",
    "lon": "-98.313200"
  },
  {
    "id": "780086",
    "country": "MX",
    "zipcode": "90150",
    "name": "Emiliano Zapata",
    "region": "Tlaxcala",
    "short_region": "29",
    "lat": "19.352100",
    "lon": "-98.284100"
  },
  {
    "id": "780087",
    "country": "MX",
    "zipcode": "90150",
    "name": "Las Ánimas",
    "region": "Tlaxcala",
    "short_region": "29",
    "lat": "19.345600",
    "lon": "-98.285900"
  },
  {
    "id": "780088",
    "country": "MX",
    "zipcode": "90151",
    "name": "San Ambrosio Texantla",
    "region": "Tlaxcala",
    "short_region": "29",
    "lat": "19.355700",
    "lon": "-98.256900"
  },
  {
    "id": "780089",
    "country": "MX",
    "zipcode": "90152",
    "name": "Jesús Acatitla",
    "region": "Tlaxcala",
    "short_region": "29",
    "lat": "19.330900",
    "lon": "-98.312300"
  },
  {
    "id": "780090",
    "country": "MX",
    "zipcode": "90155",
    "name": "San Francisco Temetzontla",
    "region": "Tlaxcala",
    "short_region": "29",
    "lat": "19.350300",
    "lon": "-98.288600"
  },
  {
    "id": "780091",
    "country": "MX",
    "zipcode": "90156",
    "name": "Tezitla",
    "region": "Tlaxcala",
    "short_region": "29",
    "lat": "19.345600",
    "lon": "-98.285900"
  },
  {
    "id": "780092",
    "country": "MX",
    "zipcode": "90156",
    "name": "Cuapantla",
    "region": "Tlaxcala",
    "short_region": "29",
    "lat": "19.345600",
    "lon": "-98.285900"
  },
  {
    "id": "780093",
    "country": "MX",
    "zipcode": "90156",
    "name": "Texcacoac",
    "region": "Tlaxcala",
    "short_region": "29",
    "lat": "19.345600",
    "lon": "-98.285900"
  },
  {
    "id": "780094",
    "country": "MX",
    "zipcode": "90156",
    "name": "Tlachco",
    "region": "Tlaxcala",
    "short_region": "29",
    "lat": "19.345600",
    "lon": "-98.285900"
  },
  {
    "id": "780095",
    "country": "MX",
    "zipcode": "90890",
    "name": "San Isidro Buensuceso",
    "region": "Tlaxcala",
    "short_region": "29",
    "lat": "19.154900",
    "lon": "-98.104900"
  },
  {
    "id": "780096",
    "country": "MX",
    "zipcode": "90893",
    "name": "Patlaguactetl",
    "region": "Tlaxcala",
    "short_region": "29",
    "lat": "19.172600",
    "lon": "-98.112900"
  },
  {
    "id": "780097",
    "country": "MX",
    "zipcode": "90893",
    "name": "Popozotzi",
    "region": "Tlaxcala",
    "short_region": "29",
    "lat": "19.172600",
    "lon": "-98.112900"
  },
  {
    "id": "780098",
    "country": "MX",
    "zipcode": "90894",
    "name": "Tetzacualco",
    "region": "Tlaxcala",
    "short_region": "29",
    "lat": "19.163400",
    "lon": "-98.121300"
  },
  {
    "id": "780099",
    "country": "MX",
    "zipcode": "90895",
    "name": "Cacamila San Antonio",
    "region": "Tlaxcala",
    "short_region": "29",
    "lat": "19.151100",
    "lon": "-98.126300"
  },
  {
    "id": "780100",
    "country": "MX",
    "zipcode": "90896",
    "name": "Hueyotzol",
    "region": "Tlaxcala",
    "short_region": "29",
    "lat": "19.163400",
    "lon": "-98.121300"
  },
  {
    "id": "780101",
    "country": "MX",
    "zipcode": "90896",
    "name": "Zoquiapan",
    "region": "Tlaxcala",
    "short_region": "29",
    "lat": "19.156100",
    "lon": "-98.140400"
  },
  {
    "id": "780102",
    "country": "MX",
    "zipcode": "90897",
    "name": "Ex-hacienda Guadalupe Xaltelulco",
    "region": "Tlaxcala",
    "short_region": "29",
    "lat": "19.175100",
    "lon": "-98.141100"
  },
  {
    "id": "780103",
    "country": "MX",
    "zipcode": "90900",
    "name": "Villa Vicente Guerrero",
    "region": "Tlaxcala",
    "short_region": "29",
    "lat": "19.121200",
    "lon": "-98.165700"
  },
  {
    "id": "780104",
    "country": "MX",
    "zipcode": "90920",
    "name": "Cristo",
    "region": "Tlaxcala",
    "short_region": "29",
    "lat": "19.137400",
    "lon": "-98.154600"
  },
  {
    "id": "780105",
    "country": "MX",
    "zipcode": "90930",
    "name": "San Nicolás",
    "region": "Tlaxcala",
    "short_region": "29",
    "lat": "19.135200",
    "lon": "-98.146500"
  },
  {
    "id": "780106",
    "country": "MX",
    "zipcode": "90933",
    "name": "Xoyacolotzi",
    "region": "Tlaxcala",
    "short_region": "29",
    "lat": "19.135200",
    "lon": "-98.146500"
  },
  {
    "id": "780107",
    "country": "MX",
    "zipcode": "90940",
    "name": "San Miguel",
    "region": "Tlaxcala",
    "short_region": "29",
    "lat": "19.123300",
    "lon": "-98.165500"
  },
  {
    "id": "780108",
    "country": "MX",
    "zipcode": "90940",
    "name": "Santiago",
    "region": "Tlaxcala",
    "short_region": "29",
    "lat": "19.134200",
    "lon": "-98.165000"
  },
  {
    "id": "780109",
    "country": "MX",
    "zipcode": "90950",
    "name": "La Santísima",
    "region": "Tlaxcala",
    "short_region": "29",
    "lat": "19.120600",
    "lon": "-98.160500"
  },
  {
    "id": "780110",
    "country": "MX",
    "zipcode": "90960",
    "name": "San Cosme",
    "region": "Tlaxcala",
    "short_region": "29",
    "lat": "19.118300",
    "lon": "-98.195800"
  },
  {
    "id": "780111",
    "country": "MX",
    "zipcode": "90963",
    "name": "Acopilco",
    "region": "Tlaxcala",
    "short_region": "29",
    "lat": "19.128100",
    "lon": "-98.192000"
  },
  {
    "id": "780112",
    "country": "MX",
    "zipcode": "90964",
    "name": "Ex-hacienda de Acopilco",
    "region": "Tlaxcala",
    "short_region": "29",
    "lat": "19.123200",
    "lon": "-98.193900"
  },
  {
    "id": "780113",
    "country": "MX",
    "zipcode": "90970",
    "name": "San Sebastián",
    "region": "Tlaxcala",
    "short_region": "29",
    "lat": "19.119100",
    "lon": "-98.183300"
  },
  {
    "id": "780114",
    "country": "MX",
    "zipcode": "90970",
    "name": "Jesús",
    "region": "Tlaxcala",
    "short_region": "29",
    "lat": "19.122900",
    "lon": "-98.170200"
  },
  {
    "id": "780115",
    "country": "MX",
    "zipcode": "90970",
    "name": "San Bartolomé",
    "region": "Tlaxcala",
    "short_region": "29",
    "lat": "19.115000",
    "lon": "-98.174700"
  },
  {
    "id": "780116",
    "country": "MX",
    "zipcode": "90980",
    "name": "San Pedro",
    "region": "Tlaxcala",
    "short_region": "29",
    "lat": "19.112700",
    "lon": "-98.167400"
  },
  {
    "id": "780117",
    "country": "MX",
    "zipcode": "90990",
    "name": "Tlaltepango",
    "region": "Tlaxcala",
    "short_region": "29",
    "lat": "19.115400",
    "lon": "-98.158400"
  },
  {
    "id": "780118",
    "country": "MX",
    "zipcode": "90640",
    "name": "Llano Viejo",
    "region": "Tlaxcala",
    "short_region": "29",
    "lat": "19.346700",
    "lon": "-98.135000"
  },
  {
    "id": "780119",
    "country": "MX",
    "zipcode": "90640",
    "name": "Villas de San Miguel II",
    "region": "Tlaxcala",
    "short_region": "29",
    "lat": "19.346700",
    "lon": "-98.135000"
  },
  {
    "id": "780120",
    "country": "MX",
    "zipcode": "90640",
    "name": "Guadalupe Tlachco",
    "region": "Tlaxcala",
    "short_region": "29",
    "lat": "19.328500",
    "lon": "-98.110400"
  },
  {
    "id": "780121",
    "country": "MX",
    "zipcode": "90640",
    "name": "El Arcángel",
    "region": "Tlaxcala",
    "short_region": "29",
    "lat": "19.346700",
    "lon": "-98.135000"
  },
  {
    "id": "780122",
    "country": "MX",
    "zipcode": "90640",
    "name": "San Miguel Contla",
    "region": "Tlaxcala",
    "short_region": "29",
    "lat": "19.361100",
    "lon": "-98.132500"
  },
  {
    "id": "780123",
    "country": "MX",
    "zipcode": "90640",
    "name": "San Lucas Tlacochcalco",
    "region": "Tlaxcala",
    "short_region": "29",
    "lat": "19.342600",
    "lon": "-98.146400"
  },
  {
    "id": "780124",
    "country": "MX",
    "zipcode": "90640",
    "name": "Santa Cruz Tlaxcala",
    "region": "Tlaxcala",
    "short_region": "29",
    "lat": "19.354700",
    "lon": "-98.150800"
  },
  {
    "id": "780125",
    "country": "MX",
    "zipcode": "90641",
    "name": "Ex-Hacienda San Manuel",
    "region": "Tlaxcala",
    "short_region": "29",
    "lat": "19.348200",
    "lon": "-98.134900"
  },
  {
    "id": "780126",
    "country": "MX",
    "zipcode": "90643",
    "name": "Tepetlacinco",
    "region": "Tlaxcala",
    "short_region": "29",
    "lat": "19.348200",
    "lon": "-98.134900"
  },
  {
    "id": "780127",
    "country": "MX",
    "zipcode": "90644",
    "name": "Tetzotzocola",
    "region": "Tlaxcala",
    "short_region": "29",
    "lat": "19.353900",
    "lon": "-98.134400"
  },
  {
    "id": "780128",
    "country": "MX",
    "zipcode": "90644",
    "name": "El Alto",
    "region": "Tlaxcala",
    "short_region": "29",
    "lat": "19.352900",
    "lon": "-98.130500"
  },
  {
    "id": "780129",
    "country": "MX",
    "zipcode": "90644",
    "name": "Ixaquixtla",
    "region": "Tlaxcala",
    "short_region": "29",
    "lat": "19.353900",
    "lon": "-98.134400"
  },
  {
    "id": "780130",
    "country": "MX",
    "zipcode": "90644",
    "name": "Analco",
    "region": "Tlaxcala",
    "short_region": "29",
    "lat": "19.353900",
    "lon": "-98.134400"
  },
  {
    "id": "780131",
    "country": "MX",
    "zipcode": "90644",
    "name": "El Progreso",
    "region": "Tlaxcala",
    "short_region": "29",
    "lat": "19.353900",
    "lon": "-98.134400"
  },
  {
    "id": "780132",
    "country": "MX",
    "zipcode": "90645",
    "name": "Centro Vacacional la Trinidad",
    "region": "Tlaxcala",
    "short_region": "29",
    "lat": "19.348200",
    "lon": "-98.134900"
  },
  {
    "id": "780133",
    "country": "MX",
    "zipcode": "90646",
    "name": "Potrero Viejo",
    "region": "Tlaxcala",
    "short_region": "29",
    "lat": "19.348200",
    "lon": "-98.134900"
  },
  {
    "id": "780134",
    "country": "MX",
    "zipcode": "90646",
    "name": "Tlalcóyatl",
    "region": "Tlaxcala",
    "short_region": "29",
    "lat": "19.348200",
    "lon": "-98.134900"
  },
  {
    "id": "780135",
    "country": "MX",
    "zipcode": "90650",
    "name": "Jesús Huitznáhuac",
    "region": "Tlaxcala",
    "short_region": "29",
    "lat": "19.342500",
    "lon": "-98.128100"
  },
  {
    "id": "780136",
    "country": "MX",
    "zipcode": "90653",
    "name": "Coxtla",
    "region": "Tlaxcala",
    "short_region": "29",
    "lat": "19.337200",
    "lon": "-98.111700"
  },
  {
    "id": "780137",
    "country": "MX",
    "zipcode": "90653",
    "name": "Xamistla",
    "region": "Tlaxcala",
    "short_region": "29",
    "lat": "19.337200",
    "lon": "-98.111700"
  },
  {
    "id": "780138",
    "country": "MX",
    "zipcode": "90880",
    "name": "San Miguel Tenancingo",
    "region": "Tlaxcala",
    "short_region": "29",
    "lat": "19.147300",
    "lon": "-98.201300"
  },
  {
    "id": "780139",
    "country": "MX",
    "zipcode": "90883",
    "name": "Tecoac",
    "region": "Tlaxcala",
    "short_region": "29",
    "lat": "19.160900",
    "lon": "-98.184900"
  },
  {
    "id": "780140",
    "country": "MX",
    "zipcode": "90884",
    "name": "La Renda",
    "region": "Tlaxcala",
    "short_region": "29",
    "lat": "19.150100",
    "lon": "-98.192900"
  },
  {
    "id": "780141",
    "country": "MX",
    "zipcode": "90886",
    "name": "El Puente",
    "region": "Tlaxcala",
    "short_region": "29",
    "lat": "19.140600",
    "lon": "-98.191500"
  },
  {
    "id": "780142",
    "country": "MX",
    "zipcode": "90886",
    "name": "Concepción Acopilco",
    "region": "Tlaxcala",
    "short_region": "29",
    "lat": "19.140600",
    "lon": "-98.191500"
  },
  {
    "id": "780143",
    "country": "MX",
    "zipcode": "90887",
    "name": "Tepepantlalpa (Magdalena Reyes)",
    "region": "Tlaxcala",
    "short_region": "29",
    "lat": "19.150100",
    "lon": "-98.182200"
  },
  {
    "id": "780144",
    "country": "MX",
    "zipcode": "90850",
    "name": "Actipa",
    "region": "Tlaxcala",
    "short_region": "29",
    "lat": "19.311400",
    "lon": "-98.165900"
  },
  {
    "id": "780145",
    "country": "MX",
    "zipcode": "90850",
    "name": "Tercera",
    "region": "Tlaxcala",
    "short_region": "29",
    "lat": "19.311400",
    "lon": "-98.165900"
  },
  {
    "id": "780146",
    "country": "MX",
    "zipcode": "90850",
    "name": "Primera",
    "region": "Tlaxcala",
    "short_region": "29",
    "lat": "19.311400",
    "lon": "-98.165900"
  },
  {
    "id": "780147",
    "country": "MX",
    "zipcode": "90850",
    "name": "Santa Maria Acxotla Del Monte",
    "region": "Tlaxcala",
    "short_region": "29",
    "lat": "19.252100",
    "lon": "-98.167800"
  },
  {
    "id": "780148",
    "country": "MX",
    "zipcode": "90850",
    "name": "Segunda",
    "region": "Tlaxcala",
    "short_region": "29",
    "lat": "19.222900",
    "lon": "-98.116200"
  },
  {
    "id": "780149",
    "country": "MX",
    "zipcode": "90850",
    "name": "Cuauhtla",
    "region": "Tlaxcala",
    "short_region": "29",
    "lat": "19.222900",
    "lon": "-98.116200"
  },
  {
    "id": "780150",
    "country": "MX",
    "zipcode": "90850",
    "name": "Cuaxinca",
    "region": "Tlaxcala",
    "short_region": "29",
    "lat": "19.244400",
    "lon": "-98.163300"
  },
  {
    "id": "780151",
    "country": "MX",
    "zipcode": "90855",
    "name": "El Carmen Aztama",
    "region": "Tlaxcala",
    "short_region": "29",
    "lat": "19.229700",
    "lon": "-98.219400"
  },
  {
    "id": "780152",
    "country": "MX",
    "zipcode": "90180",
    "name": "San Cosme Atlamaxac",
    "region": "Tlaxcala",
    "short_region": "29",
    "lat": "19.238400",
    "lon": "-98.225100"
  },
  {
    "id": "780153",
    "country": "MX",
    "zipcode": "90180",
    "name": "San Pedro Xalcaltzinco",
    "region": "Tlaxcala",
    "short_region": "29",
    "lat": "19.227800",
    "lon": "-98.228100"
  },
  {
    "id": "780154",
    "country": "MX",
    "zipcode": "90180",
    "name": "Las Águilas",
    "region": "Tlaxcala",
    "short_region": "29",
    "lat": "19.252800",
    "lon": "-98.231100"
  },
  {
    "id": "780155",
    "country": "MX",
    "zipcode": "90180",
    "name": "Guerrero",
    "region": "Tlaxcala",
    "short_region": "29",
    "lat": "19.260200",
    "lon": "-98.233900"
  },
  {
    "id": "780156",
    "country": "MX",
    "zipcode": "90180",
    "name": "Santiago Tlacochcalco",
    "region": "Tlaxcala",
    "short_region": "29",
    "lat": "19.265500",
    "lon": "-98.223100"
  },
  {
    "id": "780157",
    "country": "MX",
    "zipcode": "90180",
    "name": "San Francisco Tepeyanco Centro",
    "region": "Tlaxcala",
    "short_region": "29",
    "lat": "19.248900",
    "lon": "-98.228300"
  },
  {
    "id": "780158",
    "country": "MX",
    "zipcode": "90182",
    "name": "Magisterial Tlahuicole",
    "region": "Tlaxcala",
    "short_region": "29",
    "lat": "19.256800",
    "lon": "-98.223200"
  },
  {
    "id": "780159",
    "country": "MX",
    "zipcode": "90182",
    "name": "La Aurora",
    "region": "Tlaxcala",
    "short_region": "29",
    "lat": "19.256800",
    "lon": "-98.223200"
  },
  {
    "id": "780160",
    "country": "MX",
    "zipcode": "90183",
    "name": "Gerardo Franco",
    "region": "Tlaxcala",
    "short_region": "29",
    "lat": "19.261800",
    "lon": "-98.239500"
  },
  {
    "id": "780161",
    "country": "MX",
    "zipcode": "90185",
    "name": "El Durazno",
    "region": "Tlaxcala",
    "short_region": "29",
    "lat": "19.247100",
    "lon": "-98.228400"
  },
  {
    "id": "780162",
    "country": "MX",
    "zipcode": "90540",
    "name": "Terrenate",
    "region": "Tlaxcala",
    "short_region": "29",
    "lat": "19.476700",
    "lon": "-97.920200"
  },
  {
    "id": "780163",
    "country": "MX",
    "zipcode": "90540",
    "name": "Chipilo",
    "region": "Tlaxcala",
    "short_region": "29",
    "lat": "19.410300",
    "lon": "-97.961500"
  },
  {
    "id": "780164",
    "country": "MX",
    "zipcode": "90540",
    "name": "Chapultepec",
    "region": "Tlaxcala",
    "short_region": "29",
    "lat": "19.483900",
    "lon": "-97.934600"
  },
  {
    "id": "780165",
    "country": "MX",
    "zipcode": "90542",
    "name": "El Capulín",
    "region": "Tlaxcala",
    "short_region": "29",
    "lat": "19.450100",
    "lon": "-97.907100"
  },
  {
    "id": "780166",
    "country": "MX",
    "zipcode": "90542",
    "name": "Villarreal",
    "region": "Tlaxcala",
    "short_region": "29",
    "lat": "19.533600",
    "lon": "-97.897100"
  },
  {
    "id": "780167",
    "country": "MX",
    "zipcode": "90542",
    "name": "El Pilancón",
    "region": "Tlaxcala",
    "short_region": "29",
    "lat": "19.503400",
    "lon": "-97.905900"
  },
  {
    "id": "780168",
    "country": "MX",
    "zipcode": "90542",
    "name": "Los Ameles (Acolco)",
    "region": "Tlaxcala",
    "short_region": "29",
    "lat": "19.495700",
    "lon": "-97.903400"
  },
  {
    "id": "780169",
    "country": "MX",
    "zipcode": "90543",
    "name": "Nicolás Bravo",
    "region": "Tlaxcala",
    "short_region": "29",
    "lat": "19.422100",
    "lon": "-97.967600"
  },
  {
    "id": "780170",
    "country": "MX",
    "zipcode": "90543",
    "name": "El Capulín",
    "region": "Tlaxcala",
    "short_region": "29",
    "lat": "19.450100",
    "lon": "-97.907100"
  },
  {
    "id": "780171",
    "country": "MX",
    "zipcode": "90543",
    "name": "Guadalupe Victoria",
    "region": "Tlaxcala",
    "short_region": "29",
    "lat": "19.443100",
    "lon": "-97.946400"
  },
  {
    "id": "780172",
    "country": "MX",
    "zipcode": "90544",
    "name": "Toluca de Guadalupe",
    "region": "Tlaxcala",
    "short_region": "29",
    "lat": "19.469000",
    "lon": "-97.955900"
  },
  {
    "id": "780173",
    "country": "MX",
    "zipcode": "90430",
    "name": "Ocotitla",
    "region": "Tlaxcala",
    "short_region": "29",
    "lat": "19.450200",
    "lon": "-98.088800"
  },
  {
    "id": "780174",
    "country": "MX",
    "zipcode": "90430",
    "name": "Villa de las Flores",
    "region": "Tlaxcala",
    "short_region": "29",
    "lat": "19.508900",
    "lon": "-98.116500"
  },
  {
    "id": "780175",
    "country": "MX",
    "zipcode": "90430",
    "name": "Actipac",
    "region": "Tlaxcala",
    "short_region": "29",
    "lat": "19.482300",
    "lon": "-98.076400"
  },
  {
    "id": "780176",
    "country": "MX",
    "zipcode": "90430",
    "name": "América del Sur",
    "region": "Tlaxcala",
    "short_region": "29",
    "lat": "19.446500",
    "lon": "-98.106600"
  },
  {
    "id": "780177",
    "country": "MX",
    "zipcode": "90430",
    "name": "Villas de Tetla",
    "region": "Tlaxcala",
    "short_region": "29",
    "lat": "19.446500",
    "lon": "-98.106600"
  },
  {
    "id": "780178",
    "country": "MX",
    "zipcode": "90430",
    "name": "Vista de Sol",
    "region": "Tlaxcala",
    "short_region": "29",
    "lat": "19.446500",
    "lon": "-98.106600"
  },
  {
    "id": "780179",
    "country": "MX",
    "zipcode": "90430",
    "name": "1ra San Bartolomé Matlalohcan",
    "region": "Tlaxcala",
    "short_region": "29",
    "lat": "19.446500",
    "lon": "-98.106600"
  },
  {
    "id": "780180",
    "country": "MX",
    "zipcode": "90430",
    "name": "3ra San Bartolomé Matlalohcan",
    "region": "Tlaxcala",
    "short_region": "29",
    "lat": "19.446500",
    "lon": "-98.106600"
  },
  {
    "id": "780181",
    "country": "MX",
    "zipcode": "90430",
    "name": "4ta San Bartolomé Matlalohcan",
    "region": "Tlaxcala",
    "short_region": "29",
    "lat": "19.446500",
    "lon": "-98.106600"
  },
  {
    "id": "780182",
    "country": "MX",
    "zipcode": "90430",
    "name": "Paseos de Xolalpa",
    "region": "Tlaxcala",
    "short_region": "29",
    "lat": "19.446500",
    "lon": "-98.106600"
  },
  {
    "id": "780183",
    "country": "MX",
    "zipcode": "90430",
    "name": "Villa Celeste",
    "region": "Tlaxcala",
    "short_region": "29",
    "lat": "19.446500",
    "lon": "-98.106600"
  },
  {
    "id": "780184",
    "country": "MX",
    "zipcode": "90430",
    "name": "Cuatepec",
    "region": "Tlaxcala",
    "short_region": "29",
    "lat": "19.446500",
    "lon": "-98.106600"
  },
  {
    "id": "780185",
    "country": "MX",
    "zipcode": "90430",
    "name": "El Pedregal",
    "region": "Tlaxcala",
    "short_region": "29",
    "lat": "19.446500",
    "lon": "-98.106600"
  },
  {
    "id": "780186",
    "country": "MX",
    "zipcode": "90430",
    "name": "Jardines de San Bartolo",
    "region": "Tlaxcala",
    "short_region": "29",
    "lat": "19.446500",
    "lon": "-98.106600"
  },
  {
    "id": "780187",
    "country": "MX",
    "zipcode": "90430",
    "name": "Las Arboledas",
    "region": "Tlaxcala",
    "short_region": "29",
    "lat": "19.446500",
    "lon": "-98.106600"
  },
  {
    "id": "780188",
    "country": "MX",
    "zipcode": "90430",
    "name": "Los Robles",
    "region": "Tlaxcala",
    "short_region": "29",
    "lat": "19.446500",
    "lon": "-98.106600"
  },
  {
    "id": "780189",
    "country": "MX",
    "zipcode": "90430",
    "name": "Los Sabinales",
    "region": "Tlaxcala",
    "short_region": "29",
    "lat": "19.446500",
    "lon": "-98.106600"
  },
  {
    "id": "780190",
    "country": "MX",
    "zipcode": "90430",
    "name": "Metenco",
    "region": "Tlaxcala",
    "short_region": "29",
    "lat": "19.446500",
    "lon": "-98.106600"
  },
  {
    "id": "780191",
    "country": "MX",
    "zipcode": "90430",
    "name": "Paseos de Tetla",
    "region": "Tlaxcala",
    "short_region": "29",
    "lat": "19.446500",
    "lon": "-98.106600"
  },
  {
    "id": "780192",
    "country": "MX",
    "zipcode": "90430",
    "name": "Antorcha Revolucionaria INFONAVIT Tetla",
    "region": "Tlaxcala",
    "short_region": "29",
    "lat": "19.446500",
    "lon": "-98.106600"
  },
  {
    "id": "780193",
    "country": "MX",
    "zipcode": "90430",
    "name": "Teotlalpan",
    "region": "Tlaxcala",
    "short_region": "29",
    "lat": "19.442900",
    "lon": "-98.104100"
  },
  {
    "id": "780194",
    "country": "MX",
    "zipcode": "90430",
    "name": "La Cañada",
    "region": "Tlaxcala",
    "short_region": "29",
    "lat": "19.482300",
    "lon": "-98.076400"
  },
  {
    "id": "780195",
    "country": "MX",
    "zipcode": "90430",
    "name": "Alberto Juárez Blancas",
    "region": "Tlaxcala",
    "short_region": "29",
    "lat": "19.482300",
    "lon": "-98.076400"
  },
  {
    "id": "780196",
    "country": "MX",
    "zipcode": "90432",
    "name": "1ra Manzana San Francisco Atezcatzinco",
    "region": "Tlaxcala",
    "short_region": "29",
    "lat": "19.491000",
    "lon": "-98.063700"
  },
  {
    "id": "780197",
    "country": "MX",
    "zipcode": "90432",
    "name": "San Francisco Atexcatzinco 2da Manzana",
    "region": "Tlaxcala",
    "short_region": "29",
    "lat": "19.491000",
    "lon": "-98.063700"
  },
  {
    "id": "780198",
    "country": "MX",
    "zipcode": "90432",
    "name": "4ta Manzana San Francisco Atexcatzinco",
    "region": "Tlaxcala",
    "short_region": "29",
    "lat": "19.491000",
    "lon": "-98.063700"
  },
  {
    "id": "780199",
    "country": "MX",
    "zipcode": "90432",
    "name": "San Francisco Atexcatzingo 3ra Manz",
    "region": "Tlaxcala",
    "short_region": "29",
    "lat": "19.491000",
    "lon": "-98.063700"
  },
  {
    "id": "780200",
    "country": "MX",
    "zipcode": "90433",
    "name": "Chautzingo",
    "region": "Tlaxcala",
    "short_region": "29",
    "lat": "19.482300",
    "lon": "-98.076400"
  },
  {
    "id": "780201",
    "country": "MX",
    "zipcode": "90434",
    "name": "Ciudad Industrial Xicohtencatl",
    "region": "Tlaxcala",
    "short_region": "29",
    "lat": "19.492700",
    "lon": "-98.052800"
  },
  {
    "id": "780202",
    "country": "MX",
    "zipcode": "90434",
    "name": "José María Morelos y Pavón",
    "region": "Tlaxcala",
    "short_region": "29",
    "lat": "19.492700",
    "lon": "-98.052800"
  },
  {
    "id": "780203",
    "country": "MX",
    "zipcode": "90435",
    "name": "Los Dolores",
    "region": "Tlaxcala",
    "short_region": "29",
    "lat": "19.520200",
    "lon": "-98.033400"
  },
  {
    "id": "780204",
    "country": "MX",
    "zipcode": "90435",
    "name": "Xometla",
    "region": "Tlaxcala",
    "short_region": "29",
    "lat": "19.520200",
    "lon": "-98.033400"
  },
  {
    "id": "780205",
    "country": "MX",
    "zipcode": "90435",
    "name": "Capulac",
    "region": "Tlaxcala",
    "short_region": "29",
    "lat": "19.520200",
    "lon": "-98.033400"
  },
  {
    "id": "780206",
    "country": "MX",
    "zipcode": "90435",
    "name": "El Carmen",
    "region": "Tlaxcala",
    "short_region": "29",
    "lat": "19.516700",
    "lon": "-98.022400"
  },
  {
    "id": "780207",
    "country": "MX",
    "zipcode": "90435",
    "name": "Felipe Gutiérrez",
    "region": "Tlaxcala",
    "short_region": "29",
    "lat": "19.512700",
    "lon": "-98.077800"
  },
  {
    "id": "780208",
    "country": "MX",
    "zipcode": "90435",
    "name": "Santa Fe la Troje",
    "region": "Tlaxcala",
    "short_region": "29",
    "lat": "19.531300",
    "lon": "-98.025300"
  },
  {
    "id": "780209",
    "country": "MX",
    "zipcode": "90435",
    "name": "Guillermo Macías",
    "region": "Tlaxcala",
    "short_region": "29",
    "lat": "19.539600",
    "lon": "-98.006200"
  },
  {
    "id": "780210",
    "country": "MX",
    "zipcode": "90435",
    "name": "San Gregorio",
    "region": "Tlaxcala",
    "short_region": "29",
    "lat": "19.517200",
    "lon": "-98.052800"
  },
  {
    "id": "780211",
    "country": "MX",
    "zipcode": "90435",
    "name": "La Divina Providencia",
    "region": "Tlaxcala",
    "short_region": "29",
    "lat": "19.521900",
    "lon": "-98.056000"
  },
  {
    "id": "780212",
    "country": "MX",
    "zipcode": "90435",
    "name": "El Pozo",
    "region": "Tlaxcala",
    "short_region": "29",
    "lat": "19.539000",
    "lon": "-98.007700"
  },
  {
    "id": "780213",
    "country": "MX",
    "zipcode": "90435",
    "name": "Fracción el Derramadero",
    "region": "Tlaxcala",
    "short_region": "29",
    "lat": "19.541600",
    "lon": "-98.024600"
  },
  {
    "id": "780214",
    "country": "MX",
    "zipcode": "90435",
    "name": "El Prado",
    "region": "Tlaxcala",
    "short_region": "29",
    "lat": "19.539600",
    "lon": "-98.010900"
  },
  {
    "id": "780215",
    "country": "MX",
    "zipcode": "90435",
    "name": "San Isidro",
    "region": "Tlaxcala",
    "short_region": "29",
    "lat": "19.442400",
    "lon": "-98.050800"
  },
  {
    "id": "780216",
    "country": "MX",
    "zipcode": "90435",
    "name": "Campo David",
    "region": "Tlaxcala",
    "short_region": "29",
    "lat": "19.520200",
    "lon": "-98.033400"
  },
  {
    "id": "780217",
    "country": "MX",
    "zipcode": "90436",
    "name": "NCPE San Francisco Tepeyanco",
    "region": "Tlaxcala",
    "short_region": "29",
    "lat": "19.456300",
    "lon": "-97.991500"
  },
  {
    "id": "780218",
    "country": "MX",
    "zipcode": "90436",
    "name": "Ricardo Flores Magón",
    "region": "Tlaxcala",
    "short_region": "29",
    "lat": "19.493400",
    "lon": "-98.036100"
  },
  {
    "id": "780219",
    "country": "MX",
    "zipcode": "90436",
    "name": "Juan Lima Olivares",
    "region": "Tlaxcala",
    "short_region": "29",
    "lat": "19.446200",
    "lon": "-98.014700"
  },
  {
    "id": "780220",
    "country": "MX",
    "zipcode": "90436",
    "name": "El Ocote",
    "region": "Tlaxcala",
    "short_region": "29",
    "lat": "19.488200",
    "lon": "-98.011600"
  },
  {
    "id": "780221",
    "country": "MX",
    "zipcode": "90437",
    "name": "San Miguel",
    "region": "Tlaxcala",
    "short_region": "29",
    "lat": "19.477000",
    "lon": "-98.050100"
  },
  {
    "id": "780222",
    "country": "MX",
    "zipcode": "90437",
    "name": "San José Piedras Negras",
    "region": "Tlaxcala",
    "short_region": "29",
    "lat": "19.451700",
    "lon": "-98.048800"
  },
  {
    "id": "780223",
    "country": "MX",
    "zipcode": "90437",
    "name": "De Gómez",
    "region": "Tlaxcala",
    "short_region": "29",
    "lat": "19.468100",
    "lon": "-98.056900"
  },
  {
    "id": "780224",
    "country": "MX",
    "zipcode": "90437",
    "name": "San Isidro Piedras Negras",
    "region": "Tlaxcala",
    "short_region": "29",
    "lat": "19.468100",
    "lon": "-98.056900"
  },
  {
    "id": "780225",
    "country": "MX",
    "zipcode": "90437",
    "name": "La Caridad",
    "region": "Tlaxcala",
    "short_region": "29",
    "lat": "19.482300",
    "lon": "-98.076400"
  },
  {
    "id": "780226",
    "country": "MX",
    "zipcode": "90437",
    "name": "Las Arenas",
    "region": "Tlaxcala",
    "short_region": "29",
    "lat": "19.479300",
    "lon": "-98.054300"
  },
  {
    "id": "780227",
    "country": "MX",
    "zipcode": "90437",
    "name": "Las Cabañas",
    "region": "Tlaxcala",
    "short_region": "29",
    "lat": "19.464500",
    "lon": "-98.074400"
  },
  {
    "id": "780228",
    "country": "MX",
    "zipcode": "90438",
    "name": "El Corazón",
    "region": "Tlaxcala",
    "short_region": "29",
    "lat": "19.510200",
    "lon": "-98.140900"
  },
  {
    "id": "780229",
    "country": "MX",
    "zipcode": "90438",
    "name": "Anastacio Lemus",
    "region": "Tlaxcala",
    "short_region": "29",
    "lat": "19.478600",
    "lon": "-98.112100"
  },
  {
    "id": "780230",
    "country": "MX",
    "zipcode": "90438",
    "name": "Santa Rosa Mena",
    "region": "Tlaxcala",
    "short_region": "29",
    "lat": "19.501700",
    "lon": "-98.117100"
  },
  {
    "id": "780231",
    "country": "MX",
    "zipcode": "90438",
    "name": "Santa Margarita",
    "region": "Tlaxcala",
    "short_region": "29",
    "lat": "19.475800",
    "lon": "-98.152700"
  },
  {
    "id": "780232",
    "country": "MX",
    "zipcode": "90438",
    "name": "Plan de Ayala",
    "region": "Tlaxcala",
    "short_region": "29",
    "lat": "19.497100",
    "lon": "-98.102800"
  },
  {
    "id": "780233",
    "country": "MX",
    "zipcode": "90438",
    "name": "San Juan",
    "region": "Tlaxcala",
    "short_region": "29",
    "lat": "19.482300",
    "lon": "-98.076400"
  },
  {
    "id": "780234",
    "country": "MX",
    "zipcode": "90438",
    "name": "La Concepción",
    "region": "Tlaxcala",
    "short_region": "29",
    "lat": "19.482300",
    "lon": "-98.076400"
  },
  {
    "id": "780235",
    "country": "MX",
    "zipcode": "90438",
    "name": "La Loma",
    "region": "Tlaxcala",
    "short_region": "29",
    "lat": "19.442400",
    "lon": "-98.050800"
  },
  {
    "id": "780236",
    "country": "MX",
    "zipcode": "90438",
    "name": "San Isidro",
    "region": "Tlaxcala",
    "short_region": "29",
    "lat": "19.442400",
    "lon": "-98.050800"
  },
  {
    "id": "780237",
    "country": "MX",
    "zipcode": "90438",
    "name": "De Apizaquito",
    "region": "Tlaxcala",
    "short_region": "29",
    "lat": "19.479200",
    "lon": "-98.125500"
  },
  {
    "id": "780238",
    "country": "MX",
    "zipcode": "90438",
    "name": "Alejandro López Ávila (Los Temontones)",
    "region": "Tlaxcala",
    "short_region": "29",
    "lat": "19.480100",
    "lon": "-98.156000"
  },
  {
    "id": "780239",
    "country": "MX",
    "zipcode": "90730",
    "name": "Atenco",
    "region": "Tlaxcala",
    "short_region": "29",
    "lat": "19.243900",
    "lon": "-98.300200"
  },
  {
    "id": "780240",
    "country": "MX",
    "zipcode": "90730",
    "name": "Santa Cruz Aquiahuac",
    "region": "Tlaxcala",
    "short_region": "29",
    "lat": "19.239400",
    "lon": "-98.282200"
  },
  {
    "id": "780241",
    "country": "MX",
    "zipcode": "90730",
    "name": "Santa Isabel Tetlatlahuca",
    "region": "Tlaxcala",
    "short_region": "29",
    "lat": "19.232300",
    "lon": "-98.295600"
  },
  {
    "id": "780242",
    "country": "MX",
    "zipcode": "90733",
    "name": "Santa Ana Portales",
    "region": "Tlaxcala",
    "short_region": "29",
    "lat": "19.200300",
    "lon": "-98.301700"
  },
  {
    "id": "780243",
    "country": "MX",
    "zipcode": "90733",
    "name": "Santa Águeda",
    "region": "Tlaxcala",
    "short_region": "29",
    "lat": "19.192700",
    "lon": "-98.290700"
  },
  {
    "id": "780244",
    "country": "MX",
    "zipcode": "90734",
    "name": "Santa Cruz Capulinares",
    "region": "Tlaxcala",
    "short_region": "29",
    "lat": "19.254600",
    "lon": "-98.300000"
  },
  {
    "id": "780245",
    "country": "MX",
    "zipcode": "90734",
    "name": "Zavaleta",
    "region": "Tlaxcala",
    "short_region": "29",
    "lat": "19.261700",
    "lon": "-98.288000"
  },
  {
    "id": "780246",
    "country": "MX",
    "zipcode": "90734",
    "name": "San Andrés Cuamilpa",
    "region": "Tlaxcala",
    "short_region": "29",
    "lat": "19.261700",
    "lon": "-98.288000"
  },
  {
    "id": "780247",
    "country": "MX",
    "zipcode": "90734",
    "name": "Rinconada",
    "region": "Tlaxcala",
    "short_region": "29",
    "lat": "19.278100",
    "lon": "-98.272300"
  },
  {
    "id": "780248",
    "country": "MX",
    "zipcode": "90734",
    "name": "San Bartolomé Tenango",
    "region": "Tlaxcala",
    "short_region": "29",
    "lat": "19.252500",
    "lon": "-98.291700"
  },
  {
    "id": "780249",
    "country": "MX",
    "zipcode": "90000",
    "name": "Tlaxcala Centro",
    "region": "Tlaxcala",
    "short_region": "29",
    "lat": "19.361700",
    "lon": "-98.233800"
  },
  {
    "id": "780250",
    "country": "MX",
    "zipcode": "90005",
    "name": "Huertas de San Francisco",
    "region": "Tlaxcala",
    "short_region": "29",
    "lat": "19.361700",
    "lon": "-98.233800"
  },
  {
    "id": "780251",
    "country": "MX",
    "zipcode": "90006",
    "name": "Universidad Autónoma de Tlaxcala",
    "region": "Tlaxcala",
    "short_region": "29",
    "lat": "19.361700",
    "lon": "-98.233800"
  },
  {
    "id": "780252",
    "country": "MX",
    "zipcode": "90007",
    "name": "Secretaria de Agricultura Ganaderia y Desarrollo Rural",
    "region": "Tlaxcala",
    "short_region": "29",
    "lat": "19.361700",
    "lon": "-98.233800"
  },
  {
    "id": "780253",
    "country": "MX",
    "zipcode": "90008",
    "name": "Centro SCT Tlaxcala",
    "region": "Tlaxcala",
    "short_region": "29",
    "lat": "19.361700",
    "lon": "-98.233800"
  },
  {
    "id": "780254",
    "country": "MX",
    "zipcode": "90009",
    "name": "Palacio de Gobierno del Estado de Tlaxcala",
    "region": "Tlaxcala",
    "short_region": "29",
    "lat": "19.361700",
    "lon": "-98.233800"
  },
  {
    "id": "780255",
    "country": "MX",
    "zipcode": "90010",
    "name": "San Buenaventura Atempan",
    "region": "Tlaxcala",
    "short_region": "29",
    "lat": "19.326700",
    "lon": "-98.221900"
  },
  {
    "id": "780256",
    "country": "MX",
    "zipcode": "90013",
    "name": "Xicoténcatl",
    "region": "Tlaxcala",
    "short_region": "29",
    "lat": "19.383800",
    "lon": "-98.241700"
  },
  {
    "id": "780257",
    "country": "MX",
    "zipcode": "90014",
    "name": "Vista Hermosa",
    "region": "Tlaxcala",
    "short_region": "29",
    "lat": "19.309400",
    "lon": "-98.236800"
  },
  {
    "id": "780258",
    "country": "MX",
    "zipcode": "90014",
    "name": "Los Volcanes",
    "region": "Tlaxcala",
    "short_region": "29",
    "lat": "19.309400",
    "lon": "-98.236800"
  },
  {
    "id": "780259",
    "country": "MX",
    "zipcode": "90014",
    "name": "Los Potrillos",
    "region": "Tlaxcala",
    "short_region": "29",
    "lat": "19.309400",
    "lon": "-98.236800"
  },
  {
    "id": "780260",
    "country": "MX",
    "zipcode": "90014",
    "name": "Cuarto Señorío",
    "region": "Tlaxcala",
    "short_region": "29",
    "lat": "19.441000",
    "lon": "-98.261400"
  },
  {
    "id": "780261",
    "country": "MX",
    "zipcode": "90014",
    "name": "Vista Malintzi",
    "region": "Tlaxcala",
    "short_region": "29",
    "lat": "19.441000",
    "lon": "-98.261400"
  },
  {
    "id": "780262",
    "country": "MX",
    "zipcode": "90014",
    "name": "El Bosque",
    "region": "Tlaxcala",
    "short_region": "29",
    "lat": "19.441000",
    "lon": "-98.261400"
  },
  {
    "id": "780263",
    "country": "MX",
    "zipcode": "90014",
    "name": "Magisterial Vista Hermosa",
    "region": "Tlaxcala",
    "short_region": "29",
    "lat": "19.441000",
    "lon": "-98.261400"
  },
  {
    "id": "780264",
    "country": "MX",
    "zipcode": "90014",
    "name": "Los Causes",
    "region": "Tlaxcala",
    "short_region": "29",
    "lat": "19.441000",
    "lon": "-98.261400"
  },
  {
    "id": "780265",
    "country": "MX",
    "zipcode": "90019",
    "name": "Los Pinos",
    "region": "Tlaxcala",
    "short_region": "29",
    "lat": "19.309400",
    "lon": "-98.236800"
  },
  {
    "id": "780266",
    "country": "MX",
    "zipcode": "90020",
    "name": "Pensionados Militares",
    "region": "Tlaxcala",
    "short_region": "29",
    "lat": "19.361700",
    "lon": "-98.233800"
  },
  {
    "id": "780267",
    "country": "MX",
    "zipcode": "90030",
    "name": "Las Ánimas",
    "region": "Tlaxcala",
    "short_region": "29",
    "lat": "19.361700",
    "lon": "-98.233800"
  },
  {
    "id": "780268",
    "country": "MX",
    "zipcode": "90030",
    "name": "Los Cipreses",
    "region": "Tlaxcala",
    "short_region": "29",
    "lat": "19.361700",
    "lon": "-98.233800"
  },
  {
    "id": "780269",
    "country": "MX",
    "zipcode": "90030",
    "name": "Los Girasoles",
    "region": "Tlaxcala",
    "short_region": "29",
    "lat": "19.361700",
    "lon": "-98.233800"
  },
  {
    "id": "780270",
    "country": "MX",
    "zipcode": "90030",
    "name": "Real del Sol",
    "region": "Tlaxcala",
    "short_region": "29",
    "lat": "19.361700",
    "lon": "-98.233800"
  },
  {
    "id": "780271",
    "country": "MX",
    "zipcode": "90030",
    "name": "El Real",
    "region": "Tlaxcala",
    "short_region": "29",
    "lat": "19.361700",
    "lon": "-98.233800"
  },
  {
    "id": "780272",
    "country": "MX",
    "zipcode": "90030",
    "name": "Ameyal",
    "region": "Tlaxcala",
    "short_region": "29",
    "lat": "19.361700",
    "lon": "-98.233800"
  },
  {
    "id": "780273",
    "country": "MX",
    "zipcode": "90030",
    "name": "Felipe Santiago Xicoténcatl",
    "region": "Tlaxcala",
    "short_region": "29",
    "lat": "19.361700",
    "lon": "-98.233800"
  },
  {
    "id": "780274",
    "country": "MX",
    "zipcode": "90030",
    "name": "Cuarto Señoríos",
    "region": "Tlaxcala",
    "short_region": "29",
    "lat": "19.361700",
    "lon": "-98.233800"
  },
  {
    "id": "780275",
    "country": "MX",
    "zipcode": "90030",
    "name": "Los Pinos",
    "region": "Tlaxcala",
    "short_region": "29",
    "lat": "19.309400",
    "lon": "-98.236800"
  },
  {
    "id": "780276",
    "country": "MX",
    "zipcode": "90030",
    "name": "Residencial Jardines de San Gabriel",
    "region": "Tlaxcala",
    "short_region": "29",
    "lat": "19.361700",
    "lon": "-98.233800"
  },
  {
    "id": "780277",
    "country": "MX",
    "zipcode": "90030",
    "name": "Los Volcanes",
    "region": "Tlaxcala",
    "short_region": "29",
    "lat": "19.309400",
    "lon": "-98.236800"
  },
  {
    "id": "780278",
    "country": "MX",
    "zipcode": "90030",
    "name": "Villa de los Ángeles",
    "region": "Tlaxcala",
    "short_region": "29",
    "lat": "19.361700",
    "lon": "-98.233800"
  },
  {
    "id": "780279",
    "country": "MX",
    "zipcode": "90030",
    "name": "Lomas de Coyotepec",
    "region": "Tlaxcala",
    "short_region": "29",
    "lat": "19.361700",
    "lon": "-98.233800"
  },
  {
    "id": "780280",
    "country": "MX",
    "zipcode": "90030",
    "name": "Paso de Cortes",
    "region": "Tlaxcala",
    "short_region": "29",
    "lat": "19.361700",
    "lon": "-98.233800"
  },
  {
    "id": "780281",
    "country": "MX",
    "zipcode": "90040",
    "name": "Adolfo López Mateos",
    "region": "Tlaxcala",
    "short_region": "29",
    "lat": "19.309400",
    "lon": "-98.236800"
  },
  {
    "id": "780282",
    "country": "MX",
    "zipcode": "90040",
    "name": "San Miguel Tlamahuco",
    "region": "Tlaxcala",
    "short_region": "29",
    "lat": "19.324200",
    "lon": "-98.239700"
  },
  {
    "id": "780283",
    "country": "MX",
    "zipcode": "90050",
    "name": "Ocotlán INFONAVIT",
    "region": "Tlaxcala",
    "short_region": "29",
    "lat": "19.361700",
    "lon": "-98.233800"
  },
  {
    "id": "780284",
    "country": "MX",
    "zipcode": "90050",
    "name": "Mi Lupita",
    "region": "Tlaxcala",
    "short_region": "29",
    "lat": "19.361700",
    "lon": "-98.233800"
  },
  {
    "id": "780285",
    "country": "MX",
    "zipcode": "90060",
    "name": "San Isidro",
    "region": "Tlaxcala",
    "short_region": "29",
    "lat": "19.354900",
    "lon": "-98.212300"
  },
  {
    "id": "780286",
    "country": "MX",
    "zipcode": "90062",
    "name": "Xicoténcatl",
    "region": "Tlaxcala",
    "short_region": "29",
    "lat": "19.354900",
    "lon": "-98.212300"
  },
  {
    "id": "780287",
    "country": "MX",
    "zipcode": "90062",
    "name": "Insurgentes",
    "region": "Tlaxcala",
    "short_region": "29",
    "lat": "19.354900",
    "lon": "-98.212300"
  },
  {
    "id": "780288",
    "country": "MX",
    "zipcode": "90062",
    "name": "Tlapala",
    "region": "Tlaxcala",
    "short_region": "29",
    "lat": "19.354900",
    "lon": "-98.212300"
  },
  {
    "id": "780289",
    "country": "MX",
    "zipcode": "90062",
    "name": "El Llanito",
    "region": "Tlaxcala",
    "short_region": "29",
    "lat": "19.354900",
    "lon": "-98.212300"
  },
  {
    "id": "780290",
    "country": "MX",
    "zipcode": "90080",
    "name": "Del Maestro",
    "region": "Tlaxcala",
    "short_region": "29",
    "lat": "19.361700",
    "lon": "-98.233800"
  },
  {
    "id": "780291",
    "country": "MX",
    "zipcode": "90090",
    "name": "Loma Bonita",
    "region": "Tlaxcala",
    "short_region": "29",
    "lat": "19.309400",
    "lon": "-98.236800"
  },
  {
    "id": "780292",
    "country": "MX",
    "zipcode": "90099",
    "name": "Loma Linda",
    "region": "Tlaxcala",
    "short_region": "29",
    "lat": "19.361700",
    "lon": "-98.233800"
  },
  {
    "id": "780293",
    "country": "MX",
    "zipcode": "90100",
    "name": "Ocotlán",
    "region": "Tlaxcala",
    "short_region": "29",
    "lat": "19.313000",
    "lon": "-98.233400"
  },
  {
    "id": "780294",
    "country": "MX",
    "zipcode": "90100",
    "name": "San Esteban Tizatlan",
    "region": "Tlaxcala",
    "short_region": "29",
    "lat": "19.339100",
    "lon": "-98.213700"
  },
  {
    "id": "780295",
    "country": "MX",
    "zipcode": "90100",
    "name": "El Potrero",
    "region": "Tlaxcala",
    "short_region": "29",
    "lat": "19.309400",
    "lon": "-98.236800"
  },
  {
    "id": "780296",
    "country": "MX",
    "zipcode": "90100",
    "name": "El Mirador",
    "region": "Tlaxcala",
    "short_region": "29",
    "lat": "19.309400",
    "lon": "-98.236800"
  },
  {
    "id": "780297",
    "country": "MX",
    "zipcode": "90100",
    "name": "Araucarias",
    "region": "Tlaxcala",
    "short_region": "29",
    "lat": "19.326100",
    "lon": "-98.223500"
  },
  {
    "id": "780298",
    "country": "MX",
    "zipcode": "90100",
    "name": "Conjunto de las Rosas",
    "region": "Tlaxcala",
    "short_region": "29",
    "lat": "19.326100",
    "lon": "-98.223500"
  },
  {
    "id": "780299",
    "country": "MX",
    "zipcode": "90100",
    "name": "3er Señorío",
    "region": "Tlaxcala",
    "short_region": "29",
    "lat": "19.326100",
    "lon": "-98.223500"
  },
  {
    "id": "780300",
    "country": "MX",
    "zipcode": "90100",
    "name": "Rinconada de Ocotlán",
    "region": "Tlaxcala",
    "short_region": "29",
    "lat": "19.326100",
    "lon": "-98.223500"
  },
  {
    "id": "780301",
    "country": "MX",
    "zipcode": "90102",
    "name": "El Sabinal",
    "region": "Tlaxcala",
    "short_region": "29",
    "lat": "19.468200",
    "lon": "-98.354000"
  },
  {
    "id": "780302",
    "country": "MX",
    "zipcode": "90102",
    "name": "Mirasol",
    "region": "Tlaxcala",
    "short_region": "29",
    "lat": "19.468200",
    "lon": "-98.354000"
  },
  {
    "id": "780303",
    "country": "MX",
    "zipcode": "90102",
    "name": "La Cañada",
    "region": "Tlaxcala",
    "short_region": "29",
    "lat": "19.309400",
    "lon": "-98.236800"
  },
  {
    "id": "780304",
    "country": "MX",
    "zipcode": "90102",
    "name": "Las Rosas",
    "region": "Tlaxcala",
    "short_region": "29",
    "lat": "19.468200",
    "lon": "-98.354000"
  },
  {
    "id": "780305",
    "country": "MX",
    "zipcode": "90102",
    "name": "San Lucas",
    "region": "Tlaxcala",
    "short_region": "29",
    "lat": "19.309400",
    "lon": "-98.236800"
  },
  {
    "id": "780306",
    "country": "MX",
    "zipcode": "90105",
    "name": "Santa María Ixtulco",
    "region": "Tlaxcala",
    "short_region": "29",
    "lat": "19.325300",
    "lon": "-98.208400"
  },
  {
    "id": "780307",
    "country": "MX",
    "zipcode": "90105",
    "name": "San Lazaro",
    "region": "Tlaxcala",
    "short_region": "29",
    "lat": "19.325300",
    "lon": "-98.208400"
  },
  {
    "id": "780308",
    "country": "MX",
    "zipcode": "90105",
    "name": "Tepetlapa",
    "region": "Tlaxcala",
    "short_region": "29",
    "lat": "19.325300",
    "lon": "-98.208400"
  },
  {
    "id": "780309",
    "country": "MX",
    "zipcode": "90110",
    "name": "Grande",
    "region": "Tlaxcala",
    "short_region": "29",
    "lat": "19.301100",
    "lon": "-98.262800"
  },
  {
    "id": "780310",
    "country": "MX",
    "zipcode": "90110",
    "name": "Geo Villas San Diego",
    "region": "Tlaxcala",
    "short_region": "29",
    "lat": "19.301100",
    "lon": "-98.262800"
  },
  {
    "id": "780311",
    "country": "MX",
    "zipcode": "90110",
    "name": "San Diego Metepec",
    "region": "Tlaxcala",
    "short_region": "29",
    "lat": "19.301100",
    "lon": "-98.262800"
  },
  {
    "id": "780312",
    "country": "MX",
    "zipcode": "90110",
    "name": "Tlayecac",
    "region": "Tlaxcala",
    "short_region": "29",
    "lat": "19.301100",
    "lon": "-98.262800"
  },
  {
    "id": "780313",
    "country": "MX",
    "zipcode": "90110",
    "name": "Los Pirules",
    "region": "Tlaxcala",
    "short_region": "29",
    "lat": "19.301100",
    "lon": "-98.262800"
  },
  {
    "id": "780314",
    "country": "MX",
    "zipcode": "90110",
    "name": "Xilotzingo",
    "region": "Tlaxcala",
    "short_region": "29",
    "lat": "19.301100",
    "lon": "-98.262800"
  },
  {
    "id": "780315",
    "country": "MX",
    "zipcode": "90110",
    "name": "Zapotla",
    "region": "Tlaxcala",
    "short_region": "29",
    "lat": "19.301100",
    "lon": "-98.262800"
  },
  {
    "id": "780316",
    "country": "MX",
    "zipcode": "90110",
    "name": "San Lucas Cuauhtelulpan",
    "region": "Tlaxcala",
    "short_region": "29",
    "lat": "19.301100",
    "lon": "-98.262800"
  },
  {
    "id": "780317",
    "country": "MX",
    "zipcode": "90110",
    "name": "San Diego",
    "region": "Tlaxcala",
    "short_region": "29",
    "lat": "19.309400",
    "lon": "-98.236800"
  },
  {
    "id": "780318",
    "country": "MX",
    "zipcode": "90110",
    "name": "El Alto",
    "region": "Tlaxcala",
    "short_region": "29",
    "lat": "19.309400",
    "lon": "-98.236800"
  },
  {
    "id": "780319",
    "country": "MX",
    "zipcode": "90110",
    "name": "Guadalupe",
    "region": "Tlaxcala",
    "short_region": "29",
    "lat": "19.309400",
    "lon": "-98.236800"
  },
  {
    "id": "780320",
    "country": "MX",
    "zipcode": "90110",
    "name": "Santa María Acuitlapilco",
    "region": "Tlaxcala",
    "short_region": "29",
    "lat": "19.273300",
    "lon": "-98.235400"
  },
  {
    "id": "780321",
    "country": "MX",
    "zipcode": "90111",
    "name": "San Sebastián Atlahapa",
    "region": "Tlaxcala",
    "short_region": "29",
    "lat": "19.285800",
    "lon": "-98.223900"
  },
  {
    "id": "780322",
    "country": "MX",
    "zipcode": "90112",
    "name": "San Hipolito Chimalpa",
    "region": "Tlaxcala",
    "short_region": "29",
    "lat": "19.319600",
    "lon": "-98.250000"
  },
  {
    "id": "780323",
    "country": "MX",
    "zipcode": "90114",
    "name": "El Rincón o Los Rosales",
    "region": "Tlaxcala",
    "short_region": "29",
    "lat": "19.298600",
    "lon": "-98.310300"
  },
  {
    "id": "780324",
    "country": "MX",
    "zipcode": "90114",
    "name": "La Vista",
    "region": "Tlaxcala",
    "short_region": "29",
    "lat": "19.298600",
    "lon": "-98.310300"
  },
  {
    "id": "780325",
    "country": "MX",
    "zipcode": "90114",
    "name": "Santa Agueda",
    "region": "Tlaxcala",
    "short_region": "29",
    "lat": "19.309400",
    "lon": "-98.236800"
  },
  {
    "id": "780326",
    "country": "MX",
    "zipcode": "90114",
    "name": "El Tejocote",
    "region": "Tlaxcala",
    "short_region": "29",
    "lat": "19.309400",
    "lon": "-98.236800"
  },
  {
    "id": "780327",
    "country": "MX",
    "zipcode": "90114",
    "name": "Miraflores",
    "region": "Tlaxcala",
    "short_region": "29",
    "lat": "19.298600",
    "lon": "-98.310300"
  },
  {
    "id": "780328",
    "country": "MX",
    "zipcode": "90114",
    "name": "Tlacomulco",
    "region": "Tlaxcala",
    "short_region": "29",
    "lat": "19.298600",
    "lon": "-98.310300"
  },
  {
    "id": "780329",
    "country": "MX",
    "zipcode": "90114",
    "name": "Amapotla",
    "region": "Tlaxcala",
    "short_region": "29",
    "lat": "19.298600",
    "lon": "-98.310300"
  },
  {
    "id": "780330",
    "country": "MX",
    "zipcode": "90114",
    "name": "UAT",
    "region": "Tlaxcala",
    "short_region": "29",
    "lat": "19.298600",
    "lon": "-98.310300"
  },
  {
    "id": "780331",
    "country": "MX",
    "zipcode": "90114",
    "name": "El Rocío",
    "region": "Tlaxcala",
    "short_region": "29",
    "lat": "19.309400",
    "lon": "-98.236800"
  },
  {
    "id": "780332",
    "country": "MX",
    "zipcode": "90114",
    "name": "La Herradura",
    "region": "Tlaxcala",
    "short_region": "29",
    "lat": "19.309400",
    "lon": "-98.236800"
  },
  {
    "id": "780333",
    "country": "MX",
    "zipcode": "90114",
    "name": "La Joya",
    "region": "Tlaxcala",
    "short_region": "29",
    "lat": "19.309400",
    "lon": "-98.236800"
  },
  {
    "id": "780334",
    "country": "MX",
    "zipcode": "90114",
    "name": "Los Pinos",
    "region": "Tlaxcala",
    "short_region": "29",
    "lat": "19.309400",
    "lon": "-98.236800"
  },
  {
    "id": "780335",
    "country": "MX",
    "zipcode": "90114",
    "name": "El Cortijo",
    "region": "Tlaxcala",
    "short_region": "29",
    "lat": "19.309400",
    "lon": "-98.236800"
  },
  {
    "id": "780336",
    "country": "MX",
    "zipcode": "90114",
    "name": "La Laguna",
    "region": "Tlaxcala",
    "short_region": "29",
    "lat": "19.309400",
    "lon": "-98.236800"
  },
  {
    "id": "780337",
    "country": "MX",
    "zipcode": "90114",
    "name": "El Fresno",
    "region": "Tlaxcala",
    "short_region": "29",
    "lat": "19.309400",
    "lon": "-98.236800"
  },
  {
    "id": "780338",
    "country": "MX",
    "zipcode": "90115",
    "name": "Del Valle",
    "region": "Tlaxcala",
    "short_region": "29",
    "lat": "19.309400",
    "lon": "-98.236800"
  },
  {
    "id": "780339",
    "country": "MX",
    "zipcode": "90115",
    "name": "San Fernando",
    "region": "Tlaxcala",
    "short_region": "29",
    "lat": "19.309400",
    "lon": "-98.236800"
  },
  {
    "id": "780340",
    "country": "MX",
    "zipcode": "90115",
    "name": "Puesta del Sol",
    "region": "Tlaxcala",
    "short_region": "29",
    "lat": "19.419000",
    "lon": "-98.286000"
  },
  {
    "id": "780341",
    "country": "MX",
    "zipcode": "90115",
    "name": "3 Volcanes",
    "region": "Tlaxcala",
    "short_region": "29",
    "lat": "19.419000",
    "lon": "-98.286000"
  },
  {
    "id": "780342",
    "country": "MX",
    "zipcode": "90115",
    "name": "Lomas de Guadalupe",
    "region": "Tlaxcala",
    "short_region": "29",
    "lat": "19.419000",
    "lon": "-98.286000"
  },
  {
    "id": "780343",
    "country": "MX",
    "zipcode": "90115",
    "name": "Esmeralda",
    "region": "Tlaxcala",
    "short_region": "29",
    "lat": "19.419000",
    "lon": "-98.286000"
  },
  {
    "id": "780344",
    "country": "MX",
    "zipcode": "90115",
    "name": "La Trinidad Tepehitec",
    "region": "Tlaxcala",
    "short_region": "29",
    "lat": "19.309400",
    "lon": "-98.260700"
  },
  {
    "id": "780345",
    "country": "MX",
    "zipcode": "90117",
    "name": "Las Arboledas",
    "region": "Tlaxcala",
    "short_region": "29",
    "lat": "19.306400",
    "lon": "-98.228500"
  },
  {
    "id": "780346",
    "country": "MX",
    "zipcode": "90117",
    "name": "Colinas del Sur",
    "region": "Tlaxcala",
    "short_region": "29",
    "lat": "19.306400",
    "lon": "-98.228500"
  },
  {
    "id": "780347",
    "country": "MX",
    "zipcode": "90117",
    "name": "La Garita de Puebla",
    "region": "Tlaxcala",
    "short_region": "29",
    "lat": "19.306400",
    "lon": "-98.228500"
  },
  {
    "id": "780348",
    "country": "MX",
    "zipcode": "90117",
    "name": "Bugambilias",
    "region": "Tlaxcala",
    "short_region": "29",
    "lat": "19.309400",
    "lon": "-98.236800"
  },
  {
    "id": "780349",
    "country": "MX",
    "zipcode": "90117",
    "name": "San Gabriel Cuautla",
    "region": "Tlaxcala",
    "short_region": "29",
    "lat": "19.306400",
    "lon": "-98.228500"
  },
  {
    "id": "780350",
    "country": "MX",
    "zipcode": "90118",
    "name": "Tlapancalco",
    "region": "Tlaxcala",
    "short_region": "29",
    "lat": "19.322600",
    "lon": "-98.272100"
  },
  {
    "id": "780351",
    "country": "MX",
    "zipcode": "90250",
    "name": "San Juan",
    "region": "Tlaxcala",
    "short_region": "29",
    "lat": "19.620200",
    "lon": "-98.177000"
  },
  {
    "id": "780352",
    "country": "MX",
    "zipcode": "90250",
    "name": "Las Ánimas",
    "region": "Tlaxcala",
    "short_region": "29",
    "lat": "19.600500",
    "lon": "-98.181800"
  },
  {
    "id": "780353",
    "country": "MX",
    "zipcode": "90250",
    "name": "José María Morelos Buenavista",
    "region": "Tlaxcala",
    "short_region": "29",
    "lat": "19.600500",
    "lon": "-98.181800"
  },
  {
    "id": "780354",
    "country": "MX",
    "zipcode": "90250",
    "name": "Iturbide",
    "region": "Tlaxcala",
    "short_region": "29",
    "lat": "19.600500",
    "lon": "-98.181800"
  },
  {
    "id": "780355",
    "country": "MX",
    "zipcode": "90250",
    "name": "Tepatlaxco",
    "region": "Tlaxcala",
    "short_region": "29",
    "lat": "19.600500",
    "lon": "-98.181800"
  },
  {
    "id": "780356",
    "country": "MX",
    "zipcode": "90250",
    "name": "Postal",
    "region": "Tlaxcala",
    "short_region": "29",
    "lat": "19.600500",
    "lon": "-98.181800"
  },
  {
    "id": "780357",
    "country": "MX",
    "zipcode": "90250",
    "name": "Xomitla",
    "region": "Tlaxcala",
    "short_region": "29",
    "lat": "19.600500",
    "lon": "-98.181800"
  },
  {
    "id": "780358",
    "country": "MX",
    "zipcode": "90250",
    "name": "San José Atotonilco",
    "region": "Tlaxcala",
    "short_region": "29",
    "lat": "19.529700",
    "lon": "-98.087800"
  },
  {
    "id": "780359",
    "country": "MX",
    "zipcode": "90250",
    "name": "Ejidal",
    "region": "Tlaxcala",
    "short_region": "29",
    "lat": "19.657500",
    "lon": "-98.337500"
  },
  {
    "id": "780360",
    "country": "MX",
    "zipcode": "90250",
    "name": "Tlaxco",
    "region": "Tlaxcala",
    "short_region": "29",
    "lat": "19.614400",
    "lon": "-98.120000"
  },
  {
    "id": "780361",
    "country": "MX",
    "zipcode": "90251",
    "name": "Xochuca",
    "region": "Tlaxcala",
    "short_region": "29",
    "lat": "19.628300",
    "lon": "-98.196200"
  },
  {
    "id": "780362",
    "country": "MX",
    "zipcode": "90251",
    "name": "NCPE la Herradura",
    "region": "Tlaxcala",
    "short_region": "29",
    "lat": "19.619500",
    "lon": "-98.193700"
  },
  {
    "id": "780363",
    "country": "MX",
    "zipcode": "90251",
    "name": "El Nacimiento",
    "region": "Tlaxcala",
    "short_region": "29",
    "lat": "19.619500",
    "lon": "-98.193700"
  },
  {
    "id": "780364",
    "country": "MX",
    "zipcode": "90251",
    "name": "La Candelaria",
    "region": "Tlaxcala",
    "short_region": "29",
    "lat": "19.641000",
    "lon": "-98.160200"
  },
  {
    "id": "780365",
    "country": "MX",
    "zipcode": "90251",
    "name": "San Antonio Huexotitla",
    "region": "Tlaxcala",
    "short_region": "29",
    "lat": "19.602000",
    "lon": "-98.207200"
  },
  {
    "id": "780366",
    "country": "MX",
    "zipcode": "90251",
    "name": "Guadalupe Huexotitla",
    "region": "Tlaxcala",
    "short_region": "29",
    "lat": "19.606700",
    "lon": "-98.211100"
  },
  {
    "id": "780367",
    "country": "MX",
    "zipcode": "90253",
    "name": "Vista Hermosa",
    "region": "Tlaxcala",
    "short_region": "29",
    "lat": "19.620200",
    "lon": "-98.177000"
  },
  {
    "id": "780368",
    "country": "MX",
    "zipcode": "90255",
    "name": "Santiago Tlatepoxco",
    "region": "Tlaxcala",
    "short_region": "29",
    "lat": "19.659300",
    "lon": "-98.163000"
  },
  {
    "id": "780369",
    "country": "MX",
    "zipcode": "90255",
    "name": "Grande",
    "region": "Tlaxcala",
    "short_region": "29",
    "lat": "19.659300",
    "lon": "-98.163000"
  },
  {
    "id": "780370",
    "country": "MX",
    "zipcode": "90255",
    "name": "El Sabinal",
    "region": "Tlaxcala",
    "short_region": "29",
    "lat": "19.659300",
    "lon": "-98.163000"
  },
  {
    "id": "780371",
    "country": "MX",
    "zipcode": "90255",
    "name": "Chico",
    "region": "Tlaxcala",
    "short_region": "29",
    "lat": "19.659300",
    "lon": "-98.163000"
  },
  {
    "id": "780372",
    "country": "MX",
    "zipcode": "90255",
    "name": "Acopinalco del Peñón",
    "region": "Tlaxcala",
    "short_region": "29",
    "lat": "19.659300",
    "lon": "-98.163000"
  },
  {
    "id": "780373",
    "country": "MX",
    "zipcode": "90256",
    "name": "El Rosario",
    "region": "Tlaxcala",
    "short_region": "29",
    "lat": "19.661100",
    "lon": "-98.228900"
  },
  {
    "id": "780374",
    "country": "MX",
    "zipcode": "90257",
    "name": "Diego Muñoz Camargo",
    "region": "Tlaxcala",
    "short_region": "29",
    "lat": "19.599400",
    "lon": "-98.144700"
  },
  {
    "id": "780375",
    "country": "MX",
    "zipcode": "90257",
    "name": "Piedra Blanca",
    "region": "Tlaxcala",
    "short_region": "29",
    "lat": "19.620200",
    "lon": "-98.177000"
  },
  {
    "id": "780376",
    "country": "MX",
    "zipcode": "90257",
    "name": "San Pedro la Cueva",
    "region": "Tlaxcala",
    "short_region": "29",
    "lat": "19.603300",
    "lon": "-98.160800"
  },
  {
    "id": "780377",
    "country": "MX",
    "zipcode": "90257",
    "name": "El Sotol",
    "region": "Tlaxcala",
    "short_region": "29",
    "lat": "19.616900",
    "lon": "-98.170700"
  },
  {
    "id": "780378",
    "country": "MX",
    "zipcode": "90257",
    "name": "La Pedregosa",
    "region": "Tlaxcala",
    "short_region": "29",
    "lat": "19.626200",
    "lon": "-98.147900"
  },
  {
    "id": "780379",
    "country": "MX",
    "zipcode": "90257",
    "name": "El Paraje",
    "region": "Tlaxcala",
    "short_region": "29",
    "lat": "19.608800",
    "lon": "-98.147700"
  },
  {
    "id": "780380",
    "country": "MX",
    "zipcode": "90257",
    "name": "La Herradura",
    "region": "Tlaxcala",
    "short_region": "29",
    "lat": "19.610500",
    "lon": "-98.183400"
  },
  {
    "id": "780381",
    "country": "MX",
    "zipcode": "90257",
    "name": "El Mirador",
    "region": "Tlaxcala",
    "short_region": "29",
    "lat": "19.600100",
    "lon": "-98.005200"
  },
  {
    "id": "780382",
    "country": "MX",
    "zipcode": "90257",
    "name": "El Limón",
    "region": "Tlaxcala",
    "short_region": "29",
    "lat": "19.609300",
    "lon": "-98.137200"
  },
  {
    "id": "780383",
    "country": "MX",
    "zipcode": "90257",
    "name": "Tablón de Guadalupe Payuca",
    "region": "Tlaxcala",
    "short_region": "29",
    "lat": "19.609300",
    "lon": "-98.137200"
  },
  {
    "id": "780384",
    "country": "MX",
    "zipcode": "90257",
    "name": "San José el Escombro",
    "region": "Tlaxcala",
    "short_region": "29",
    "lat": "19.609300",
    "lon": "-98.137200"
  },
  {
    "id": "780385",
    "country": "MX",
    "zipcode": "90257",
    "name": "Payuquiya",
    "region": "Tlaxcala",
    "short_region": "29",
    "lat": "19.609300",
    "lon": "-98.137200"
  },
  {
    "id": "780386",
    "country": "MX",
    "zipcode": "90257",
    "name": "Luciano Flores",
    "region": "Tlaxcala",
    "short_region": "29",
    "lat": "19.609300",
    "lon": "-98.137200"
  },
  {
    "id": "780387",
    "country": "MX",
    "zipcode": "90257",
    "name": "Los Serranos",
    "region": "Tlaxcala",
    "short_region": "29",
    "lat": "19.609300",
    "lon": "-98.137200"
  },
  {
    "id": "780388",
    "country": "MX",
    "zipcode": "90257",
    "name": "Juan Arroyo",
    "region": "Tlaxcala",
    "short_region": "29",
    "lat": "19.609300",
    "lon": "-98.137200"
  },
  {
    "id": "780389",
    "country": "MX",
    "zipcode": "90257",
    "name": "El Tintero",
    "region": "Tlaxcala",
    "short_region": "29",
    "lat": "19.609300",
    "lon": "-98.137200"
  },
  {
    "id": "780390",
    "country": "MX",
    "zipcode": "90257",
    "name": "El Catorce",
    "region": "Tlaxcala",
    "short_region": "29",
    "lat": "19.609300",
    "lon": "-98.137200"
  },
  {
    "id": "780391",
    "country": "MX",
    "zipcode": "90258",
    "name": "La Cieneguilla",
    "region": "Tlaxcala",
    "short_region": "29",
    "lat": "19.550400",
    "lon": "-98.006300"
  },
  {
    "id": "780392",
    "country": "MX",
    "zipcode": "90258",
    "name": "La Paz",
    "region": "Tlaxcala",
    "short_region": "29",
    "lat": "19.550400",
    "lon": "-98.006300"
  },
  {
    "id": "780393",
    "country": "MX",
    "zipcode": "90258",
    "name": "Río Blanco (El Doce)",
    "region": "Tlaxcala",
    "short_region": "29",
    "lat": "19.550400",
    "lon": "-98.006300"
  },
  {
    "id": "780394",
    "country": "MX",
    "zipcode": "90258",
    "name": "Al final de la Senda",
    "region": "Tlaxcala",
    "short_region": "29",
    "lat": "19.550400",
    "lon": "-98.006300"
  },
  {
    "id": "780395",
    "country": "MX",
    "zipcode": "90258",
    "name": "Juan Antonio Burle Lomelí",
    "region": "Tlaxcala",
    "short_region": "29",
    "lat": "19.550400",
    "lon": "-98.006300"
  },
  {
    "id": "780396",
    "country": "MX",
    "zipcode": "90258",
    "name": "Kilómetro Treinta y Uno",
    "region": "Tlaxcala",
    "short_region": "29",
    "lat": "19.550400",
    "lon": "-98.006300"
  },
  {
    "id": "780397",
    "country": "MX",
    "zipcode": "90258",
    "name": "El Capulín",
    "region": "Tlaxcala",
    "short_region": "29",
    "lat": "19.620200",
    "lon": "-98.177000"
  },
  {
    "id": "780398",
    "country": "MX",
    "zipcode": "90258",
    "name": "La Troje",
    "region": "Tlaxcala",
    "short_region": "29",
    "lat": "19.620200",
    "lon": "-98.177000"
  },
  {
    "id": "780399",
    "country": "MX",
    "zipcode": "90258",
    "name": "Llanos de Teopa",
    "region": "Tlaxcala",
    "short_region": "29",
    "lat": "19.669900",
    "lon": "-98.086600"
  },
  {
    "id": "780400",
    "country": "MX",
    "zipcode": "90259",
    "name": "Tlacotla",
    "region": "Tlaxcala",
    "short_region": "29",
    "lat": "19.623900",
    "lon": "-98.101900"
  },
  {
    "id": "780401",
    "country": "MX",
    "zipcode": "90259",
    "name": "De Lourdes",
    "region": "Tlaxcala",
    "short_region": "29",
    "lat": "19.630000",
    "lon": "-98.092500"
  },
  {
    "id": "780402",
    "country": "MX",
    "zipcode": "90259",
    "name": "Los Panchos",
    "region": "Tlaxcala",
    "short_region": "29",
    "lat": "19.630000",
    "lon": "-98.092500"
  },
  {
    "id": "780403",
    "country": "MX",
    "zipcode": "90259",
    "name": "Corralillos",
    "region": "Tlaxcala",
    "short_region": "29",
    "lat": "19.643200",
    "lon": "-98.079100"
  },
  {
    "id": "780404",
    "country": "MX",
    "zipcode": "90259",
    "name": "Nuevo",
    "region": "Tlaxcala",
    "short_region": "29",
    "lat": "19.623000",
    "lon": "-98.096500"
  },
  {
    "id": "780405",
    "country": "MX",
    "zipcode": "90260",
    "name": "Soltepec",
    "region": "Tlaxcala",
    "short_region": "29",
    "lat": "19.605000",
    "lon": "-98.298100"
  },
  {
    "id": "780406",
    "country": "MX",
    "zipcode": "90260",
    "name": "Lagunilla",
    "region": "Tlaxcala",
    "short_region": "29",
    "lat": "19.636100",
    "lon": "-98.274300"
  },
  {
    "id": "780407",
    "country": "MX",
    "zipcode": "90260",
    "name": "La Magdalena Soltepec",
    "region": "Tlaxcala",
    "short_region": "29",
    "lat": "19.580600",
    "lon": "-98.313300"
  },
  {
    "id": "780408",
    "country": "MX",
    "zipcode": "90261",
    "name": "Profesor Graciano Sánchez",
    "region": "Tlaxcala",
    "short_region": "29",
    "lat": "19.710600",
    "lon": "-98.314100"
  },
  {
    "id": "780409",
    "country": "MX",
    "zipcode": "90261",
    "name": "El Desierto",
    "region": "Tlaxcala",
    "short_region": "29",
    "lat": "19.710600",
    "lon": "-98.314100"
  },
  {
    "id": "780410",
    "country": "MX",
    "zipcode": "90261",
    "name": "Las Vigas",
    "region": "Tlaxcala",
    "short_region": "29",
    "lat": "19.710600",
    "lon": "-98.314100"
  },
  {
    "id": "780411",
    "country": "MX",
    "zipcode": "90261",
    "name": "Agrícola Mimiahuapan",
    "region": "Tlaxcala",
    "short_region": "29",
    "lat": "19.710600",
    "lon": "-98.314100"
  },
  {
    "id": "780412",
    "country": "MX",
    "zipcode": "90261",
    "name": "Cinegético Cruz Verde",
    "region": "Tlaxcala",
    "short_region": "29",
    "lat": "19.710600",
    "lon": "-98.314100"
  },
  {
    "id": "780413",
    "country": "MX",
    "zipcode": "90262",
    "name": "El Jagüey de los Columpios",
    "region": "Tlaxcala",
    "short_region": "29",
    "lat": "19.607600",
    "lon": "-98.310600"
  },
  {
    "id": "780414",
    "country": "MX",
    "zipcode": "90262",
    "name": "Mazaquiáhuac",
    "region": "Tlaxcala",
    "short_region": "29",
    "lat": "19.648300",
    "lon": "-98.293700"
  },
  {
    "id": "780415",
    "country": "MX",
    "zipcode": "90262",
    "name": "Mariano Matamoros",
    "region": "Tlaxcala",
    "short_region": "29",
    "lat": "19.656700",
    "lon": "-98.277800"
  },
  {
    "id": "780416",
    "country": "MX",
    "zipcode": "90262",
    "name": "Loma Bonita",
    "region": "Tlaxcala",
    "short_region": "29",
    "lat": "19.620200",
    "lon": "-98.177000"
  },
  {
    "id": "780417",
    "country": "MX",
    "zipcode": "90263",
    "name": "Casa Blanca",
    "region": "Tlaxcala",
    "short_region": "29",
    "lat": "19.662500",
    "lon": "-98.241000"
  },
  {
    "id": "780418",
    "country": "MX",
    "zipcode": "90264",
    "name": "Unión Ejidal Tierra y Libertad",
    "region": "Tlaxcala",
    "short_region": "29",
    "lat": "19.657500",
    "lon": "-98.337500"
  },
  {
    "id": "780419",
    "country": "MX",
    "zipcode": "90264",
    "name": "Rolando Maldonado",
    "region": "Tlaxcala",
    "short_region": "29",
    "lat": "19.667200",
    "lon": "-98.328100"
  },
  {
    "id": "780420",
    "country": "MX",
    "zipcode": "90264",
    "name": "Los Ranchitos (La Nopalera)",
    "region": "Tlaxcala",
    "short_region": "29",
    "lat": "19.667200",
    "lon": "-98.328100"
  },
  {
    "id": "780421",
    "country": "MX",
    "zipcode": "90264",
    "name": "Maguey Cenizo",
    "region": "Tlaxcala",
    "short_region": "29",
    "lat": "19.667200",
    "lon": "-98.328100"
  },
  {
    "id": "780422",
    "country": "MX",
    "zipcode": "90264",
    "name": "La Trasquila",
    "region": "Tlaxcala",
    "short_region": "29",
    "lat": "19.676900",
    "lon": "-98.318800"
  },
  {
    "id": "780423",
    "country": "MX",
    "zipcode": "90265",
    "name": "El Santísimo",
    "region": "Tlaxcala",
    "short_region": "29",
    "lat": "19.572500",
    "lon": "-98.350300"
  },
  {
    "id": "780424",
    "country": "MX",
    "zipcode": "90265",
    "name": "San Lorenzo Soltepec",
    "region": "Tlaxcala",
    "short_region": "29",
    "lat": "19.604200",
    "lon": "-98.313600"
  },
  {
    "id": "780425",
    "country": "MX",
    "zipcode": "90265",
    "name": "El Pato",
    "region": "Tlaxcala",
    "short_region": "29",
    "lat": "19.597100",
    "lon": "-98.338900"
  },
  {
    "id": "780426",
    "country": "MX",
    "zipcode": "90265",
    "name": "Santa María",
    "region": "Tlaxcala",
    "short_region": "29",
    "lat": "19.620200",
    "lon": "-98.177000"
  },
  {
    "id": "780427",
    "country": "MX",
    "zipcode": "90265",
    "name": "Santa Cruz",
    "region": "Tlaxcala",
    "short_region": "29",
    "lat": "19.620200",
    "lon": "-98.177000"
  },
  {
    "id": "780428",
    "country": "MX",
    "zipcode": "90265",
    "name": "El Perpetuo Socorro",
    "region": "Tlaxcala",
    "short_region": "29",
    "lat": "19.559900",
    "lon": "-98.339100"
  },
  {
    "id": "780429",
    "country": "MX",
    "zipcode": "90265",
    "name": "Ex-hacienda San Buenaventura",
    "region": "Tlaxcala",
    "short_region": "29",
    "lat": "19.559900",
    "lon": "-98.339100"
  },
  {
    "id": "780430",
    "country": "MX",
    "zipcode": "90265",
    "name": "Santa Inés",
    "region": "Tlaxcala",
    "short_region": "29",
    "lat": "19.559900",
    "lon": "-98.339100"
  },
  {
    "id": "780431",
    "country": "MX",
    "zipcode": "90265",
    "name": "San Agustín",
    "region": "Tlaxcala",
    "short_region": "29",
    "lat": "19.597300",
    "lon": "-98.343800"
  },
  {
    "id": "780432",
    "country": "MX",
    "zipcode": "90266",
    "name": "San Diego Quintanilla",
    "region": "Tlaxcala",
    "short_region": "29",
    "lat": "19.643600",
    "lon": "-98.325300"
  },
  {
    "id": "780433",
    "country": "MX",
    "zipcode": "90266",
    "name": "La Providencia",
    "region": "Tlaxcala",
    "short_region": "29",
    "lat": "19.602900",
    "lon": "-98.342200"
  },
  {
    "id": "780434",
    "country": "MX",
    "zipcode": "90266",
    "name": "Alta Luz",
    "region": "Tlaxcala",
    "short_region": "29",
    "lat": "19.637900",
    "lon": "-98.318000"
  },
  {
    "id": "780435",
    "country": "MX",
    "zipcode": "90266",
    "name": "El Fresno",
    "region": "Tlaxcala",
    "short_region": "29",
    "lat": "19.620600",
    "lon": "-98.329300"
  },
  {
    "id": "780436",
    "country": "MX",
    "zipcode": "90266",
    "name": "San Francisco Quintanilla",
    "region": "Tlaxcala",
    "short_region": "29",
    "lat": "19.626300",
    "lon": "-98.328700"
  },
  {
    "id": "780437",
    "country": "MX",
    "zipcode": "90267",
    "name": "La Mesa del Cielo",
    "region": "Tlaxcala",
    "short_region": "29",
    "lat": "19.599500",
    "lon": "-98.269500"
  },
  {
    "id": "780438",
    "country": "MX",
    "zipcode": "90267",
    "name": "San José Tepeyahualco",
    "region": "Tlaxcala",
    "short_region": "29",
    "lat": "19.599500",
    "lon": "-98.269500"
  },
  {
    "id": "780439",
    "country": "MX",
    "zipcode": "90267",
    "name": "Las Maravillas",
    "region": "Tlaxcala",
    "short_region": "29",
    "lat": "19.620200",
    "lon": "-98.177000"
  },
  {
    "id": "780440",
    "country": "MX",
    "zipcode": "90270",
    "name": "Tecomalucan",
    "region": "Tlaxcala",
    "short_region": "29",
    "lat": "19.576700",
    "lon": "-98.091400"
  },
  {
    "id": "780441",
    "country": "MX",
    "zipcode": "90271",
    "name": "Colonia Máximo Rojas Xalóstoc",
    "region": "Tlaxcala",
    "short_region": "29",
    "lat": "19.517600",
    "lon": "-98.309100"
  },
  {
    "id": "780442",
    "country": "MX",
    "zipcode": "90271",
    "name": "La Joya",
    "region": "Tlaxcala",
    "short_region": "29",
    "lat": "19.620200",
    "lon": "-98.177000"
  },
  {
    "id": "780443",
    "country": "MX",
    "zipcode": "90271",
    "name": "La Vega",
    "region": "Tlaxcala",
    "short_region": "29",
    "lat": "19.589500",
    "lon": "-98.142000"
  },
  {
    "id": "780444",
    "country": "MX",
    "zipcode": "90273",
    "name": "Ex-hacienda San Pedro Metla",
    "region": "Tlaxcala",
    "short_region": "29",
    "lat": "19.612400",
    "lon": "-98.065200"
  },
  {
    "id": "780445",
    "country": "MX",
    "zipcode": "90273",
    "name": "El Convento",
    "region": "Tlaxcala",
    "short_region": "29",
    "lat": "19.614500",
    "lon": "-98.063000"
  },
  {
    "id": "780446",
    "country": "MX",
    "zipcode": "90273",
    "name": "El Paraíso",
    "region": "Tlaxcala",
    "short_region": "29",
    "lat": "19.611200",
    "lon": "-98.055500"
  },
  {
    "id": "780447",
    "country": "MX",
    "zipcode": "90273",
    "name": "Conzoquio",
    "region": "Tlaxcala",
    "short_region": "29",
    "lat": "19.618000",
    "lon": "-98.053900"
  },
  {
    "id": "780448",
    "country": "MX",
    "zipcode": "90273",
    "name": "El Chupadero",
    "region": "Tlaxcala",
    "short_region": "29",
    "lat": "19.611100",
    "lon": "-98.080300"
  },
  {
    "id": "780449",
    "country": "MX",
    "zipcode": "90273",
    "name": "Santa Rosa de Lima",
    "region": "Tlaxcala",
    "short_region": "29",
    "lat": "19.607200",
    "lon": "-98.073100"
  },
  {
    "id": "780450",
    "country": "MX",
    "zipcode": "90274",
    "name": "Texocotla",
    "region": "Tlaxcala",
    "short_region": "29",
    "lat": "19.608600",
    "lon": "-97.958900"
  },
  {
    "id": "780451",
    "country": "MX",
    "zipcode": "90274",
    "name": "Las Palomas",
    "region": "Tlaxcala",
    "short_region": "29",
    "lat": "19.622500",
    "lon": "-98.308500"
  },
  {
    "id": "780452",
    "country": "MX",
    "zipcode": "90274",
    "name": "La Ciénega",
    "region": "Tlaxcala",
    "short_region": "29",
    "lat": "19.621700",
    "lon": "-97.986700"
  },
  {
    "id": "780453",
    "country": "MX",
    "zipcode": "90274",
    "name": "Tetzitzilica",
    "region": "Tlaxcala",
    "short_region": "29",
    "lat": "19.596800",
    "lon": "-98.018000"
  },
  {
    "id": "780454",
    "country": "MX",
    "zipcode": "90274",
    "name": "La Rosa",
    "region": "Tlaxcala",
    "short_region": "29",
    "lat": "19.599200",
    "lon": "-98.013900"
  },
  {
    "id": "780455",
    "country": "MX",
    "zipcode": "90274",
    "name": "Loma de Enmedio",
    "region": "Tlaxcala",
    "short_region": "29",
    "lat": "19.589800",
    "lon": "-98.017600"
  },
  {
    "id": "780456",
    "country": "MX",
    "zipcode": "90274",
    "name": "La Galera el Infiernillo",
    "region": "Tlaxcala",
    "short_region": "29",
    "lat": "19.600800",
    "lon": "-98.030700"
  },
  {
    "id": "780457",
    "country": "MX",
    "zipcode": "90274",
    "name": "El Calvario",
    "region": "Tlaxcala",
    "short_region": "29",
    "lat": "19.620200",
    "lon": "-98.177000"
  },
  {
    "id": "780458",
    "country": "MX",
    "zipcode": "90274",
    "name": "Los Capulines",
    "region": "Tlaxcala",
    "short_region": "29",
    "lat": "19.586300",
    "lon": "-98.021000"
  },
  {
    "id": "780459",
    "country": "MX",
    "zipcode": "90274",
    "name": "Los Charcos",
    "region": "Tlaxcala",
    "short_region": "29",
    "lat": "19.589500",
    "lon": "-98.005800"
  },
  {
    "id": "780460",
    "country": "MX",
    "zipcode": "90274",
    "name": "La Palma",
    "region": "Tlaxcala",
    "short_region": "29",
    "lat": "19.594000",
    "lon": "-97.997600"
  },
  {
    "id": "780461",
    "country": "MX",
    "zipcode": "90274",
    "name": "La Lobera",
    "region": "Tlaxcala",
    "short_region": "29",
    "lat": "19.605300",
    "lon": "-98.003800"
  },
  {
    "id": "780462",
    "country": "MX",
    "zipcode": "90274",
    "name": "El Mirador",
    "region": "Tlaxcala",
    "short_region": "29",
    "lat": "19.600100",
    "lon": "-98.005200"
  },
  {
    "id": "780463",
    "country": "MX",
    "zipcode": "90274",
    "name": "Las Zarandelas",
    "region": "Tlaxcala",
    "short_region": "29",
    "lat": "19.595600",
    "lon": "-98.032000"
  },
  {
    "id": "780464",
    "country": "MX",
    "zipcode": "90275",
    "name": "Rancho Ojo de Agua",
    "region": "Tlaxcala",
    "short_region": "29",
    "lat": "19.560500",
    "lon": "-98.017300"
  },
  {
    "id": "780465",
    "country": "MX",
    "zipcode": "90275",
    "name": "Capilla de Tepeyahualco",
    "region": "Tlaxcala",
    "short_region": "29",
    "lat": "19.549200",
    "lon": "-98.006400"
  },
  {
    "id": "780466",
    "country": "MX",
    "zipcode": "90275",
    "name": "Las Mesas",
    "region": "Tlaxcala",
    "short_region": "29",
    "lat": "19.571700",
    "lon": "-98.028100"
  },
  {
    "id": "780467",
    "country": "MX",
    "zipcode": "90276",
    "name": "La Pera",
    "region": "Tlaxcala",
    "short_region": "29",
    "lat": "19.599800",
    "lon": "-98.082500"
  },
  {
    "id": "780468",
    "country": "MX",
    "zipcode": "90276",
    "name": "Alemania",
    "region": "Tlaxcala",
    "short_region": "29",
    "lat": "19.595900",
    "lon": "-98.060500"
  },
  {
    "id": "780469",
    "country": "MX",
    "zipcode": "90276",
    "name": "El Potrero Mazayolo",
    "region": "Tlaxcala",
    "short_region": "29",
    "lat": "19.565000",
    "lon": "-98.093600"
  },
  {
    "id": "780470",
    "country": "MX",
    "zipcode": "90276",
    "name": "La Rayuela (Las Mesas y la Palma)",
    "region": "Tlaxcala",
    "short_region": "29",
    "lat": "19.565000",
    "lon": "-98.093600"
  },
  {
    "id": "780471",
    "country": "MX",
    "zipcode": "90276",
    "name": "La Loma del Cortijo",
    "region": "Tlaxcala",
    "short_region": "29",
    "lat": "19.598800",
    "lon": "-98.102700"
  },
  {
    "id": "780472",
    "country": "MX",
    "zipcode": "90276",
    "name": "Tlaquexpa",
    "region": "Tlaxcala",
    "short_region": "29",
    "lat": "19.590500",
    "lon": "-98.077200"
  },
  {
    "id": "780473",
    "country": "MX",
    "zipcode": "90276",
    "name": "El Llano",
    "region": "Tlaxcala",
    "short_region": "29",
    "lat": "19.620200",
    "lon": "-98.177000"
  },
  {
    "id": "780474",
    "country": "MX",
    "zipcode": "90276",
    "name": "El Potrero",
    "region": "Tlaxcala",
    "short_region": "29",
    "lat": "19.620200",
    "lon": "-98.177000"
  },
  {
    "id": "780475",
    "country": "MX",
    "zipcode": "90276",
    "name": "Toltecapa",
    "region": "Tlaxcala",
    "short_region": "29",
    "lat": "19.590200",
    "lon": "-98.089300"
  },
  {
    "id": "780476",
    "country": "MX",
    "zipcode": "90276",
    "name": "Los Pinos",
    "region": "Tlaxcala",
    "short_region": "29",
    "lat": "19.597200",
    "lon": "-98.089800"
  },
  {
    "id": "780477",
    "country": "MX",
    "zipcode": "90277",
    "name": "La Loma del Jardín",
    "region": "Tlaxcala",
    "short_region": "29",
    "lat": "19.584100",
    "lon": "-98.122800"
  },
  {
    "id": "780478",
    "country": "MX",
    "zipcode": "90277",
    "name": "Comisión Federal de Electricidad-La Martinica",
    "region": "Tlaxcala",
    "short_region": "29",
    "lat": "19.577300",
    "lon": "-98.129800"
  },
  {
    "id": "780479",
    "country": "MX",
    "zipcode": "90277",
    "name": "San Pablo el Mirador",
    "region": "Tlaxcala",
    "short_region": "29",
    "lat": "19.578800",
    "lon": "-98.120200"
  },
  {
    "id": "780480",
    "country": "MX",
    "zipcode": "90277",
    "name": "Tierra Nueva",
    "region": "Tlaxcala",
    "short_region": "29",
    "lat": "19.578400",
    "lon": "-98.132700"
  },
  {
    "id": "780481",
    "country": "MX",
    "zipcode": "90277",
    "name": "El Volador",
    "region": "Tlaxcala",
    "short_region": "29",
    "lat": "19.569300",
    "lon": "-98.131300"
  },
  {
    "id": "780482",
    "country": "MX",
    "zipcode": "90277",
    "name": "El Jardín",
    "region": "Tlaxcala",
    "short_region": "29",
    "lat": "19.582800",
    "lon": "-98.126800"
  },
  {
    "id": "780483",
    "country": "MX",
    "zipcode": "90277",
    "name": "El Mirador (Teresa Rivera)",
    "region": "Tlaxcala",
    "short_region": "29",
    "lat": "19.581500",
    "lon": "-98.119700"
  },
  {
    "id": "780484",
    "country": "MX",
    "zipcode": "90277",
    "name": "El Tecorral",
    "region": "Tlaxcala",
    "short_region": "29",
    "lat": "19.578300",
    "lon": "-98.127500"
  },
  {
    "id": "780485",
    "country": "MX",
    "zipcode": "90277",
    "name": "La Tronconera",
    "region": "Tlaxcala",
    "short_region": "29",
    "lat": "19.572300",
    "lon": "-98.139000"
  },
  {
    "id": "780486",
    "country": "MX",
    "zipcode": "90277",
    "name": "Santa Fe",
    "region": "Tlaxcala",
    "short_region": "29",
    "lat": "19.578000",
    "lon": "-98.127700"
  },
  {
    "id": "780487",
    "country": "MX",
    "zipcode": "90277",
    "name": "Las Tórtolas",
    "region": "Tlaxcala",
    "short_region": "29",
    "lat": "19.583700",
    "lon": "-98.126600"
  },
  {
    "id": "780488",
    "country": "MX",
    "zipcode": "90277",
    "name": "San Baltazar",
    "region": "Tlaxcala",
    "short_region": "29",
    "lat": "19.577300",
    "lon": "-98.154300"
  },
  {
    "id": "780489",
    "country": "MX",
    "zipcode": "90277",
    "name": "El Grullo",
    "region": "Tlaxcala",
    "short_region": "29",
    "lat": "19.562800",
    "lon": "-98.129600"
  },