[
  {
    "id": "300001",
    "country": "IN",
    "zipcode": "17430",
    "name": "Khanpur",
    "region": "Himachal Pradesh",
    "short_region": "11",
    "lat": "31.580700",
    "lon": "76.210100"
  },
  {
    "id": "300002",
    "country": "IN",
    "zipcode": "17430",
    "name": "Santokhgarh",
    "region": "Himachal Pradesh",
    "short_region": "11",
    "lat": "31.352100",
    "lon": "76.317800"
  },
  {
    "id": "300003",
    "country": "IN",
    "zipcode": "17430",
    "name": "Dhussara",
    "region": "Himachal Pradesh",
    "short_region": "11",
    "lat": "32.051700",
    "lon": "76.146900"
  },
  {
    "id": "300004",
    "country": "IN",
    "zipcode": "17430",
    "name": "Satother",
    "region": "Himachal Pradesh",
    "short_region": "11",
    "lat": "32.051700",
    "lon": "76.146900"
  },
  {
    "id": "300005",
    "country": "IN",
    "zipcode": "17430",
    "name": "Batuhi",
    "region": "Himachal Pradesh",
    "short_region": "11",
    "lat": "31.580700",
    "lon": "76.210100"
  },
  {
    "id": "300006",
    "country": "IN",
    "zipcode": "17430",
    "name": "Badoli",
    "region": "Himachal Pradesh",
    "short_region": "11",
    "lat": "31.580700",
    "lon": "76.210100"
  },
  {
    "id": "300007",
    "country": "IN",
    "zipcode": "17430",
    "name": "Basal",
    "region": "Himachal Pradesh",
    "short_region": "11",
    "lat": "31.580700",
    "lon": "76.210100"
  },
  {
    "id": "300008",
    "country": "IN",
    "zipcode": "17430",
    "name": "Panoh",
    "region": "Himachal Pradesh",
    "short_region": "11",
    "lat": "31.580700",
    "lon": "76.210100"
  },
  {
    "id": "300009",
    "country": "IN",
    "zipcode": "17430",
    "name": "Kotla Kalan",
    "region": "Himachal Pradesh",
    "short_region": "11",
    "lat": "31.580700",
    "lon": "76.210100"
  },
  {
    "id": "300010",
    "country": "IN",
    "zipcode": "17430",
    "name": "Dangoli",
    "region": "Himachal Pradesh",
    "short_region": "11",
    "lat": "31.238100",
    "lon": "76.695400"
  },
  {
    "id": "300011",
    "country": "IN",
    "zipcode": "17430",
    "name": "Chalola",
    "region": "Himachal Pradesh",
    "short_region": "11",
    "lat": "31.238100",
    "lon": "76.695400"
  },
  {
    "id": "300012",
    "country": "IN",
    "zipcode": "17430",
    "name": "Barnoh",
    "region": "Himachal Pradesh",
    "short_region": "11",
    "lat": "31.238100",
    "lon": "76.695400"
  },
  {
    "id": "300013",
    "country": "IN",
    "zipcode": "17430",
    "name": "Dathwara",
    "region": "Himachal Pradesh",
    "short_region": "11",
    "lat": "31.238100",
    "lon": "76.695400"
  },
  {
    "id": "300014",
    "country": "IN",
    "zipcode": "17430",
    "name": "Badsala",
    "region": "Himachal Pradesh",
    "short_region": "11",
    "lat": "31.238100",
    "lon": "76.695400"
  },
  {
    "id": "300015",
    "country": "IN",
    "zipcode": "17430",
    "name": "Jankaur",
    "region": "Himachal Pradesh",
    "short_region": "11",
    "lat": "31.238100",
    "lon": "76.695400"
  },
  {
    "id": "300016",
    "country": "IN",
    "zipcode": "17430",
    "name": "Dera Baba Rudra Nand",
    "region": "Himachal Pradesh",
    "short_region": "11",
    "lat": "31.238100",
    "lon": "76.695400"
  },
  {
    "id": "300017",
    "country": "IN",
    "zipcode": "17430",
    "name": "Teuri",
    "region": "Himachal Pradesh",
    "short_region": "11",
    "lat": "31.238100",
    "lon": "76.695400"
  },
  {
    "id": "300018",
    "country": "IN",
    "zipcode": "17430",
    "name": "Takka",
    "region": "Himachal Pradesh",
    "short_region": "11",
    "lat": "31.238100",
    "lon": "76.695400"
  },
  {
    "id": "300019",
    "country": "IN",
    "zipcode": "17430",
    "name": "Samoor Kalan",
    "region": "Himachal Pradesh",
    "short_region": "11",
    "lat": "31.238100",
    "lon": "76.695400"
  },
  {
    "id": "300020",
    "country": "IN",
    "zipcode": "17430",
    "name": "Rainsary",
    "region": "Himachal Pradesh",
    "short_region": "11",
    "lat": "31.238100",
    "lon": "76.695400"
  },
  {
    "id": "300021",
    "country": "IN",
    "zipcode": "17430",
    "name": "Nangal Salangri",
    "region": "Himachal Pradesh",
    "short_region": "11",
    "lat": "31.238100",
    "lon": "76.695400"
  },
  {
    "id": "300022",
    "country": "IN",
    "zipcode": "17430",
    "name": "Lamlehri",
    "region": "Himachal Pradesh",
    "short_region": "11",
    "lat": "31.238100",
    "lon": "76.695400"
  },
  {
    "id": "300023",
    "country": "IN",
    "zipcode": "17430",
    "name": "Kuriala",
    "region": "Himachal Pradesh",
    "short_region": "11",
    "lat": "31.238100",
    "lon": "76.695400"
  },
  {
    "id": "300024",
    "country": "IN",
    "zipcode": "17430",
    "name": "Kotla Khurd",
    "region": "Himachal Pradesh",
    "short_region": "11",
    "lat": "31.238100",
    "lon": "76.695400"
  },
  {
    "id": "300025",
    "country": "IN",
    "zipcode": "17430",
    "name": "Rakkar Colony",
    "region": "Himachal Pradesh",
    "short_region": "11",
    "lat": "31.238100",
    "lon": "76.695400"
  },
  {
    "id": "300026",
    "country": "IN",
    "zipcode": "17430",
    "name": "Jhamber",
    "region": "Himachal Pradesh",
    "short_region": "11",
    "lat": "31.238100",
    "lon": "76.695400"
  },
  {
    "id": "300027",
    "country": "IN",
    "zipcode": "17430",
    "name": "Una H.O",
    "region": "Himachal Pradesh",
    "short_region": "11",
    "lat": "31.238100",
    "lon": "76.695400"
  },
  {
    "id": "300028",
    "country": "IN",
    "zipcode": "17430",
    "name": "Distt.Court Una",
    "region": "Himachal Pradesh",
    "short_region": "11",
    "lat": "31.238100",
    "lon": "76.695400"
  },
  {
    "id": "300029",
    "country": "IN",
    "zipcode": "17430",
    "name": "Dhamandri",
    "region": "Himachal Pradesh",
    "short_region": "11",
    "lat": "31.238100",
    "lon": "76.695400"
  },
  {
    "id": "300030",
    "country": "IN",
    "zipcode": "17430",
    "name": "Basoli",
    "region": "Himachal Pradesh",
    "short_region": "11",
    "lat": "31.478900",
    "lon": "76.317400"
  },
  {
    "id": "300031",
    "country": "IN",
    "zipcode": "17430",
    "name": "Dehlan",
    "region": "Himachal Pradesh",
    "short_region": "11",
    "lat": "31.425000",
    "lon": "76.332900"
  },
  {
    "id": "300032",
    "country": "IN",
    "zipcode": "17430",
    "name": "Chatara",
    "region": "Himachal Pradesh",
    "short_region": "11",
    "lat": "31.425000",
    "lon": "76.332900"
  },
  {
    "id": "300033",
    "country": "IN",
    "zipcode": "17430",
    "name": "Behdala",
    "region": "Himachal Pradesh",
    "short_region": "11",
    "lat": "31.425000",
    "lon": "76.332900"
  },
  {
    "id": "300034",
    "country": "IN",
    "zipcode": "17430",
    "name": "Badehar",
    "region": "Himachal Pradesh",
    "short_region": "11",
    "lat": "31.425000",
    "lon": "76.332900"
  },
  {
    "id": "300035",
    "country": "IN",
    "zipcode": "17430",
    "name": "Tabba Behdala",
    "region": "Himachal Pradesh",
    "short_region": "11",
    "lat": "31.425000",
    "lon": "76.332900"
  },
  {
    "id": "300036",
    "country": "IN",
    "zipcode": "17430",
    "name": "Dohgi Upperli",
    "region": "Himachal Pradesh",
    "short_region": "11",
    "lat": "31.305700",
    "lon": "76.840500"
  },
  {
    "id": "300037",
    "country": "IN",
    "zipcode": "17430",
    "name": "Thathoon",
    "region": "Himachal Pradesh",
    "short_region": "11",
    "lat": "31.305700",
    "lon": "76.840500"
  },
  {
    "id": "300038",
    "country": "IN",
    "zipcode": "17430",
    "name": "Jatehri",
    "region": "Himachal Pradesh",
    "short_region": "11",
    "lat": "31.305700",
    "lon": "76.840500"
  },
  {
    "id": "300039",
    "country": "IN",
    "zipcode": "17430",
    "name": "Nari Devi Singh",
    "region": "Himachal Pradesh",
    "short_region": "11",
    "lat": "31.305700",
    "lon": "76.840500"
  },
  {
    "id": "300040",
    "country": "IN",
    "zipcode": "17430",
    "name": "Bangana",
    "region": "Himachal Pradesh",
    "short_region": "11",
    "lat": "31.305700",
    "lon": "76.840500"
  },
  {
    "id": "300041",
    "country": "IN",
    "zipcode": "17430",
    "name": "Harot",
    "region": "Himachal Pradesh",
    "short_region": "11",
    "lat": "31.305700",
    "lon": "76.840500"
  },
  {
    "id": "300042",
    "country": "IN",
    "zipcode": "17430",
    "name": "Jassana",
    "region": "Himachal Pradesh",
    "short_region": "11",
    "lat": "31.305700",
    "lon": "76.840500"
  },
  {
    "id": "300043",
    "country": "IN",
    "zipcode": "17430",
    "name": "Charara",
    "region": "Himachal Pradesh",
    "short_region": "11",
    "lat": "31.305700",
    "lon": "76.840500"
  },
  {
    "id": "300044",
    "country": "IN",
    "zipcode": "17430",
    "name": "Arlu",
    "region": "Himachal Pradesh",
    "short_region": "11",
    "lat": "31.580700",
    "lon": "76.210100"
  },
  {
    "id": "300045",
    "country": "IN",
    "zipcode": "17430",
    "name": "Hatli",
    "region": "Himachal Pradesh",
    "short_region": "11",
    "lat": "31.580700",
    "lon": "76.210100"
  },
  {
    "id": "300046",
    "country": "IN",
    "zipcode": "17430",
    "name": "Malangar",
    "region": "Himachal Pradesh",
    "short_region": "11",
    "lat": "31.518300",
    "lon": "77.078600"
  },
  {
    "id": "300047",
    "country": "IN",
    "zipcode": "17430",
    "name": "Tanoh",
    "region": "Himachal Pradesh",
    "short_region": "11",
    "lat": "31.518300",
    "lon": "77.078600"
  },
  {
    "id": "300048",
    "country": "IN",
    "zipcode": "17430",
    "name": "Kohdra",
    "region": "Himachal Pradesh",
    "short_region": "11",
    "lat": "31.518300",
    "lon": "77.078600"
  },
  {
    "id": "300049",
    "country": "IN",
    "zipcode": "17430",
    "name": "Dhundla",
    "region": "Himachal Pradesh",
    "short_region": "11",
    "lat": "31.518300",
    "lon": "77.078600"
  },
  {
    "id": "300050",
    "country": "IN",
    "zipcode": "17430",
    "name": "Budhan",
    "region": "Himachal Pradesh",
    "short_region": "11",
    "lat": "31.580700",
    "lon": "76.210100"
  },
  {
    "id": "300051",
    "country": "IN",
    "zipcode": "17430",
    "name": "Lathiani",
    "region": "Himachal Pradesh",
    "short_region": "11",
    "lat": "31.518300",
    "lon": "77.078600"
  },
  {
    "id": "300052",
    "country": "IN",
    "zipcode": "17430",
    "name": "Chamiari",
    "region": "Himachal Pradesh",
    "short_region": "11",
    "lat": "31.518300",
    "lon": "77.078600"
  },
  {
    "id": "300053",
    "country": "IN",
    "zipcode": "17431",
    "name": "Ambehra Dhiraj",
    "region": "Himachal Pradesh",
    "short_region": "11",
    "lat": "31.338700",
    "lon": "76.710700"
  },
  {
    "id": "300054",
    "country": "IN",
    "zipcode": "17431",
    "name": "Bhalaun",
    "region": "Himachal Pradesh",
    "short_region": "11",
    "lat": "31.338700",
    "lon": "76.710700"
  },
  {
    "id": "300055",
    "country": "IN",
    "zipcode": "17431",
    "name": "Chowki Maniar",
    "region": "Himachal Pradesh",
    "short_region": "11",
    "lat": "31.338700",
    "lon": "76.710700"
  },
  {
    "id": "300056",
    "country": "IN",
    "zipcode": "17431",
    "name": "Nangran",
    "region": "Himachal Pradesh",
    "short_region": "11",
    "lat": "31.308900",
    "lon": "76.820300"
  },
  {
    "id": "300057",
    "country": "IN",
    "zipcode": "17431",
    "name": "Raipur Sahoran",
    "region": "Himachal Pradesh",
    "short_region": "11",
    "lat": "31.308900",
    "lon": "76.820300"
  },
  {
    "id": "300058",
    "country": "IN",
    "zipcode": "17431",
    "name": "Bhatoli",
    "region": "Himachal Pradesh",
    "short_region": "11",
    "lat": "31.580700",
    "lon": "76.210100"
  },
  {
    "id": "300059",
    "country": "IN",
    "zipcode": "17431",
    "name": "Charatghar",
    "region": "Himachal Pradesh",
    "short_region": "11",
    "lat": "31.308900",
    "lon": "76.820300"
  },
  {
    "id": "300060",
    "country": "IN",
    "zipcode": "17431",
    "name": "Mehatpur (Una)",
    "region": "Himachal Pradesh",
    "short_region": "11",
    "lat": "31.308900",
    "lon": "76.820300"
  },
  {
    "id": "300061",
    "country": "IN",
    "zipcode": "17431",
    "name": "Jakhera",
    "region": "Himachal Pradesh",
    "short_region": "11",
    "lat": "31.308900",
    "lon": "76.820300"
  },
  {
    "id": "300062",
    "country": "IN",
    "zipcode": "17431",
    "name": "Bhera",
    "region": "Himachal Pradesh",
    "short_region": "11",
    "lat": "31.580700",
    "lon": "76.210100"
  },
  {
    "id": "300063",
    "country": "IN",
    "zipcode": "17431",
    "name": "Diara",
    "region": "Himachal Pradesh",
    "short_region": "11",
    "lat": "31.580700",
    "lon": "76.210100"
  },
  {
    "id": "300064",
    "country": "IN",
    "zipcode": "17431",
    "name": "Hamboli",
    "region": "Himachal Pradesh",
    "short_region": "11",
    "lat": "31.705500",
    "lon": "76.542000"
  },
  {
    "id": "300065",
    "country": "IN",
    "zipcode": "17431",
    "name": "Bhadsali",
    "region": "Himachal Pradesh",
    "short_region": "11",
    "lat": "31.338700",
    "lon": "76.710700"
  },
  {
    "id": "300066",
    "country": "IN",
    "zipcode": "17431",
    "name": "Marwari",
    "region": "Himachal Pradesh",
    "short_region": "11",
    "lat": "31.795400",
    "lon": "75.982900"
  },
  {
    "id": "300067",
    "country": "IN",
    "zipcode": "17431",
    "name": "Ganu",
    "region": "Himachal Pradesh",
    "short_region": "11",
    "lat": "31.580700",
    "lon": "76.210100"
  },
  {
    "id": "300068",
    "country": "IN",
    "zipcode": "17431",
    "name": "Saloh Beri",
    "region": "Himachal Pradesh",
    "short_region": "11",
    "lat": "31.226300",
    "lon": "76.671600"
  },
  {
    "id": "300069",
    "country": "IN",
    "zipcode": "17432",
    "name": "Talmehra",
    "region": "Himachal Pradesh",
    "short_region": "11",
    "lat": "31.670300",
    "lon": "76.505600"
  },
  {
    "id": "300070",
    "country": "IN",
    "zipcode": "17432",
    "name": "Makrer",
    "region": "Himachal Pradesh",
    "short_region": "11",
    "lat": "31.580700",
    "lon": "76.210100"
  },
  {
    "id": "300071",
    "country": "IN",
    "zipcode": "17432",
    "name": "Mandli",
    "region": "Himachal Pradesh",
    "short_region": "11",
    "lat": "31.580700",
    "lon": "76.210100"
  },
  {
    "id": "300072",
    "country": "IN",
    "zipcode": "17432",
    "name": "Paroian",
    "region": "Himachal Pradesh",
    "short_region": "11",
    "lat": "31.670300",
    "lon": "76.505600"
  },
  {
    "id": "300073",
    "country": "IN",
    "zipcode": "17432",
    "name": "Thanakalan",
    "region": "Himachal Pradesh",
    "short_region": "11",
    "lat": "31.670300",
    "lon": "76.505600"
  },
  {
    "id": "300074",
    "country": "IN",
    "zipcode": "17432",
    "name": "Bhadwar",
    "region": "Himachal Pradesh",
    "short_region": "11",
    "lat": "31.670300",
    "lon": "76.505600"
  },
  {
    "id": "300075",
    "country": "IN",
    "zipcode": "17432",
    "name": "Khurwain",
    "region": "Himachal Pradesh",
    "short_region": "11",
    "lat": "31.670300",
    "lon": "76.505600"
  },
  {
    "id": "300076",
    "country": "IN",
    "zipcode": "17432",
    "name": "Balh",
    "region": "Himachal Pradesh",
    "short_region": "11",
    "lat": "31.580700",
    "lon": "76.210100"
  },
  {
    "id": "300077",
    "country": "IN",
    "zipcode": "17432",
    "name": "Chhaproh",
    "region": "Himachal Pradesh",
    "short_region": "11",
    "lat": "31.803000",
    "lon": "76.104400"
  },
  {
    "id": "300078",
    "country": "IN",
    "zipcode": "17450",
    "name": "Kuthar Beet",
    "region": "Himachal Pradesh",
    "short_region": "11",
    "lat": "31.481700",
    "lon": "76.562400"
  },
  {
    "id": "300079",
    "country": "IN",
    "zipcode": "17450",
    "name": "Pubowal",
    "region": "Himachal Pradesh",
    "short_region": "11",
    "lat": "31.481700",
    "lon": "76.562400"
  },
  {
    "id": "300080",
    "country": "IN",
    "zipcode": "17450",
    "name": "Polian Beet",
    "region": "Himachal Pradesh",
    "short_region": "11",
    "lat": "31.481700",
    "lon": "76.562400"
  },
  {
    "id": "300081",
    "country": "IN",
    "zipcode": "17450",
    "name": "Bathu",
    "region": "Himachal Pradesh",
    "short_region": "11",
    "lat": "31.580700",
    "lon": "76.210100"
  },
  {
    "id": "300082",
    "country": "IN",
    "zipcode": "17450",
    "name": "Bathri",
    "region": "Himachal Pradesh",
    "short_region": "11",
    "lat": "32.047900",
    "lon": "76.007700"
  },
  {
    "id": "300083",
    "country": "IN",
    "zipcode": "17450",
    "name": "Tahliwal",
    "region": "Himachal Pradesh",
    "short_region": "11",
    "lat": "32.047900",
    "lon": "76.007700"
  },
  {
    "id": "300084",
    "country": "IN",
    "zipcode": "17450",
    "name": "Nangal Khurd",
    "region": "Himachal Pradesh",
    "short_region": "11",
    "lat": "32.047900",
    "lon": "76.007700"
  },
  {
    "id": "300085",
    "country": "IN",
    "zipcode": "17450",
    "name": "Butt Kalan",
    "region": "Himachal Pradesh",
    "short_region": "11",
    "lat": "32.047900",
    "lon": "76.007700"
  },
  {
    "id": "300086",
    "country": "IN",
    "zipcode": "17450",
    "name": "Lalri",
    "region": "Himachal Pradesh",
    "short_region": "11",
    "lat": "32.047900",
    "lon": "76.007700"
  },
  {
    "id": "300087",
    "country": "IN",
    "zipcode": "17660",
    "name": "Kungrat",
    "region": "Himachal Pradesh",
    "short_region": "11",
    "lat": "32.089300",
    "lon": "76.329200"
  },
  {
    "id": "300088",
    "country": "IN",
    "zipcode": "17660",
    "name": "Beetan",
    "region": "Himachal Pradesh",
    "short_region": "11",
    "lat": "32.089300",
    "lon": "76.329200"
  },
  {
    "id": "300089",
    "country": "IN",
    "zipcode": "17660",
    "name": "Biderwal",
    "region": "Himachal Pradesh",
    "short_region": "11",
    "lat": "32.089300",
    "lon": "76.329200"
  },
  {
    "id": "300090",
    "country": "IN",
    "zipcode": "17660",
    "name": "Gondpurjaichand",
    "region": "Himachal Pradesh",
    "short_region": "11",
    "lat": "32.089300",
    "lon": "76.329200"
  },
  {
    "id": "300091",
    "country": "IN",
    "zipcode": "17660",
    "name": "Gondpurbulla",
    "region": "Himachal Pradesh",
    "short_region": "11",
    "lat": "32.089300",
    "lon": "76.329200"
  },
  {
    "id": "300092",
    "country": "IN",
    "zipcode": "17660",
    "name": "Hiran",
    "region": "Himachal Pradesh",
    "short_region": "11",
    "lat": "32.089300",
    "lon": "76.329200"
  },
  {
    "id": "300093",
    "country": "IN",
    "zipcode": "17660",
    "name": "Dulehar",
    "region": "Himachal Pradesh",
    "short_region": "11",
    "lat": "32.089300",
    "lon": "76.329200"
  },
  {
    "id": "300094",
    "country": "IN",
    "zipcode": "17660",
    "name": "Singan",
    "region": "Himachal Pradesh",
    "short_region": "11",
    "lat": "32.089300",
    "lon": "76.329200"
  },
  {
    "id": "300095",
    "country": "IN",
    "zipcode": "17703",
    "name": "Chulhari",
    "region": "Himachal Pradesh",
    "short_region": "11",
    "lat": "31.473800",
    "lon": "76.406600"
  },
  {
    "id": "300096",
    "country": "IN",
    "zipcode": "17703",
    "name": "Raipur (Una)",
    "region": "Himachal Pradesh",
    "short_region": "11",
    "lat": "31.473800",
    "lon": "76.406600"
  },
  {
    "id": "300097",
    "country": "IN",
    "zipcode": "17703",
    "name": "Sohari",
    "region": "Himachal Pradesh",
    "short_region": "11",
    "lat": "31.580700",
    "lon": "76.210100"
  },
  {
    "id": "300098",
    "country": "IN",
    "zipcode": "17703",
    "name": "Bhindla",
    "region": "Himachal Pradesh",
    "short_region": "11",
    "lat": "31.580700",
    "lon": "76.210100"
  },
  {
    "id": "300099",
    "country": "IN",
    "zipcode": "17703",
    "name": "Paloh",
    "region": "Himachal Pradesh",
    "short_region": "11",
    "lat": "31.240000",
    "lon": "76.943800"
  },
  {
    "id": "300100",
    "country": "IN",
    "zipcode": "17704",
    "name": "Ghaloon",
    "region": "Himachal Pradesh",
    "short_region": "11",
    "lat": "31.807400",
    "lon": "76.442400"
  },
  {
    "id": "300101",
    "country": "IN",
    "zipcode": "17710",
    "name": "Lohara",
    "region": "Himachal Pradesh",
    "short_region": "11",
    "lat": "31.756500",
    "lon": "76.132300"
  },
  {
    "id": "300102",
    "country": "IN",
    "zipcode": "17710",
    "name": "Bharwain",
    "region": "Himachal Pradesh",
    "short_region": "11",
    "lat": "31.800300",
    "lon": "76.125500"
  },
  {
    "id": "300103",
    "country": "IN",
    "zipcode": "17710",
    "name": "Arn Behal",
    "region": "Himachal Pradesh",
    "short_region": "11",
    "lat": "31.786200",
    "lon": "76.227000"
  },
  {
    "id": "300104",
    "country": "IN",
    "zipcode": "17710",
    "name": "Kinoo",
    "region": "Himachal Pradesh",
    "short_region": "11",
    "lat": "31.786200",
    "lon": "76.227000"
  },
  {
    "id": "300105",
    "country": "IN",
    "zipcode": "17710",
    "name": "Jajjar",
    "region": "Himachal Pradesh",
    "short_region": "11",
    "lat": "31.580700",
    "lon": "76.210100"
  },
  {
    "id": "300106",
    "country": "IN",
    "zipcode": "17711",
    "name": "Chintpurni",
    "region": "Himachal Pradesh",
    "short_region": "11",
    "lat": "31.809600",
    "lon": "76.105400"
  },
  {
    "id": "300107",
    "country": "IN",
    "zipcode": "17711",
    "name": "Nari",
    "region": "Himachal Pradesh",
    "short_region": "11",
    "lat": "31.759000",
    "lon": "76.194100"
  },
  {
    "id": "300108",
    "country": "IN",
    "zipcode": "17711",
    "name": "Jawal",
    "region": "Himachal Pradesh",
    "short_region": "11",
    "lat": "31.792300",
    "lon": "76.085300"
  },
  {
    "id": "300109",
    "country": "IN",
    "zipcode": "17711",
    "name": "Bhater",
    "region": "Himachal Pradesh",
    "short_region": "11",
    "lat": "31.580700",
    "lon": "76.210100"
  },
  {
    "id": "300110",
    "country": "IN",
    "zipcode": "17711",
    "name": "Ghangret",
    "region": "Himachal Pradesh",
    "short_region": "11",
    "lat": "31.858700",
    "lon": "76.021900"
  },
  {
    "id": "300111",
    "country": "IN",
    "zipcode": "17711",
    "name": "Dhalwari",
    "region": "Himachal Pradesh",
    "short_region": "11",
    "lat": "31.747700",
    "lon": "76.311200"
  },
  {
    "id": "300112",
    "country": "IN",
    "zipcode": "17711",
    "name": "Dharamsal",
    "region": "Himachal Pradesh",
    "short_region": "11",
    "lat": "31.747700",
    "lon": "76.311200"
  },
  {
    "id": "300113",
    "country": "IN",
    "zipcode": "17711",
    "name": "Gindpur",
    "region": "Himachal Pradesh",
    "short_region": "11",
    "lat": "31.848500",
    "lon": "76.034600"
  },
  {
    "id": "300114",
    "country": "IN",
    "zipcode": "17720",
    "name": "Kaloh",
    "region": "Himachal Pradesh",
    "short_region": "11",
    "lat": "31.580700",
    "lon": "76.210100"
  },
  {
    "id": "300115",
    "country": "IN",
    "zipcode": "17720",
    "name": "Badoh",
    "region": "Himachal Pradesh",
    "short_region": "11",
    "lat": "31.444100",
    "lon": "76.548100"
  },
  {
    "id": "300116",
    "country": "IN",
    "zipcode": "17720",
    "name": "Gagret",
    "region": "Himachal Pradesh",
    "short_region": "11",
    "lat": "31.658500",
    "lon": "76.061400"
  },
  {
    "id": "300117",
    "country": "IN",
    "zipcode": "17720",
    "name": "Mubarikpur",
    "region": "Himachal Pradesh",
    "short_region": "11",
    "lat": "31.543200",
    "lon": "76.534200"
  },
  {
    "id": "300118",
    "country": "IN",
    "zipcode": "17720",
    "name": "Andora",
    "region": "Himachal Pradesh",
    "short_region": "11",
    "lat": "31.580700",
    "lon": "76.210100"
  },
  {
    "id": "300119",
    "country": "IN",
    "zipcode": "17720",
    "name": "Kalruhi",
    "region": "Himachal Pradesh",
    "short_region": "11",
    "lat": "31.580700",
    "lon": "76.210100"
  },
  {
    "id": "300120",
    "country": "IN",
    "zipcode": "17720",
    "name": "Amb",
    "region": "Himachal Pradesh",
    "short_region": "11",
    "lat": "31.685000",
    "lon": "76.121600"
  },
  {
    "id": "300121",
    "country": "IN",
    "zipcode": "17720",
    "name": "Saloi",
    "region": "Himachal Pradesh",
    "short_region": "11",
    "lat": "31.483600",
    "lon": "76.643100"
  },
  {
    "id": "300122",
    "country": "IN",
    "zipcode": "17720",
    "name": "Chowar",
    "region": "Himachal Pradesh",
    "short_region": "11",
    "lat": "31.483600",
    "lon": "76.643100"
  },
  {
    "id": "300123",
    "country": "IN",
    "zipcode": "17720",
    "name": "Kuthera Kherla",
    "region": "Himachal Pradesh",
    "short_region": "11",
    "lat": "31.483600",
    "lon": "76.643100"
  },
  {
    "id": "300124",
    "country": "IN",
    "zipcode": "17720",
    "name": "Kataur Khurd",
    "region": "Himachal Pradesh",
    "short_region": "11",
    "lat": "31.483600",
    "lon": "76.643100"
  },
  {
    "id": "300125",
    "country": "IN",
    "zipcode": "17720",
    "name": "Daloh",
    "region": "Himachal Pradesh",
    "short_region": "11",
    "lat": "31.580700",
    "lon": "76.210100"
  },
  {
    "id": "300126",
    "country": "IN",
    "zipcode": "17720",
    "name": "Dangohkalan",
    "region": "Himachal Pradesh",
    "short_region": "11",
    "lat": "31.786100",
    "lon": "75.997700"
  },
  {
    "id": "300127",
    "country": "IN",
    "zipcode": "17720",
    "name": "Bhadarkali",
    "region": "Himachal Pradesh",
    "short_region": "11",
    "lat": "31.786100",
    "lon": "75.997700"
  },
  {
    "id": "300128",
    "country": "IN",
    "zipcode": "17720",
    "name": "Mawa Kaholan",
    "region": "Himachal Pradesh",
    "short_region": "11",
    "lat": "31.786100",
    "lon": "75.997700"
  },
  {
    "id": "300129",
    "country": "IN",
    "zipcode": "17720",
    "name": "Babehar",
    "region": "Himachal Pradesh",
    "short_region": "11",
    "lat": "31.781100",
    "lon": "75.986100"
  },
  {
    "id": "300130",
    "country": "IN",
    "zipcode": "17720",
    "name": "Amboa",
    "region": "Himachal Pradesh",
    "short_region": "11",
    "lat": "31.749300",
    "lon": "75.984100"
  },
  {
    "id": "300131",
    "country": "IN",
    "zipcode": "17720",
    "name": "Chalet",
    "region": "Himachal Pradesh",
    "short_region": "11",
    "lat": "31.763000",
    "lon": "75.998100"
  },
  {
    "id": "300132",
    "country": "IN",
    "zipcode": "17720",
    "name": "Pirthipur",
    "region": "Himachal Pradesh",
    "short_region": "11",
    "lat": "31.809500",
    "lon": "76.021200"
  },
  {
    "id": "300133",
    "country": "IN",
    "zipcode": "17720",
    "name": "Joh",
    "region": "Himachal Pradesh",
    "short_region": "11",
    "lat": "31.828000",
    "lon": "75.999100"
  },
  {
    "id": "300134",
    "country": "IN",
    "zipcode": "17720",
    "name": "Daulatpurchowk",
    "region": "Himachal Pradesh",
    "short_region": "11",
    "lat": "31.786100",
    "lon": "75.997700"
  },
  {
    "id": "300135",
    "country": "IN",
    "zipcode": "17720",
    "name": "Ambota",
    "region": "Himachal Pradesh",
    "short_region": "11",
    "lat": "31.580700",
    "lon": "76.210100"
  },
  {
    "id": "300136",
    "country": "IN",
    "zipcode": "17720",
    "name": "Kuthera Jaswalan",
    "region": "Himachal Pradesh",
    "short_region": "11",
    "lat": "31.543200",
    "lon": "76.534200"
  },
  {
    "id": "300137",
    "country": "IN",
    "zipcode": "17720",
    "name": "Mawa Sindhian",
    "region": "Himachal Pradesh",
    "short_region": "11",
    "lat": "31.543200",
    "lon": "76.534200"
  },
  {
    "id": "300138",
    "country": "IN",
    "zipcode": "17720",
    "name": "Oel (Una)",
    "region": "Himachal Pradesh",
    "short_region": "11",
    "lat": "31.543200",
    "lon": "76.534200"
  },
  {
    "id": "300139",
    "country": "IN",
    "zipcode": "17720",
    "name": "Khad",
    "region": "Himachal Pradesh",
    "short_region": "11",
    "lat": "31.580700",
    "lon": "76.210100"
  },
  {
    "id": "300140",
    "country": "IN",
    "zipcode": "17720",
    "name": "Ispur",
    "region": "Himachal Pradesh",
    "short_region": "11",
    "lat": "31.375700",
    "lon": "76.912000"
  },
  {
    "id": "300141",
    "country": "IN",
    "zipcode": "17720",
    "name": "Pandogha",
    "region": "Himachal Pradesh",
    "short_region": "11",
    "lat": "31.375700",
    "lon": "76.912000"
  },
  {
    "id": "300142",
    "country": "IN",
    "zipcode": "17720",
    "name": "Jadla",
    "region": "Himachal Pradesh",
    "short_region": "11",
    "lat": "31.301700",
    "lon": "77.259700"
  },
  {
    "id": "300143",
    "country": "IN",
    "zipcode": "17720",
    "name": "Guglehar",
    "region": "Himachal Pradesh",
    "short_region": "11",
    "lat": "31.301700",
    "lon": "77.259700"
  },
  {
    "id": "300144",
    "country": "IN",
    "zipcode": "17720",
    "name": "Nagnoli",
    "region": "Himachal Pradesh",
    "short_region": "11",
    "lat": "31.301700",
    "lon": "77.259700"
  },
  {
    "id": "300145",
    "country": "IN",
    "zipcode": "17720",
    "name": "Panjawar",
    "region": "Himachal Pradesh",
    "short_region": "11",
    "lat": "31.301700",
    "lon": "77.259700"
  },
  {
    "id": "300146",
    "country": "IN",
    "zipcode": "17720",
    "name": "Loharli",
    "region": "Himachal Pradesh",
    "short_region": "11",
    "lat": "31.580700",
    "lon": "76.210100"
  },
  {
    "id": "300147",
    "country": "IN",
    "zipcode": "17720",
    "name": "Saloh",
    "region": "Himachal Pradesh",
    "short_region": "11",
    "lat": "31.580700",
    "lon": "76.210100"
  },
  {
    "id": "300148",
    "country": "IN",
    "zipcode": "17720",
    "name": "Badhera",
    "region": "Himachal Pradesh",
    "short_region": "11",
    "lat": "31.580700",
    "lon": "76.210100"
  },
  {
    "id": "300149",
    "country": "IN",
    "zipcode": "17720",
    "name": "Kanger",
    "region": "Himachal Pradesh",
    "short_region": "11",
    "lat": "31.704100",
    "lon": "76.877700"
  },
  {
    "id": "300150",
    "country": "IN",
    "zipcode": "17721",
    "name": "Rajpur Jaswan",
    "region": "Himachal Pradesh",
    "short_region": "11",
    "lat": "32.181800",
    "lon": "76.201800"
  },
  {
    "id": "300151",
    "country": "IN",
    "zipcode": "17721",
    "name": "Polian Purohitan",
    "region": "Himachal Pradesh",
    "short_region": "11",
    "lat": "32.181800",
    "lon": "76.201800"
  },
  {
    "id": "300152",
    "country": "IN",
    "zipcode": "17721",
    "name": "Nehri Nauranga",
    "region": "Himachal Pradesh",
    "short_region": "11",
    "lat": "32.181800",
    "lon": "76.201800"
  },
  {
    "id": "300153",
    "country": "IN",
    "zipcode": "17721",
    "name": "Chaksarai",
    "region": "Himachal Pradesh",
    "short_region": "11",
    "lat": "32.181800",
    "lon": "76.201800"
  },
  {
    "id": "300154",
    "country": "IN",
    "zipcode": "17721",
    "name": "Mairi",
    "region": "Himachal Pradesh",
    "short_region": "11",
    "lat": "32.181800",
    "lon": "76.201800"
  },
  {
    "id": "300155",
    "country": "IN",
    "zipcode": "17721",
    "name": "Sapauri",
    "region": "Himachal Pradesh",
    "short_region": "11",
    "lat": "32.181800",
    "lon": "76.201800"
  },
  {
    "id": "300156",
    "country": "IN",
    "zipcode": "17721",
    "name": "Ripoh Misran",
    "region": "Himachal Pradesh",
    "short_region": "11",
    "lat": "32.181800",
    "lon": "76.201800"
  },
  {
    "id": "300157",
    "country": "IN",
    "zipcode": "17721",
    "name": "Suri",
    "region": "Himachal Pradesh",
    "short_region": "11",
    "lat": "31.580700",
    "lon": "76.210100"
  },
  {
    "id": "300158",
    "country": "IN",
    "zipcode": "17721",
    "name": "Jawar",
    "region": "Himachal Pradesh",
    "short_region": "11",
    "lat": "31.580700",
    "lon": "76.210100"
  },
  {
    "id": "300159",
    "country": "IN",
    "zipcode": "17721",
    "name": "Nandpur",
    "region": "Himachal Pradesh",
    "short_region": "11",
    "lat": "31.580700",
    "lon": "76.210100"
  },
  {
    "id": "300160",
    "country": "IN",
    "zipcode": "17721",
    "name": "Panjoa Ladoli",
    "region": "Himachal Pradesh",
    "short_region": "11",
    "lat": "31.912000",
    "lon": "76.438400"
  },
  {
    "id": "300161",
    "country": "IN",
    "zipcode": "17721",
    "name": "Churru",
    "region": "Himachal Pradesh",
    "short_region": "11",
    "lat": "31.912000",
    "lon": "76.438400"
  },
  {
    "id": "300162",
    "country": "IN",
    "zipcode": "17721",
    "name": "Katauhar Kalan",
    "region": "Himachal Pradesh",
    "short_region": "11",
    "lat": "31.912000",
    "lon": "76.438400"
  },
  {
    "id": "300163",
    "country": "IN",
    "zipcode": "17721",
    "name": "Takarala",
    "region": "Himachal Pradesh",
    "short_region": "11",
    "lat": "31.912000",
    "lon": "76.438400"
  },
  {
    "id": "300164",
    "country": "IN",
    "zipcode": "17721",
    "name": "Thathal",
    "region": "Himachal Pradesh",
    "short_region": "11",
    "lat": "31.580700",
    "lon": "76.210100"
  },
  {
    "id": "300165",
    "country": "IN",
    "zipcode": "17721",
    "name": "Kathiari",
    "region": "Himachal Pradesh",
    "short_region": "11",
    "lat": "31.580700",
    "lon": "76.210100"
  },
  {
    "id": "300166",
    "country": "IN",
    "zipcode": "17721",
    "name": "Nangal Jarialan",
    "region": "Himachal Pradesh",
    "short_region": "11",
    "lat": "31.542100",
    "lon": "76.403600"
  },
  {
    "id": "300167",
    "country": "IN",
    "zipcode": "17721",
    "name": "Sagnai",
    "region": "Himachal Pradesh",
    "short_region": "11",
    "lat": "31.542100",
    "lon": "76.403600"
  },
  {
    "id": "300168",
    "country": "IN",
    "zipcode": "17721",
    "name": "Ghanari",
    "region": "Himachal Pradesh",
    "short_region": "11",
    "lat": "31.712200",
    "lon": "75.993300"
  },
  {
    "id": "300169",
    "country": "IN",
    "zipcode": "17721",
    "name": "Deoli",
    "region": "Himachal Pradesh",
    "short_region": "11",
    "lat": "31.580700",
    "lon": "76.210100"
  },
  {
    "id": "300170",
    "country": "IN",
    "zipcode": "17721",
    "name": "Gondpur Banera",
    "region": "Himachal Pradesh",
    "short_region": "11",
    "lat": "31.764900",
    "lon": "76.080000"
  },
  {
    "id": "300171",
    "country": "IN",
    "zipcode": "17721",
    "name": "Kadh",
    "region": "Himachal Pradesh",
    "short_region": "11",
    "lat": "31.764900",
    "lon": "76.080000"
  },
  {
    "id": "300172",
    "country": "IN",
    "zipcode": "17721",
    "name": "Bhanjal",
    "region": "Himachal Pradesh",
    "short_region": "11",
    "lat": "31.764900",
    "lon": "76.080000"
  },
  {
    "id": "300173",
    "country": "IN",
    "zipcode": "17721",
    "name": "Nakroh",
    "region": "Himachal Pradesh",
    "short_region": "11",
    "lat": "31.764900",
    "lon": "76.080000"
  },
  {
    "id": "300174",
    "country": "IN",
    "zipcode": "17721",
    "name": "Sunkali",
    "region": "Himachal Pradesh",
    "short_region": "11",
    "lat": "31.868600",
    "lon": "76.325800"
  },
  {
    "id": "300175",
    "country": "IN",
    "zipcode": "17721",
    "name": "Kuneran",
    "region": "Himachal Pradesh",
    "short_region": "11",
    "lat": "31.868600",
    "lon": "76.325800"
  },
  {
    "id": "300176",
    "country": "IN",
    "zipcode": "17722",
    "name": "Haroli",
    "region": "Himachal Pradesh",
    "short_region": "11",
    "lat": "31.580700",
    "lon": "76.210100"
  },
  {
    "id": "300177",
    "country": "IN",
    "zipcode": "17722",
    "name": "Sainsowal",
    "region": "Himachal Pradesh",
    "short_region": "11",
    "lat": "31.489200",
    "lon": "76.768700"
  },
  {
    "id": "300178",
    "country": "IN",
    "zipcode": "17722",
    "name": "Bhadauri",
    "region": "Himachal Pradesh",
    "short_region": "11",
    "lat": "31.489200",
    "lon": "76.768700"
  },
  {
    "id": "300179",
    "country": "IN",
    "zipcode": "17722",
    "name": "Palakwah",
    "region": "Himachal Pradesh",
    "short_region": "11",
    "lat": "31.489200",
    "lon": "76.768700"
  },
  {
    "id": "300180",
    "country": "IN",
    "zipcode": "17722",
    "name": "Dharampur",
    "region": "Himachal Pradesh",
    "short_region": "11",
    "lat": "31.580700",
    "lon": "76.210100"
  },
  {
    "id": "300181",
    "country": "IN",
    "zipcode": "17722",
    "name": "Baliwal",
    "region": "Himachal Pradesh",
    "short_region": "11",
    "lat": "31.489200",
    "lon": "76.768700"
  },
  {
    "id": "300182",
    "country": "IN",
    "zipcode": "17110",
    "name": "Beral",
    "region": "Himachal Pradesh",
    "short_region": "11",
    "lat": "31.042900",
    "lon": "76.909500"
  },
  {
    "id": "300183",
    "country": "IN",
    "zipcode": "17110",
    "name": "Mangal",
    "region": "Himachal Pradesh",
    "short_region": "11",
    "lat": "31.042900",
    "lon": "76.909500"
  },
  {
    "id": "300184",
    "country": "IN",
    "zipcode": "17110",
    "name": "Darla",
    "region": "Himachal Pradesh",
    "short_region": "11",
    "lat": "31.042900",
    "lon": "76.909500"
  },
  {
    "id": "300185",
    "country": "IN",
    "zipcode": "17110",
    "name": "Parnoo",
    "region": "Himachal Pradesh",
    "short_region": "11",
    "lat": "31.153700",
    "lon": "77.317800"
  },
  {
    "id": "300186",
    "country": "IN",
    "zipcode": "17110",
    "name": "Sewra Chandi",
    "region": "Himachal Pradesh",
    "short_region": "11",
    "lat": "31.153700",
    "lon": "77.317800"
  },
  {
    "id": "300187",
    "country": "IN",
    "zipcode": "17110",
    "name": "Chakhar Bughar",
    "region": "Himachal Pradesh",
    "short_region": "11",
    "lat": "31.153700",
    "lon": "77.317800"
  },
  {
    "id": "300188",
    "country": "IN",
    "zipcode": "17110",
    "name": "Mangoo",
    "region": "Himachal Pradesh",
    "short_region": "11",
    "lat": "31.153700",
    "lon": "77.317800"
  },
  {
    "id": "300189",
    "country": "IN",
    "zipcode": "17110",
    "name": "Danoghat",
    "region": "Himachal Pradesh",
    "short_region": "11",
    "lat": "31.153700",
    "lon": "77.317800"
  },
  {
    "id": "300190",
    "country": "IN",
    "zipcode": "17110",
    "name": "Ganagughat",
    "region": "Himachal Pradesh",
    "short_region": "11",
    "lat": "31.153700",
    "lon": "77.317800"
  },
  {
    "id": "300191",
    "country": "IN",
    "zipcode": "17110",
    "name": "Kashlog",
    "region": "Himachal Pradesh",
    "short_region": "11",
    "lat": "31.257400",
    "lon": "76.973500"
  },
  {
    "id": "300192",
    "country": "IN",
    "zipcode": "17110",
    "name": "Nagaon",
    "region": "Himachal Pradesh",
    "short_region": "11",
    "lat": "30.982000",
    "lon": "77.137000"
  },
  {
    "id": "300193",
    "country": "IN",
    "zipcode": "17320",
    "name": "Garkhal",
    "region": "Himachal Pradesh",
    "short_region": "11",
    "lat": "30.901400",
    "lon": "76.981900"
  },
  {
    "id": "300194",
    "country": "IN",
    "zipcode": "17320",
    "name": "Sanawar",
    "region": "Himachal Pradesh",
    "short_region": "11",
    "lat": "30.899700",
    "lon": "76.994500"
  },
  {
    "id": "300195",
    "country": "IN",
    "zipcode": "17320",
    "name": "Kasauli",
    "region": "Himachal Pradesh",
    "short_region": "11",
    "lat": "30.898600",
    "lon": "76.965900"
  },
  {
    "id": "300196",
    "country": "IN",
    "zipcode": "17320",
    "name": "Kasauli RI",
    "region": "Himachal Pradesh",
    "short_region": "11",
    "lat": "30.898600",
    "lon": "76.965900"
  },
  {
    "id": "300197",
    "country": "IN",
    "zipcode": "17320",
    "name": "KASAULI M T",
    "region": "Himachal Pradesh",
    "short_region": "11",
    "lat": "30.898600",
    "lon": "76.965900"
  },
  {
    "id": "300198",
    "country": "IN",
    "zipcode": "17320",
    "name": "Haripur Sandoli",
    "region": "Himachal Pradesh",
    "short_region": "11",
    "lat": "31.039400",
    "lon": "76.794100"
  },
  {
    "id": "300199",
    "country": "IN",
    "zipcode": "17320",
    "name": "Bhood",
    "region": "Himachal Pradesh",
    "short_region": "11",
    "lat": "31.039400",
    "lon": "76.794100"
  },
  {
    "id": "300200",
    "country": "IN",
    "zipcode": "17320",
    "name": "Bhatoli Kalan",
    "region": "Himachal Pradesh",
    "short_region": "11",
    "lat": "31.039400",
    "lon": "76.794100"
  },
  {
    "id": "300201",
    "country": "IN",
    "zipcode": "17320",
    "name": "Sai",
    "region": "Himachal Pradesh",
    "short_region": "11",
    "lat": "31.042900",
    "lon": "76.909500"
  },
  {
    "id": "300202",
    "country": "IN",
    "zipcode": "17320",
    "name": "Baddi",
    "region": "Himachal Pradesh",
    "short_region": "11",
    "lat": "30.957800",
    "lon": "76.791400"
  },
  {
    "id": "300203",
    "country": "IN",
    "zipcode": "17320",
    "name": "Thana",
    "region": "Himachal Pradesh",
    "short_region": "11",
    "lat": "30.975500",
    "lon": "76.806700"
  },
  {
    "id": "300204",
    "country": "IN",
    "zipcode": "17320",
    "name": "Karuana",
    "region": "Himachal Pradesh",
    "short_region": "11",
    "lat": "30.951000",
    "lon": "76.804100"
  },
  {
    "id": "300205",
    "country": "IN",
    "zipcode": "17320",
    "name": "Haripur",
    "region": "Himachal Pradesh",
    "short_region": "11",
    "lat": "30.929500",
    "lon": "76.878900"
  },
  {
    "id": "300206",
    "country": "IN",
    "zipcode": "17320",
    "name": "Kakkar Hatti",
    "region": "Himachal Pradesh",
    "short_region": "11",
    "lat": "30.974300",
    "lon": "76.977600"
  },
  {
    "id": "300207",
    "country": "IN",
    "zipcode": "17320",
    "name": "Delgi",
    "region": "Himachal Pradesh",
    "short_region": "11",
    "lat": "30.989900",
    "lon": "77.028900"
  },
  {
    "id": "300208",
    "country": "IN",
    "zipcode": "17320",
    "name": "Bharti",
    "region": "Himachal Pradesh",
    "short_region": "11",
    "lat": "31.002800",
    "lon": "77.011100"
  },
  {
    "id": "300209",
    "country": "IN",
    "zipcode": "17320",
    "name": "Subathu",
    "region": "Himachal Pradesh",
    "short_region": "11",
    "lat": "30.974900",
    "lon": "76.991400"
  },
  {
    "id": "300210",
    "country": "IN",
    "zipcode": "17320",
    "name": "Koti",
    "region": "Himachal Pradesh",
    "short_region": "11",
    "lat": "30.891200",
    "lon": "76.883300"
  },
  {
    "id": "300211",
    "country": "IN",
    "zipcode": "17320",
    "name": "Kahala",
    "region": "Himachal Pradesh",
    "short_region": "11",
    "lat": "31.042900",
    "lon": "76.909500"
  },
  {
    "id": "300212",
    "country": "IN",
    "zipcode": "17320",
    "name": "Shardaghat",
    "region": "Himachal Pradesh",
    "short_region": "11",
    "lat": "30.927200",
    "lon": "77.162400"
  },
  {
    "id": "300213",
    "country": "IN",
    "zipcode": "17320",
    "name": "Sayri",
    "region": "Himachal Pradesh",
    "short_region": "11",
    "lat": "30.927200",
    "lon": "77.162400"
  },
  {
    "id": "300214",
    "country": "IN",
    "zipcode": "17320",
    "name": "Brauri",
    "region": "Himachal Pradesh",
    "short_region": "11",
    "lat": "30.927200",
    "lon": "77.162400"
  },
  {
    "id": "300215",
    "country": "IN",
    "zipcode": "17320",
    "name": "Khararhatti",
    "region": "Himachal Pradesh",
    "short_region": "11",
    "lat": "30.927200",
    "lon": "77.162400"
  },
  {
    "id": "300216",
    "country": "IN",
    "zipcode": "17320",
    "name": "Kunihar",
    "region": "Himachal Pradesh",
    "short_region": "11",
    "lat": "30.927200",
    "lon": "77.162400"
  },
  {
    "id": "300217",
    "country": "IN",
    "zipcode": "17320",
    "name": "Jubla",
    "region": "Himachal Pradesh",
    "short_region": "11",
    "lat": "30.927200",
    "lon": "77.162400"
  },
  {
    "id": "300218",
    "country": "IN",
    "zipcode": "17320",
    "name": "Bhainch Kuftoo",
    "region": "Himachal Pradesh",
    "short_region": "11",
    "lat": "30.927200",
    "lon": "77.162400"
  },
  {
    "id": "300219",
    "country": "IN",
    "zipcode": "17320",
    "name": "DheolaB.O",
    "region": "Himachal Pradesh",
    "short_region": "11",
    "lat": "30.927200",
    "lon": "77.162400"
  },
  {
    "id": "300220",
    "country": "IN",
    "zipcode": "17320",
    "name": "Manjhyat",
    "region": "Himachal Pradesh",
    "short_region": "11",
    "lat": "31.207100",
    "lon": "76.899900"
  },
  {
    "id": "300221",
    "country": "IN",
    "zipcode": "17320",
    "name": "Sujhaila",
    "region": "Himachal Pradesh",
    "short_region": "11",
    "lat": "31.207100",
    "lon": "76.899900"
  },
  {
    "id": "300222",
    "country": "IN",
    "zipcode": "17320",
    "name": "Shalaghat",
    "region": "Himachal Pradesh",
    "short_region": "11",
    "lat": "31.207100",
    "lon": "76.899900"
  },
  {
    "id": "300223",
    "country": "IN",
    "zipcode": "17320",
    "name": "Palania",
    "region": "Himachal Pradesh",
    "short_region": "11",
    "lat": "31.207100",
    "lon": "76.899900"
  },
  {
    "id": "300224",
    "country": "IN",
    "zipcode": "17320",
    "name": "Manjoo",
    "region": "Himachal Pradesh",
    "short_region": "11",
    "lat": "31.207100",
    "lon": "76.899900"
  },
  {
    "id": "300225",
    "country": "IN",
    "zipcode": "17320",
    "name": "Bakhalag",
    "region": "Himachal Pradesh",
    "short_region": "11",
    "lat": "31.207100",
    "lon": "76.899900"
  },
  {
    "id": "300226",
    "country": "IN",
    "zipcode": "17320",
    "name": "Batal",
    "region": "Himachal Pradesh",
    "short_region": "11",
    "lat": "31.207100",
    "lon": "76.899900"
  },
  {
    "id": "300227",
    "country": "IN",
    "zipcode": "17320",
    "name": "Arki",
    "region": "Himachal Pradesh",
    "short_region": "11",
    "lat": "31.152000",
    "lon": "76.966800"
  },
  {
    "id": "300228",
    "country": "IN",
    "zipcode": "17320",
    "name": "Palog",
    "region": "Himachal Pradesh",
    "short_region": "11",
    "lat": "31.042900",
    "lon": "76.909500"
  },
  {
    "id": "300229",
    "country": "IN",
    "zipcode": "17320",
    "name": "Kanda",
    "region": "Himachal Pradesh",
    "short_region": "11",
    "lat": "30.928400",
    "lon": "77.007400"
  },
  {
    "id": "300230",
    "country": "IN",
    "zipcode": "17320",
    "name": "Rouri",
    "region": "Himachal Pradesh",
    "short_region": "11",
    "lat": "30.914300",
    "lon": "77.027300"
  },
  {
    "id": "300231",
    "country": "IN",
    "zipcode": "17320",
    "name": "Mandodhar",
    "region": "Himachal Pradesh",
    "short_region": "11",
    "lat": "30.914300",
    "lon": "77.027300"
  },
  {
    "id": "300232",
    "country": "IN",
    "zipcode": "17320",
    "name": "Dharampur (Solan)",
    "region": "Himachal Pradesh",
    "short_region": "11",
    "lat": "30.914300",
    "lon": "77.027300"
  },
  {
    "id": "300233",
    "country": "IN",
    "zipcode": "17320",
    "name": "Dhar Ki Ber",
    "region": "Himachal Pradesh",
    "short_region": "11",
    "lat": "30.914300",
    "lon": "77.027300"
  },
  {
    "id": "300234",
    "country": "IN",
    "zipcode": "17320",
    "name": "Jabli",
    "region": "Himachal Pradesh",
    "short_region": "11",
    "lat": "30.900200",
    "lon": "77.047200"
  },
  {
    "id": "300235",
    "country": "IN",
    "zipcode": "17321",
    "name": "Dagshai",
    "region": "Himachal Pradesh",
    "short_region": "11",
    "lat": "30.884300",
    "lon": "77.052300"
  },
  {
    "id": "300236",
    "country": "IN",
    "zipcode": "17321",
    "name": "Barog R.S.B.O",
    "region": "Himachal Pradesh",
    "short_region": "11",
    "lat": "30.738100",
    "lon": "77.089000"
  },
  {
    "id": "300237",
    "country": "IN",
    "zipcode": "17321",
    "name": "Saproon",
    "region": "Himachal Pradesh",
    "short_region": "11",
    "lat": "30.738100",
    "lon": "77.089000"
  },
  {
    "id": "300238",
    "country": "IN",
    "zipcode": "17321",
    "name": "Deothi",
    "region": "Himachal Pradesh",
    "short_region": "11",
    "lat": "31.042900",
    "lon": "76.909500"
  },
  {
    "id": "300239",
    "country": "IN",
    "zipcode": "17321",
    "name": "Ghatti",
    "region": "Himachal Pradesh",
    "short_region": "11",
    "lat": "30.738100",
    "lon": "77.089000"
  },
  {
    "id": "300240",
    "country": "IN",
    "zipcode": "17321",
    "name": "Gaura",
    "region": "Himachal Pradesh",
    "short_region": "11",
    "lat": "31.042900",
    "lon": "76.909500"
  },
  {
    "id": "300241",
    "country": "IN",
    "zipcode": "17321",
    "name": "Galanag",
    "region": "Himachal Pradesh",
    "short_region": "11",
    "lat": "31.091600",
    "lon": "77.265700"
  },
  {
    "id": "300242",
    "country": "IN",
    "zipcode": "17321",
    "name": "RR Solan",
    "region": "Himachal Pradesh",
    "short_region": "11",
    "lat": "31.091600",
    "lon": "77.265700"
  },
  {
    "id": "300243",
    "country": "IN",
    "zipcode": "17321",
    "name": "Solan H.O",
    "region": "Himachal Pradesh",
    "short_region": "11",
    "lat": "31.091600",
    "lon": "77.265700"
  },
  {
    "id": "300244",
    "country": "IN",
    "zipcode": "17321",
    "name": "Shamti",
    "region": "Himachal Pradesh",
    "short_region": "11",
    "lat": "31.091600",
    "lon": "77.265700"
  },
  {
    "id": "300245",
    "country": "IN",
    "zipcode": "17321",
    "name": "Damkari",
    "region": "Himachal Pradesh",
    "short_region": "11",
    "lat": "31.091600",
    "lon": "77.265700"
  },
  {
    "id": "300246",
    "country": "IN",
    "zipcode": "17321",
    "name": "Kotla",
    "region": "Himachal Pradesh",
    "short_region": "11",
    "lat": "30.971600",
    "lon": "77.127700"
  },
  {
    "id": "300247",
    "country": "IN",
    "zipcode": "17321",
    "name": "Jaunaji",
    "region": "Himachal Pradesh",
    "short_region": "11",
    "lat": "30.893500",
    "lon": "77.147700"
  },
  {
    "id": "300248",
    "country": "IN",
    "zipcode": "17321",
    "name": "Chambaghat",
    "region": "Himachal Pradesh",
    "short_region": "11",
    "lat": "30.945100",
    "lon": "77.085400"
  },
  {
    "id": "300249",
    "country": "IN",
    "zipcode": "17321",
    "name": "Basal",
    "region": "Himachal Pradesh",
    "short_region": "11",
    "lat": "30.934800",
    "lon": "77.093800"
  },
  {
    "id": "300250",
    "country": "IN",
    "zipcode": "17321",
    "name": "Dharot",
    "region": "Himachal Pradesh",
    "short_region": "11",
    "lat": "30.955400",
    "lon": "77.077000"
  },
  {
    "id": "300251",
    "country": "IN",
    "zipcode": "17321",
    "name": "Kasauli MT",
    "region": "Himachal Pradesh",
    "short_region": "11",
    "lat": "30.963500",
    "lon": "77.162800"
  },
  {
    "id": "300252",
    "country": "IN",
    "zipcode": "17321",
    "name": "Salogra",
    "region": "Himachal Pradesh",
    "short_region": "11",
    "lat": "30.963500",
    "lon": "77.162800"
  },
  {
    "id": "300253",
    "country": "IN",
    "zipcode": "17321",
    "name": "Solan Brewery",
    "region": "Himachal Pradesh",
    "short_region": "11",
    "lat": "30.963500",
    "lon": "77.162800"
  },
  {
    "id": "300254",
    "country": "IN",
    "zipcode": "17321",
    "name": "Sadhupul",
    "region": "Himachal Pradesh",
    "short_region": "11",
    "lat": "30.977800",
    "lon": "77.122200"
  },
  {
    "id": "300255",
    "country": "IN",
    "zipcode": "17321",
    "name": "Kawarag",
    "region": "Himachal Pradesh",
    "short_region": "11",
    "lat": "30.977800",
    "lon": "77.122200"
  },
  {
    "id": "300256",
    "country": "IN",
    "zipcode": "17321",
    "name": "Tundal",
    "region": "Himachal Pradesh",
    "short_region": "11",
    "lat": "30.988100",
    "lon": "77.136500"
  },
  {
    "id": "300257",
    "country": "IN",
    "zipcode": "17321",
    "name": "Kandaghat",
    "region": "Himachal Pradesh",
    "short_region": "11",
    "lat": "30.967500",
    "lon": "77.107800"
  },
  {
    "id": "300258",
    "country": "IN",
    "zipcode": "17321",
    "name": "Dangheel",
    "region": "Himachal Pradesh",
    "short_region": "11",
    "lat": "30.953400",
    "lon": "77.211500"
  },
  {
    "id": "300259",
    "country": "IN",
    "zipcode": "17321",
    "name": "Tikker",
    "region": "Himachal Pradesh",
    "short_region": "11",
    "lat": "30.953400",
    "lon": "77.211500"
  },
  {
    "id": "300260",
    "country": "IN",
    "zipcode": "17321",
    "name": "Jhaja",
    "region": "Himachal Pradesh",
    "short_region": "11",
    "lat": "30.953400",
    "lon": "77.211500"
  },
  {
    "id": "300261",
    "country": "IN",
    "zipcode": "17321",
    "name": "Chail (Solan)",
    "region": "Himachal Pradesh",
    "short_region": "11",
    "lat": "30.953400",
    "lon": "77.211500"
  },
  {
    "id": "300262",
    "country": "IN",
    "zipcode": "17321",
    "name": "Nagali",
    "region": "Himachal Pradesh",
    "short_region": "11",
    "lat": "30.953400",
    "lon": "77.211500"
  },
  {
    "id": "300263",
    "country": "IN",
    "zipcode": "17321",
    "name": "Hinner",
    "region": "Himachal Pradesh",
    "short_region": "11",
    "lat": "30.953400",
    "lon": "77.211500"
  },
  {
    "id": "300264",
    "country": "IN",
    "zipcode": "17321",
    "name": "Manlogkalan",
    "region": "Himachal Pradesh",
    "short_region": "11",
    "lat": "30.902200",
    "lon": "77.225600"
  },
  {
    "id": "300265",
    "country": "IN",
    "zipcode": "17321",
    "name": "Badhalag",
    "region": "Himachal Pradesh",
    "short_region": "11",
    "lat": "30.902200",
    "lon": "77.225600"
  },
  {
    "id": "300266",
    "country": "IN",
    "zipcode": "17321",
    "name": "Badhokhari",
    "region": "Himachal Pradesh",
    "short_region": "11",
    "lat": "30.902200",
    "lon": "77.225600"
  },
  {
    "id": "300267",
    "country": "IN",
    "zipcode": "17321",
    "name": "Maan",
    "region": "Himachal Pradesh",
    "short_region": "11",
    "lat": "30.902200",
    "lon": "77.225600"
  },
  {
    "id": "300268",
    "country": "IN",
    "zipcode": "17321",
    "name": "Katal",
    "region": "Himachal Pradesh",
    "short_region": "11",
    "lat": "30.902200",
    "lon": "77.225600"
  },
  {
    "id": "300269",
    "country": "IN",
    "zipcode": "17321",
    "name": "Diggal",
    "region": "Himachal Pradesh",
    "short_region": "11",
    "lat": "30.902200",
    "lon": "77.225600"
  },
  {
    "id": "300270",
    "country": "IN",
    "zipcode": "17322",
    "name": "Masulkhana",
    "region": "Himachal Pradesh",
    "short_region": "11",
    "lat": "30.837200",
    "lon": "76.975900"
  },
  {
    "id": "300271",
    "country": "IN",
    "zipcode": "17322",
    "name": "Pratha",
    "region": "Himachal Pradesh",
    "short_region": "11",
    "lat": "30.837200",
    "lon": "76.975900"
  },
  {
    "id": "300272",
    "country": "IN",
    "zipcode": "17322",
    "name": "Sector-2 Parwanoo",
    "region": "Himachal Pradesh",
    "short_region": "11",
    "lat": "30.837200",
    "lon": "76.975900"
  },
  {
    "id": "300273",
    "country": "IN",
    "zipcode": "17322",
    "name": "Nayagram",
    "region": "Himachal Pradesh",
    "short_region": "11",
    "lat": "30.825400",
    "lon": "77.005200"
  },
  {
    "id": "300274",
    "country": "IN",
    "zipcode": "17322",
    "name": "Parwanoo",
    "region": "Himachal Pradesh",
    "short_region": "11",
    "lat": "30.837200",
    "lon": "76.961400"
  },
  {
    "id": "300275",
    "country": "IN",
    "zipcode": "17322",
    "name": "Taksal",
    "region": "Himachal Pradesh",
    "short_region": "11",
    "lat": "30.848900",
    "lon": "76.961200"
  },
  {
    "id": "300276",
    "country": "IN",
    "zipcode": "17322",
    "name": "Domehar",
    "region": "Himachal Pradesh",
    "short_region": "11",
    "lat": "31.038700",
    "lon": "77.018600"
  },
  {
    "id": "300277",
    "country": "IN",
    "zipcode": "17322",
    "name": "Materani",
    "region": "Himachal Pradesh",
    "short_region": "11",
    "lat": "31.038700",
    "lon": "77.018600"
  },
  {
    "id": "300278",
    "country": "IN",
    "zipcode": "17322",
    "name": "Jainagar",
    "region": "Himachal Pradesh",
    "short_region": "11",
    "lat": "31.038700",
    "lon": "77.018600"
  },
  {
    "id": "300279",
    "country": "IN",
    "zipcode": "17322",
    "name": "Balera",
    "region": "Himachal Pradesh",
    "short_region": "11",
    "lat": "31.038700",
    "lon": "77.018600"
  },
  {
    "id": "300280",
    "country": "IN",
    "zipcode": "17322",
    "name": "Bhumati",
    "region": "Himachal Pradesh",
    "short_region": "11",
    "lat": "31.038700",
    "lon": "77.018600"
  },
  {
    "id": "300281",
    "country": "IN",
    "zipcode": "17322",
    "name": "Shehrol",
    "region": "Himachal Pradesh",
    "short_region": "11",
    "lat": "31.038700",
    "lon": "77.018600"
  },
  {
    "id": "300282",
    "country": "IN",
    "zipcode": "17322",
    "name": "Kunhar",
    "region": "Himachal Pradesh",
    "short_region": "11",
    "lat": "31.038700",
    "lon": "77.018600"
  },
  {
    "id": "300283",
    "country": "IN",
    "zipcode": "17322",
    "name": "Jobri",
    "region": "Himachal Pradesh",
    "short_region": "11",
    "lat": "31.038700",
    "lon": "77.018600"
  },
  {
    "id": "300284",
    "country": "IN",
    "zipcode": "17322",
    "name": "Mamlig",
    "region": "Himachal Pradesh",
    "short_region": "11",
    "lat": "31.045500",
    "lon": "77.034000"
  },
  {
    "id": "300285",
    "country": "IN",
    "zipcode": "17322",
    "name": "Oachghat",
    "region": "Himachal Pradesh",
    "short_region": "11",
    "lat": "31.736200",
    "lon": "76.736100"
  },
  {
    "id": "300286",
    "country": "IN",
    "zipcode": "17322",
    "name": "Kot",
    "region": "Himachal Pradesh",
    "short_region": "11",
    "lat": "30.969300",
    "lon": "77.056500"
  },
  {
    "id": "300287",
    "country": "IN",
    "zipcode": "17322",
    "name": "Jubbar",
    "region": "Himachal Pradesh",
    "short_region": "11",
    "lat": "31.042900",
    "lon": "76.909500"
  },
  {
    "id": "300288",
    "country": "IN",
    "zipcode": "17322",
    "name": "Jagjit Nagar",
    "region": "Himachal Pradesh",
    "short_region": "11",
    "lat": "30.993400",
    "lon": "77.205400"
  },
  {
    "id": "300289",
    "country": "IN",
    "zipcode": "17322",
    "name": "Kabakalan",
    "region": "Himachal Pradesh",
    "short_region": "11",
    "lat": "30.920900",
    "lon": "77.069400"
  },
  {
    "id": "300290",
    "country": "IN",
    "zipcode": "17322",
    "name": "Gaighat",
    "region": "Himachal Pradesh",
    "short_region": "11",
    "lat": "30.920900",
    "lon": "77.069400"
  },
  {
    "id": "300291",
    "country": "IN",
    "zipcode": "17322",
    "name": "Sultanpur",
    "region": "Himachal Pradesh",
    "short_region": "11",
    "lat": "30.861800",
    "lon": "77.097200"
  },
  {
    "id": "300292",
    "country": "IN",
    "zipcode": "17322",
    "name": "Bhojnagar",
    "region": "Himachal Pradesh",
    "short_region": "11",
    "lat": "30.834400",
    "lon": "77.057800"
  },
  {
    "id": "300293",
    "country": "IN",
    "zipcode": "17322",
    "name": "Kumarhatti",
    "region": "Himachal Pradesh",
    "short_region": "11",
    "lat": "30.889000",
    "lon": "77.059300"
  },
  {
    "id": "300294",
    "country": "IN",
    "zipcode": "17322",
    "name": "Bohli",
    "region": "Himachal Pradesh",
    "short_region": "11",
    "lat": "31.042900",
    "lon": "76.909500"
  },
  {
    "id": "300295",
    "country": "IN",
    "zipcode": "17323",
    "name": "Nauni",
    "region": "Himachal Pradesh",
    "short_region": "11",
    "lat": "31.042900",
    "lon": "76.909500"
  },
  {
    "id": "300296",
    "country": "IN",
    "zipcode": "17323",
    "name": "Patta",
    "region": "Himachal Pradesh",
    "short_region": "11",
    "lat": "30.958500",
    "lon": "76.910000"
  },
  {
    "id": "300297",
    "country": "IN",
    "zipcode": "17323",
    "name": "Badhaunighat",
    "region": "Himachal Pradesh",
    "short_region": "11",
    "lat": "30.958500",
    "lon": "76.910000"
  },
  {
    "id": "300298",
    "country": "IN",
    "zipcode": "17323",
    "name": "Bandh Bhaguri",
    "region": "Himachal Pradesh",
    "short_region": "11",
    "lat": "30.958500",
    "lon": "76.910000"
  },
  {
    "id": "300299",
    "country": "IN",
    "zipcode": "17323",
    "name": "Kot Beja",
    "region": "Himachal Pradesh",
    "short_region": "11",
    "lat": "30.958500",
    "lon": "76.910000"
  },
  {
    "id": "300300",
    "country": "IN",
    "zipcode": "17323",
    "name": "Ekhoo",
    "region": "Himachal Pradesh",
    "short_region": "11",
    "lat": "30.958500",
    "lon": "76.910000"
  },
  {
    "id": "300301",
    "country": "IN",
    "zipcode": "17323",
    "name": "Domeharbani",
    "region": "Himachal Pradesh",
    "short_region": "11",
    "lat": "31.001100",
    "lon": "77.081400"
  },
  {
    "id": "300302",
    "country": "IN",
    "zipcode": "17323",
    "name": "Waknaghat",
    "region": "Himachal Pradesh",
    "short_region": "11",
    "lat": "31.001100",
    "lon": "77.081400"
  },
  {
    "id": "300303",
    "country": "IN",
    "zipcode": "17323",
    "name": "Kaithlighat",
    "region": "Himachal Pradesh",
    "short_region": "11",
    "lat": "31.001100",
    "lon": "77.081400"
  },
  {
    "id": "300304",
    "country": "IN",
    "zipcode": "17323",
    "name": "Basha",
    "region": "Himachal Pradesh",
    "short_region": "11",
    "lat": "31.001100",
    "lon": "77.081400"
  },
  {
    "id": "300305",
    "country": "IN",
    "zipcode": "17323",
    "name": "Anji Brahamna",
    "region": "Himachal Pradesh",
    "short_region": "11",
    "lat": "31.001100",
    "lon": "77.081400"
  },
  {
    "id": "300306",
    "country": "IN",
    "zipcode": "17323",
    "name": "Kiarighat",
    "region": "Himachal Pradesh",
    "short_region": "11",
    "lat": "30.998100",
    "lon": "77.089000"
  },
  {
    "id": "300307",
    "country": "IN",
    "zipcode": "17323",
    "name": "Chhausa",
    "region": "Himachal Pradesh",
    "short_region": "11",
    "lat": "30.998000",
    "lon": "77.046800"
  },
  {
    "id": "300308",
    "country": "IN",
    "zipcode": "17323",
    "name": "Bisha",
    "region": "Himachal Pradesh",
    "short_region": "11",
    "lat": "31.007300",
    "lon": "77.108400"
  },
  {
    "id": "300309",
    "country": "IN",
    "zipcode": "17323",
    "name": "Saryanj",
    "region": "Himachal Pradesh",
    "short_region": "11",
    "lat": "31.283800",
    "lon": "77.122900"
  },
  {
    "id": "300310",
    "country": "IN",
    "zipcode": "17323",
    "name": "Bhararighat",
    "region": "Himachal Pradesh",
    "short_region": "11",
    "lat": "31.283800",
    "lon": "77.122900"
  },
  {
    "id": "300311",
    "country": "IN",
    "zipcode": "17323",
    "name": "Piplughat",
    "region": "Himachal Pradesh",
    "short_region": "11",
    "lat": "31.283800",
    "lon": "77.122900"
  },
  {
    "id": "300312",
    "country": "IN",
    "zipcode": "17323",
    "name": "Hanuman Barog",
    "region": "Himachal Pradesh",
    "short_region": "11",
    "lat": "31.283800",
    "lon": "77.122900"
  },
  {
    "id": "300313",
    "country": "IN",
    "zipcode": "17323",
    "name": "Dhundan",
    "region": "Himachal Pradesh",
    "short_region": "11",
    "lat": "31.042900",
    "lon": "76.909500"
  },
  {
    "id": "300314",
    "country": "IN",
    "zipcode": "17323",
    "name": "Darwa",
    "region": "Himachal Pradesh",
    "short_region": "11",
    "lat": "31.042900",
    "lon": "76.909500"
  },
  {
    "id": "300315",
    "country": "IN",
    "zipcode": "17323",
    "name": "Rampur",
    "region": "Himachal Pradesh",
    "short_region": "11",
    "lat": "30.974000",
    "lon": "76.962100"
  },
  {
    "id": "300316",
    "country": "IN",
    "zipcode": "17323",
    "name": "Baddal Goyla",
    "region": "Himachal Pradesh",
    "short_region": "11",
    "lat": "31.006400",
    "lon": "77.034600"
  },
  {
    "id": "300317",
    "country": "IN",
    "zipcode": "17323",
    "name": "Chandi",
    "region": "Himachal Pradesh",
    "short_region": "11",
    "lat": "31.006400",
    "lon": "77.034600"
  },
  {
    "id": "300318",
    "country": "IN",
    "zipcode": "17323",
    "name": "Malera",
    "region": "Himachal Pradesh",
    "short_region": "11",
    "lat": "31.006400",
    "lon": "77.034600"
  },
  {
    "id": "300319",
    "country": "IN",
    "zipcode": "17323",
    "name": "Dhakriana",
    "region": "Himachal Pradesh",
    "short_region": "11",
    "lat": "31.006400",
    "lon": "77.034600"
  },
  {
    "id": "300320",
    "country": "IN",
    "zipcode": "17323",
    "name": "Gharsi",
    "region": "Himachal Pradesh",
    "short_region": "11",
    "lat": "30.870100",
    "lon": "77.142400"
  },
  {
    "id": "300321",
    "country": "IN",
    "zipcode": "17323",
    "name": "Kuthar",
    "region": "Himachal Pradesh",
    "short_region": "11",
    "lat": "30.930500",
    "lon": "77.003700"
  },
  {
    "id": "300322",
    "country": "IN",
    "zipcode": "17410",
    "name": "Panjhera",
    "region": "Himachal Pradesh",
    "short_region": "11",
    "lat": "31.162400",
    "lon": "76.715000"
  },
  {
    "id": "300323",
    "country": "IN",
    "zipcode": "17410",
    "name": "Reru",
    "region": "Himachal Pradesh",
    "short_region": "11",
    "lat": "31.162400",
    "lon": "76.715000"
  },
  {
    "id": "300324",
    "country": "IN",
    "zipcode": "17410",
    "name": "Baruna",
    "region": "Himachal Pradesh",
    "short_region": "11",
    "lat": "31.042900",
    "lon": "76.909500"
  },
  {
    "id": "300325",
    "country": "IN",
    "zipcode": "17410",
    "name": "Ratwari",
    "region": "Himachal Pradesh",
    "short_region": "11",
    "lat": "31.139000",
    "lon": "76.737600"
  },
  {
    "id": "300326",
    "country": "IN",
    "zipcode": "17410",
    "name": "Jhajra",
    "region": "Himachal Pradesh",
    "short_region": "11",
    "lat": "31.122100",
    "lon": "76.629300"
  },
  {
    "id": "300327",
    "country": "IN",
    "zipcode": "17410",
    "name": "Nalagarh",
    "region": "Himachal Pradesh",
    "short_region": "11",
    "lat": "31.041700",
    "lon": "76.722800"
  },
  {
    "id": "300328",
    "country": "IN",
    "zipcode": "17410",
    "name": "Bhogpur",
    "region": "Himachal Pradesh",
    "short_region": "11",
    "lat": "31.096900",
    "lon": "76.674800"
  },
  {
    "id": "300329",
    "country": "IN",
    "zipcode": "17410",
    "name": "Khera",
    "region": "Himachal Pradesh",
    "short_region": "11",
    "lat": "30.882300",
    "lon": "76.857300"
  },
  {
    "id": "300330",
    "country": "IN",
    "zipcode": "17410",
    "name": "Manjholi",
    "region": "Himachal Pradesh",
    "short_region": "11",
    "lat": "31.042900",
    "lon": "76.909500"
  },
  {
    "id": "300331",
    "country": "IN",
    "zipcode": "17410",
    "name": "Rajpura",
    "region": "Himachal Pradesh",
    "short_region": "11",
    "lat": "31.043000",
    "lon": "76.685200"
  },
  {
    "id": "300332",
    "country": "IN",
    "zipcode": "17410",
    "name": "Joghon",
    "region": "Himachal Pradesh",
    "short_region": "11",
    "lat": "31.173300",
    "lon": "76.684800"
  },
  {
    "id": "300333",
    "country": "IN",
    "zipcode": "17410",
    "name": "Dabhota",
    "region": "Himachal Pradesh",
    "short_region": "11",
    "lat": "31.088300",
    "lon": "76.635500"
  },
  {
    "id": "300334",
    "country": "IN",
    "zipcode": "17410",
    "name": "Kundlu",
    "region": "Himachal Pradesh",
    "short_region": "11",
    "lat": "31.187400",
    "lon": "76.698200"
  },
  {
    "id": "300335",
    "country": "IN",
    "zipcode": "17410",
    "name": "Bhatian",
    "region": "Himachal Pradesh",
    "short_region": "11",
    "lat": "31.063600",
    "lon": "76.681100"
  },
  {
    "id": "300336",
    "country": "IN",
    "zipcode": "17410",
    "name": "Nangal",
    "region": "Himachal Pradesh",
    "short_region": "11",
    "lat": "31.073600",
    "lon": "76.699600"
  },
  {
    "id": "300337",
    "country": "IN",
    "zipcode": "17410",
    "name": "Manpura",
    "region": "Himachal Pradesh",
    "short_region": "11",
    "lat": "30.992600",
    "lon": "76.747500"
  },
  {
    "id": "300338",
    "country": "IN",
    "zipcode": "17410",
    "name": "Gurumajra",
    "region": "Himachal Pradesh",
    "short_region": "11",
    "lat": "31.162400",
    "lon": "76.715000"
  },
  {
    "id": "300339",
    "country": "IN",
    "zipcode": "17410",
    "name": "Kalibari",
    "region": "Himachal Pradesh",
    "short_region": "11",
    "lat": "31.162400",
    "lon": "76.715000"
  },
  {
    "id": "300340",
    "country": "IN",
    "zipcode": "17410",
    "name": "Lodhimajra",
    "region": "Himachal Pradesh",
    "short_region": "11",
    "lat": "31.162400",
    "lon": "76.715000"
  },
  {
    "id": "300341",
    "country": "IN",
    "zipcode": "17410",
    "name": "Khillian",
    "region": "Himachal Pradesh",
    "short_region": "11",
    "lat": "31.162400",
    "lon": "76.715000"
  },
  {
    "id": "300342",
    "country": "IN",
    "zipcode": "17410",
    "name": "Plassaikalan",
    "region": "Himachal Pradesh",
    "short_region": "11",
    "lat": "31.162400",
    "lon": "76.715000"
  },
  {
    "id": "300343",
    "country": "IN",
    "zipcode": "17410",
    "name": "Galote",
    "region": "Himachal Pradesh",
    "short_region": "11",
    "lat": "31.162400",
    "lon": "76.715000"
  },
  {
    "id": "300344",
    "country": "IN",
    "zipcode": "17410",
    "name": "Goela Panner",
    "region": "Himachal Pradesh",
    "short_region": "11",
    "lat": "31.162400",
    "lon": "76.715000"
  },
  {
    "id": "300345",
    "country": "IN",
    "zipcode": "17410",
    "name": "Bhiyunkhari",
    "region": "Himachal Pradesh",
    "short_region": "11",
    "lat": "32.028400",
    "lon": "76.435000"
  },
  {
    "id": "300346",
    "country": "IN",
    "zipcode": "17410",
    "name": "Doli",
    "region": "Himachal Pradesh",
    "short_region": "11",
    "lat": "31.042900",
    "lon": "76.909500"
  },
  {
    "id": "300347",
    "country": "IN",
    "zipcode": "17410",
    "name": "Baila",
    "region": "Himachal Pradesh",
    "short_region": "11",
    "lat": "31.042900",
    "lon": "76.909500"
  },
  {
    "id": "300348",
    "country": "IN",
    "zipcode": "17410",
    "name": "Lagdaghat",
    "region": "Himachal Pradesh",
    "short_region": "11",
    "lat": "32.028400",
    "lon": "76.435000"
  },
  {
    "id": "300349",
    "country": "IN",
    "zipcode": "17410",
    "name": "Kohu",
    "region": "Himachal Pradesh",
    "short_region": "11",
    "lat": "32.028400",
    "lon": "76.435000"
  },
  {
    "id": "300350",
    "country": "IN",
    "zipcode": "17410",
    "name": "Gunahkalan",
    "region": "Himachal Pradesh",
    "short_region": "11",
    "lat": "32.028400",
    "lon": "76.435000"
  },
  {
    "id": "300351",
    "country": "IN",
    "zipcode": "17410",
    "name": "Dharmana",
    "region": "Himachal Pradesh",
    "short_region": "11",
    "lat": "32.028400",
    "lon": "76.435000"
  },
  {
    "id": "300352",
    "country": "IN",
    "zipcode": "17410",
    "name": "Chhiachi",
    "region": "Himachal Pradesh",
    "short_region": "11",
    "lat": "32.028400",
    "lon": "76.435000"
  },
  {
    "id": "300353",
    "country": "IN",
    "zipcode": "17410",
    "name": "Chamdar",
    "region": "Himachal Pradesh",
    "short_region": "11",
    "lat": "32.028400",
    "lon": "76.435000"
  },
  {
    "id": "300354",
    "country": "IN",
    "zipcode": "17410",
    "name": "Ramshahar",
    "region": "Himachal Pradesh",
    "short_region": "11",
    "lat": "32.028400",
    "lon": "76.435000"
  },
  {
    "id": "300355",
    "country": "IN",
    "zipcode": "17410",
    "name": "Nand Karlata",
    "region": "Himachal Pradesh",
    "short_region": "11",
    "lat": "32.028400",
    "lon": "76.435000"
  },
  {
    "id": "300356",
    "country": "IN",
    "zipcode": "17410",
    "name": "Pole Da Khala",
    "region": "Himachal Pradesh",
    "short_region": "11",
    "lat": "32.028400",
    "lon": "76.435000"
  },
  {
    "id": "300357",
    "country": "IN",
    "zipcode": "17410",
    "name": "Mittian",
    "region": "Himachal Pradesh",
    "short_region": "11",
    "lat": "32.028400",
    "lon": "76.435000"
  },
  {
    "id": "300358",
    "country": "IN",
    "zipcode": "17410",
    "name": "Matuli",
    "region": "Himachal Pradesh",
    "short_region": "11",
    "lat": "32.028400",
    "lon": "76.435000"
  },
  {
    "id": "300359",
    "country": "IN",
    "zipcode": "17410",
    "name": "Lunas",
    "region": "Himachal Pradesh",
    "short_region": "11",
    "lat": "32.028400",
    "lon": "76.435000"
  },
  {
    "id": "300360",
    "country": "IN",
    "zipcode": "17410",
    "name": "Loharghat",
    "region": "Himachal Pradesh",
    "short_region": "11",
    "lat": "32.028400",
    "lon": "76.435000"
  },
  {
    "id": "300361",
    "country": "IN",
    "zipcode": "17410",
    "name": "Saur",
    "region": "Himachal Pradesh",
    "short_region": "11",
    "lat": "31.042900",
    "lon": "76.909500"
  },
  {
    "id": "300362",
    "country": "IN",
    "zipcode": "17410",
    "name": "Barotiwala",
    "region": "Himachal Pradesh",
    "short_region": "11",
    "lat": "30.902900",
    "lon": "76.834900"
  },
  {
    "id": "300363",
    "country": "IN",
    "zipcode": "17410",
    "name": "Surajpur",
    "region": "Himachal Pradesh",
    "short_region": "11",
    "lat": "30.919300",
    "lon": "76.874400"
  },
  {
    "id": "300364",
    "country": "IN",
    "zipcode": "17410",
    "name": "Mandhala",
    "region": "Himachal Pradesh",
    "short_region": "11",
    "lat": "30.897000",
    "lon": "76.870600"
  },
  {
    "id": "300365",
    "country": "IN",
    "zipcode": "17122",
    "name": "Bharoli",
    "region": "Himachal Pradesh",
    "short_region": "11",
    "lat": "30.976200",
    "lon": "77.434400"
  },
  {
    "id": "300366",
    "country": "IN",
    "zipcode": "17122",
    "name": "Neripul",
    "region": "Himachal Pradesh",
    "short_region": "11",
    "lat": "31.190000",
    "lon": "77.236600"
  },
  {
    "id": "300367",
    "country": "IN",
    "zipcode": "17122",
    "name": "Deothi Manjghaon",
    "region": "Himachal Pradesh",
    "short_region": "11",
    "lat": "31.190000",
    "lon": "77.236600"
  },
  {
    "id": "300368",
    "country": "IN",
    "zipcode": "17122",
    "name": "Bhujjal",
    "region": "Himachal Pradesh",
    "short_region": "11",
    "lat": "30.667600",
    "lon": "77.431000"
  },
  {
    "id": "300369",
    "country": "IN",
    "zipcode": "17300",
    "name": "Kotla Molar",
    "region": "Himachal Pradesh",
    "short_region": "11",
    "lat": "30.608900",
    "lon": "77.347500"
  },
  {
    "id": "300370",
    "country": "IN",
    "zipcode": "17300",
    "name": "Dingar Kinner",
    "region": "Himachal Pradesh",
    "short_region": "11",
    "lat": "30.608900",
    "lon": "77.347500"
  },
  {
    "id": "300371",
    "country": "IN",
    "zipcode": "17300",
    "name": "Gagal Shikor",
    "region": "Himachal Pradesh",
    "short_region": "11",
    "lat": "30.608900",
    "lon": "77.347500"
  },
  {
    "id": "300372",
    "country": "IN",
    "zipcode": "17300",
    "name": "Haripur Khol",
    "region": "Himachal Pradesh",
    "short_region": "11",
    "lat": "30.608900",
    "lon": "77.347500"
  },
  {
    "id": "300373",
    "country": "IN",
    "zipcode": "17300",
    "name": "Jamta",
    "region": "Himachal Pradesh",
    "short_region": "11",
    "lat": "30.608900",
    "lon": "77.347500"
  },
  {
    "id": "300374",
    "country": "IN",
    "zipcode": "17300",
    "name": "Panjahal",
    "region": "Himachal Pradesh",
    "short_region": "11",
    "lat": "30.608900",
    "lon": "77.347500"
  },
  {
    "id": "300375",
    "country": "IN",
    "zipcode": "17300",
    "name": "Ramadhaun",
    "region": "Himachal Pradesh",
    "short_region": "11",
    "lat": "30.608900",
    "lon": "77.347500"
  },
  {
    "id": "300376",
    "country": "IN",
    "zipcode": "17300",
    "name": "Nahan H.O",
    "region": "Himachal Pradesh",
    "short_region": "11",
    "lat": "30.608900",
    "lon": "77.347500"
  },
  {
    "id": "300377",
    "country": "IN",
    "zipcode": "17300",
    "name": "Bikram Bag",
    "region": "Himachal Pradesh",
    "short_region": "11",
    "lat": "30.608900",
    "lon": "77.347500"
  },
  {
    "id": "300378",
    "country": "IN",
    "zipcode": "17300",
    "name": "Katcha Tank Nahan",
    "region": "Himachal Pradesh",
    "short_region": "11",
    "lat": "30.608900",
    "lon": "77.347500"
  },
  {
    "id": "300379",
    "country": "IN",
    "zipcode": "17300",
    "name": "Court Road Nahan",
    "region": "Himachal Pradesh",
    "short_region": "11",
    "lat": "30.608900",
    "lon": "77.347500"
  },
  {
    "id": "300380",
    "country": "IN",
    "zipcode": "17300",
    "name": "Banethi",
    "region": "Himachal Pradesh",
    "short_region": "11",
    "lat": "30.633800",
    "lon": "77.272200"
  },
  {
    "id": "300381",
    "country": "IN",
    "zipcode": "17300",
    "name": "Bagthan",
    "region": "Himachal Pradesh",
    "short_region": "11",
    "lat": "30.685300",
    "lon": "77.279500"
  },
  {
    "id": "300382",
    "country": "IN",
    "zipcode": "17300",
    "name": "Chakli",
    "region": "Himachal Pradesh",
    "short_region": "11",
    "lat": "30.624700",
    "lon": "77.334700"
  },
  {
    "id": "300383",
    "country": "IN",
    "zipcode": "17300",
    "name": "Shambhuwala",
    "region": "Himachal Pradesh",
    "short_region": "11",
    "lat": "30.524400",
    "lon": "77.321900"
  },
  {
    "id": "300384",
    "country": "IN",
    "zipcode": "17300",
    "name": "Surla",
    "region": "Himachal Pradesh",
    "short_region": "11",
    "lat": "30.740700",
    "lon": "77.133800"
  },
  {
    "id": "300385",
    "country": "IN",
    "zipcode": "17300",
    "name": "Matar",
    "region": "Himachal Pradesh",
    "short_region": "11",
    "lat": "30.490500",
    "lon": "77.349000"
  },
  {
    "id": "300386",
    "country": "IN",
    "zipcode": "17300",
    "name": "Parara",
    "region": "Himachal Pradesh",
    "short_region": "11",
    "lat": "30.676300",
    "lon": "77.355900"
  },
  {
    "id": "300387",
    "country": "IN",
    "zipcode": "17300",
    "name": "Kolar",
    "region": "Himachal Pradesh",
    "short_region": "11",
    "lat": "30.502200",
    "lon": "77.419700"
  },
  {
    "id": "300388",
    "country": "IN",
    "zipcode": "17300",
    "name": "Mahipur",
    "region": "Himachal Pradesh",
    "short_region": "11",
    "lat": "30.651500",
    "lon": "77.350700"
  },
  {
    "id": "300389",
    "country": "IN",
    "zipcode": "17300",
    "name": "Chalana",
    "region": "Himachal Pradesh",
    "short_region": "11",
    "lat": "30.655300",
    "lon": "77.320300"
  },
  {
    "id": "300390",
    "country": "IN",
    "zipcode": "17300",
    "name": "Puruwala",
    "region": "Himachal Pradesh",
    "short_region": "11",
    "lat": "30.512700",
    "lon": "77.684800"
  },
  {
    "id": "300391",
    "country": "IN",
    "zipcode": "17302",
    "name": "Misserwala",
    "region": "Himachal Pradesh",
    "short_region": "11",
    "lat": "30.491300",
    "lon": "77.530200"
  },
  {
    "id": "300392",
    "country": "IN",
    "zipcode": "17302",
    "name": "Sainwala Mubarakpur",
    "region": "Himachal Pradesh",
    "short_region": "11",
    "lat": "30.491300",
    "lon": "77.530200"
  },
  {
    "id": "300393",
    "country": "IN",
    "zipcode": "17302",
    "name": "Kotribyas",
    "region": "Himachal Pradesh",
    "short_region": "11",
    "lat": "30.491300",
    "lon": "77.530200"
  },
  {
    "id": "300394",
    "country": "IN",
    "zipcode": "17302",
    "name": "Majra (Sirmaur)",
    "region": "Himachal Pradesh",
    "short_region": "11",
    "lat": "30.491300",
    "lon": "77.530200"
  },
  {
    "id": "300395",
    "country": "IN",
    "zipcode": "17302",
    "name": "Jamu",
    "region": "Himachal Pradesh",
    "short_region": "11",
    "lat": "30.619200",
    "lon": "77.476900"
  },
  {
    "id": "300396",
    "country": "IN",
    "zipcode": "17302",
    "name": "Panar",
    "region": "Himachal Pradesh",
    "short_region": "11",
    "lat": "30.626000",
    "lon": "77.416500"
  },
  {
    "id": "300397",
    "country": "IN",
    "zipcode": "17302",
    "name": "Kansar",
    "region": "Himachal Pradesh",
    "short_region": "11",
    "lat": "30.560700",
    "lon": "77.482800"
  },
  {
    "id": "300398",
    "country": "IN",
    "zipcode": "17302",
    "name": "Jarag",
    "region": "Himachal Pradesh",
    "short_region": "11",
    "lat": "30.642900",
    "lon": "77.477900"
  },
  {
    "id": "300399",
    "country": "IN",
    "zipcode": "17302",
    "name": "Kotidhiman",
    "region": "Himachal Pradesh",
    "short_region": "11",
    "lat": "30.601900",
    "lon": "77.454500"
  },
  {
    "id": "300400",
    "country": "IN",
    "zipcode": "17302",
    "name": "Kangta Failag",
    "region": "Himachal Pradesh",
    "short_region": "11",
    "lat": "30.601900",
    "lon": "77.454500"
  },
  {
    "id": "300401",
    "country": "IN",
    "zipcode": "17302",
    "name": "Thana Kashoga",
    "region": "Himachal Pradesh",
    "short_region": "11",
    "lat": "30.601900",
    "lon": "77.454500"
  },
  {
    "id": "300402",
    "country": "IN",
    "zipcode": "17302",
    "name": "Bharog Baneri",
    "region": "Himachal Pradesh",
    "short_region": "11",
    "lat": "30.601900",
    "lon": "77.454500"
  },
  {
    "id": "300403",
    "country": "IN",
    "zipcode": "17302",
    "name": "Bhatgarh",
    "region": "Himachal Pradesh",
    "short_region": "11",
    "lat": "30.601900",
    "lon": "77.454500"
  },
  {
    "id": "300404",
    "country": "IN",
    "zipcode": "17302",
    "name": "Udaina Kathwar",
    "region": "Himachal Pradesh",
    "short_region": "11",
    "lat": "30.601900",
    "lon": "77.454500"
  },
  {
    "id": "300405",
    "country": "IN",
    "zipcode": "17302",
    "name": "Dadahu",
    "region": "Himachal Pradesh",
    "short_region": "11",
    "lat": "30.599200",
    "lon": "77.436700"
  },
  {
    "id": "300406",
    "country": "IN",
    "zipcode": "17302",
    "name": "Birla",
    "region": "Himachal Pradesh",
    "short_region": "11",
    "lat": "30.563100",
    "lon": "77.435900"
  },
  {
    "id": "300407",
    "country": "IN",
    "zipcode": "17302",
    "name": "Andheri",
    "region": "Himachal Pradesh",
    "short_region": "11",
    "lat": "30.713900",
    "lon": "77.462200"
  },
  {
    "id": "300408",
    "country": "IN",
    "zipcode": "17302",
    "name": "Sangrah",
    "region": "Himachal Pradesh",
    "short_region": "11",
    "lat": "30.696900",
    "lon": "77.419700"
  },
  {
    "id": "300409",
    "country": "IN",
    "zipcode": "17302",
    "name": "Sainj",
    "region": "Himachal Pradesh",
    "short_region": "11",
    "lat": "30.648300",
    "lon": "77.353000"
  },
  {
    "id": "300410",
    "country": "IN",
    "zipcode": "17302",
    "name": "Rajana",
    "region": "Himachal Pradesh",
    "short_region": "11",
    "lat": "30.664200",
    "lon": "77.446600"
  },
  {
    "id": "300411",
    "country": "IN",
    "zipcode": "17302",
    "name": "Redali",
    "region": "Himachal Pradesh",
    "short_region": "11",
    "lat": "30.680800",
    "lon": "77.420400"
  },
  {
    "id": "300412",
    "country": "IN",
    "zipcode": "17302",
    "name": "Lanapalar",
    "region": "Himachal Pradesh",
    "short_region": "11",
    "lat": "30.680800",
    "lon": "77.420400"
  },
  {
    "id": "300413",
    "country": "IN",
    "zipcode": "17302",
    "name": "BaragB.O",
    "region": "Himachal Pradesh",
    "short_region": "11",
    "lat": "30.680800",
    "lon": "77.420400"
  },
  {
    "id": "300414",
    "country": "IN",
    "zipcode": "17302",
    "name": "Bhajond",
    "region": "Himachal Pradesh",
    "short_region": "11",
    "lat": "30.680800",
    "lon": "77.420400"
  },
  {
    "id": "300415",
    "country": "IN",
    "zipcode": "17302",
    "name": "Seon",
    "region": "Himachal Pradesh",
    "short_region": "11",
    "lat": "30.680800",
    "lon": "77.420400"
  },
  {
    "id": "300416",
    "country": "IN",
    "zipcode": "17302",
    "name": "Sarsoo",
    "region": "Himachal Pradesh",
    "short_region": "11",
    "lat": "31.031800",
    "lon": "77.105800"
  },
  {
    "id": "300417",
    "country": "IN",
    "zipcode": "17302",
    "name": "Jehar",
    "region": "Himachal Pradesh",
    "short_region": "11",
    "lat": "31.031800",
    "lon": "77.105800"
  },
  {
    "id": "300418",
    "country": "IN",
    "zipcode": "17302",
    "name": "Mehandobag",
    "region": "Himachal Pradesh",
    "short_region": "11",
    "lat": "31.031800",
    "lon": "77.105800"
  },
  {
    "id": "300419",
    "country": "IN",
    "zipcode": "17302",
    "name": "Bhellon",
    "region": "Himachal Pradesh",
    "short_region": "11",
    "lat": "31.031800",
    "lon": "77.105800"
  },
  {
    "id": "300420",
    "country": "IN",
    "zipcode": "17302",
    "name": "Daro Devria",
    "region": "Himachal Pradesh",
    "short_region": "11",
    "lat": "31.031800",
    "lon": "77.105800"
  },
  {
    "id": "300421",
    "country": "IN",
    "zipcode": "17302",
    "name": "Tikkari Kuthar",
    "region": "Himachal Pradesh",
    "short_region": "11",
    "lat": "31.031800",
    "lon": "77.105800"
  },
  {
    "id": "300422",
    "country": "IN",
    "zipcode": "17302",
    "name": "Upron",
    "region": "Himachal Pradesh",
    "short_region": "11",
    "lat": "31.031800",
    "lon": "77.105800"
  },
  {
    "id": "300423",
    "country": "IN",
    "zipcode": "17302",
    "name": "Bagpashog",
    "region": "Himachal Pradesh",
    "short_region": "11",
    "lat": "31.031800",
    "lon": "77.105800"
  },
  {
    "id": "300424",
    "country": "IN",
    "zipcode": "17302",
    "name": "Banahki Ser",
    "region": "Himachal Pradesh",
    "short_region": "11",
    "lat": "31.031800",
    "lon": "77.105800"
  },
  {
    "id": "300425",
    "country": "IN",
    "zipcode": "17302",
    "name": "Janot",
    "region": "Himachal Pradesh",
    "short_region": "11",
    "lat": "30.713900",
    "lon": "77.295600"
  },
  {
    "id": "300426",
    "country": "IN",
    "zipcode": "17302",
    "name": "Mangarh",
    "region": "Himachal Pradesh",
    "short_region": "11",
    "lat": "30.750500",
    "lon": "77.251600"
  },
  {
    "id": "300427",
    "country": "IN",
    "zipcode": "17302",
    "name": "Sharia",
    "region": "Himachal Pradesh",
    "short_region": "11",
    "lat": "30.667600",
    "lon": "77.431000"
  },
  {
    "id": "300428",
    "country": "IN",
    "zipcode": "17302",
    "name": "Sarahan",
    "region": "Himachal Pradesh",
    "short_region": "11",
    "lat": "30.718900",
    "lon": "77.191300"
  },
  {
    "id": "300429",
    "country": "IN",
    "zipcode": "17302",
    "name": "Thakurdwara",
    "region": "Himachal Pradesh",
    "short_region": "11",
    "lat": "30.667600",
    "lon": "77.431000"
  },
  {
    "id": "300430",
    "country": "IN",
    "zipcode": "17302",
    "name": "Narag",
    "region": "Himachal Pradesh",
    "short_region": "11",
    "lat": "30.818200",
    "lon": "77.189500"
  },
  {
    "id": "300431",
    "country": "IN",
    "zipcode": "17302",
    "name": "Malhoti",
    "region": "Himachal Pradesh",
    "short_region": "11",
    "lat": "30.779500",
    "lon": "77.190700"
  },
  {
    "id": "300432",
    "country": "IN",
    "zipcode": "17302",
    "name": "Dhangiar",
    "region": "Himachal Pradesh",
    "short_region": "11",
    "lat": "30.760200",
    "lon": "77.097700"
  },
  {
    "id": "300433",
    "country": "IN",
    "zipcode": "17302",
    "name": "Wasni",
    "region": "Himachal Pradesh",
    "short_region": "11",
    "lat": "30.799400",
    "lon": "77.227900"
  },
  {
    "id": "300434",
    "country": "IN",
    "zipcode": "17302",
    "name": "Rajpur",
    "region": "Himachal Pradesh",
    "short_region": "11",
    "lat": "30.543600",
    "lon": "77.726700"
  },
  {
    "id": "300435",
    "country": "IN",
    "zipcode": "17302",
    "name": "Shivpur",
    "region": "Himachal Pradesh",
    "short_region": "11",
    "lat": "30.479700",
    "lon": "77.673600"
  },
  {
    "id": "300436",
    "country": "IN",
    "zipcode": "17302",
    "name": "Nagheta",
    "region": "Himachal Pradesh",
    "short_region": "11",
    "lat": "30.547400",
    "lon": "77.766400"
  },
  {
    "id": "300437",
    "country": "IN",
    "zipcode": "17302",
    "name": "Ganguwala Jamniwala",
    "region": "Himachal Pradesh",
    "short_region": "11",
    "lat": "30.733400",
    "lon": "77.577000"
  },
  {
    "id": "300438",
    "country": "IN",
    "zipcode": "17302",
    "name": "Bhagani",
    "region": "Himachal Pradesh",
    "short_region": "11",
    "lat": "30.733400",
    "lon": "77.577000"
  },
  {
    "id": "300439",
    "country": "IN",
    "zipcode": "17302",
    "name": "Manpur Devra",
    "region": "Himachal Pradesh",
    "short_region": "11",
    "lat": "30.733400",
    "lon": "77.577000"
  },
  {
    "id": "300440",
    "country": "IN",
    "zipcode": "17302",
    "name": "Khodri",
    "region": "Himachal Pradesh",
    "short_region": "11",
    "lat": "30.733400",
    "lon": "77.577000"
  },
  {
    "id": "300441",
    "country": "IN",
    "zipcode": "17302",
    "name": "Danda Anj",
    "region": "Himachal Pradesh",
    "short_region": "11",
    "lat": "30.733400",
    "lon": "77.577000"
  },
  {
    "id": "300442",
    "country": "IN",
    "zipcode": "17302",
    "name": "Bhudhana",
    "region": "Himachal Pradesh",
    "short_region": "11",
    "lat": "30.733400",
    "lon": "77.577000"
  },
  {
    "id": "300443",
    "country": "IN",
    "zipcode": "17302",
    "name": "Banaur",
    "region": "Himachal Pradesh",
    "short_region": "11",
    "lat": "30.733400",
    "lon": "77.577000"
  },
  {
    "id": "300444",
    "country": "IN",
    "zipcode": "17302",
    "name": "SHIVA",
    "region": "Himachal Pradesh",
    "short_region": "11",
    "lat": "30.667600",
    "lon": "77.431000"
  },
  {
    "id": "300445",
    "country": "IN",
    "zipcode": "17302",
    "name": "Nihalgarh",
    "region": "Himachal Pradesh",
    "short_region": "11",
    "lat": "30.472000",
    "lon": "77.633100"
  },
  {
    "id": "300446",
    "country": "IN",
    "zipcode": "17302",
    "name": "Gorkhuwala",
    "region": "Himachal Pradesh",
    "short_region": "11",
    "lat": "30.505700",
    "lon": "77.696800"
  },
  {
    "id": "300447",
    "country": "IN",
    "zipcode": "17302",
    "name": "Paonta Sahib",
    "region": "Himachal Pradesh",
    "short_region": "11",
    "lat": "30.436700",
    "lon": "77.624600"
  },
  {
    "id": "300448",
    "country": "IN",
    "zipcode": "17302",
    "name": "Bata Mandi",
    "region": "Himachal Pradesh",
    "short_region": "11",
    "lat": "30.667600",
    "lon": "77.431000"
  },
  {
    "id": "300449",
    "country": "IN",
    "zipcode": "17302",
    "name": "Kw Bhood",
    "region": "Himachal Pradesh",
    "short_region": "11",
    "lat": "30.739900",
    "lon": "77.460300"
  },
  {
    "id": "300450",
    "country": "IN",
    "zipcode": "17302",
    "name": "Kharkah",
    "region": "Himachal Pradesh",
    "short_region": "11",
    "lat": "30.703900",
    "lon": "77.655900"
  },
  {
    "id": "300451",
    "country": "IN",
    "zipcode": "17302",
    "name": "Loza",
    "region": "Himachal Pradesh",
    "short_region": "11",
    "lat": "30.703900",
    "lon": "77.655900"
  },
  {
    "id": "300452",
    "country": "IN",
    "zipcode": "17302",
    "name": "Nainidhar",
    "region": "Himachal Pradesh",
    "short_region": "11",
    "lat": "30.703900",
    "lon": "77.655900"
  },
  {
    "id": "300453",
    "country": "IN",
    "zipcode": "17302",
    "name": "Bella",
    "region": "Himachal Pradesh",
    "short_region": "11",
    "lat": "30.703900",
    "lon": "77.655900"
  },
  {
    "id": "300454",
    "country": "IN",
    "zipcode": "17302",
    "name": "Shirikiari",
    "region": "Himachal Pradesh",
    "short_region": "11",
    "lat": "30.703900",
    "lon": "77.655900"
  },
  {
    "id": "300455",
    "country": "IN",
    "zipcode": "17302",
    "name": "Shillai",
    "region": "Himachal Pradesh",
    "short_region": "11",
    "lat": "30.703900",
    "lon": "77.655900"
  },
  {
    "id": "300456",
    "country": "IN",
    "zipcode": "17302",
    "name": "Ronhat",
    "region": "Himachal Pradesh",
    "short_region": "11",
    "lat": "30.703900",
    "lon": "77.655900"
  },
  {
    "id": "300457",
    "country": "IN",
    "zipcode": "17302",
    "name": "Hallan",
    "region": "Himachal Pradesh",
    "short_region": "11",
    "lat": "30.703900",
    "lon": "77.655900"
  },
  {
    "id": "300458",
    "country": "IN",
    "zipcode": "17302",
    "name": "BaliKoti",
    "region": "Himachal Pradesh",
    "short_region": "11",
    "lat": "30.703900",
    "lon": "77.655900"
  },
  {
    "id": "300459",
    "country": "IN",
    "zipcode": "17302",
    "name": "Jhakando",
    "region": "Himachal Pradesh",
    "short_region": "11",
    "lat": "30.703900",
    "lon": "77.655900"
  },
  {
    "id": "300460",
    "country": "IN",
    "zipcode": "17302",
    "name": "Kotibhunch",
    "region": "Himachal Pradesh",
    "short_region": "11",
    "lat": "30.703900",
    "lon": "77.655900"
  },
  {
    "id": "300461",
    "country": "IN",
    "zipcode": "17302",
    "name": "Kando Bhatnaul",
    "region": "Himachal Pradesh",
    "short_region": "11",
    "lat": "30.703900",
    "lon": "77.655900"
  },
  {
    "id": "300462",
    "country": "IN",
    "zipcode": "17302",
    "name": "Panog",
    "region": "Himachal Pradesh",
    "short_region": "11",
    "lat": "30.733900",
    "lon": "77.623300"
  },
  {
    "id": "300463",
    "country": "IN",
    "zipcode": "17302",
    "name": "Jarwa",
    "region": "Himachal Pradesh",
    "short_region": "11",
    "lat": "30.749400",
    "lon": "77.598300"
  },
  {
    "id": "300464",
    "country": "IN",
    "zipcode": "17302",
    "name": "Gawali",
    "region": "Himachal Pradesh",
    "short_region": "11",
    "lat": "30.659300",
    "lon": "77.732800"
  },
  {
    "id": "300465",
    "country": "IN",
    "zipcode": "17302",
    "name": "Manal",
    "region": "Himachal Pradesh",
    "short_region": "11",
    "lat": "30.673100",
    "lon": "77.669300"
  },
  {
    "id": "300466",
    "country": "IN",
    "zipcode": "17302",
    "name": "Jamna",
    "region": "Himachal Pradesh",
    "short_region": "11",
    "lat": "30.743300",
    "lon": "77.569500"
  },
  {
    "id": "300467",
    "country": "IN",
    "zipcode": "17302",
    "name": "Shawaga",
    "region": "Himachal Pradesh",
    "short_region": "11",
    "lat": "30.615600",
    "lon": "77.637900"
  },
  {
    "id": "300468",
    "country": "IN",
    "zipcode": "17302",
    "name": "Chhachheti",
    "region": "Himachal Pradesh",
    "short_region": "11",
    "lat": "30.615600",
    "lon": "77.637900"
  },
  {
    "id": "300469",
    "country": "IN",
    "zipcode": "17302",
    "name": "Kiari Gundah",
    "region": "Himachal Pradesh",
    "short_region": "11",
    "lat": "30.615600",
    "lon": "77.637900"
  },
  {
    "id": "300470",
    "country": "IN",
    "zipcode": "17302",
    "name": "Koti Utraon",
    "region": "Himachal Pradesh",
    "short_region": "11",
    "lat": "30.615600",
    "lon": "77.637900"
  },
  {
    "id": "300471",
    "country": "IN",
    "zipcode": "17302",
    "name": "Millah",
    "region": "Himachal Pradesh",
    "short_region": "11",
    "lat": "30.615600",
    "lon": "77.637900"
  },
  {
    "id": "300472",
    "country": "IN",
    "zipcode": "17302",
    "name": "Sharlimanpur",
    "region": "Himachal Pradesh",
    "short_region": "11",
    "lat": "30.615600",
    "lon": "77.637900"
  },
  {
    "id": "300473",
    "country": "IN",
    "zipcode": "17302",
    "name": "Kantimashwa",
    "region": "Himachal Pradesh",
    "short_region": "11",
    "lat": "30.615600",
    "lon": "77.637900"
  },
  {
    "id": "300474",
    "country": "IN",
    "zipcode": "17302",
    "name": "Kamrau",
    "region": "Himachal Pradesh",
    "short_region": "11",
    "lat": "30.615600",
    "lon": "77.637900"
  },
  {
    "id": "300475",
    "country": "IN",
    "zipcode": "17302",
    "name": "Harlog",
    "region": "Himachal Pradesh",
    "short_region": "11",
    "lat": "30.615600",
    "lon": "77.637900"
  },
  {
    "id": "300476",
    "country": "IN",
    "zipcode": "17302",
    "name": "Tatiana",
    "region": "Himachal Pradesh",
    "short_region": "11",
    "lat": "30.615600",
    "lon": "77.637900"
  },
  {
    "id": "300477",
    "country": "IN",
    "zipcode": "17302",
    "name": "Sataun",
    "region": "Himachal Pradesh",
    "short_region": "11",
    "lat": "30.557900",
    "lon": "77.639200"
  },
  {
    "id": "300478",
    "country": "IN",
    "zipcode": "17302",
    "name": "Rajban",
    "region": "Himachal Pradesh",
    "short_region": "11",
    "lat": "30.526300",
    "lon": "77.662800"
  },
  {
    "id": "300479",
    "country": "IN",
    "zipcode": "17302",
    "name": "Dugana",
    "region": "Himachal Pradesh",
    "short_region": "11",
    "lat": "30.611700",
    "lon": "77.695600"
  },
  {
    "id": "300480",
    "country": "IN",
    "zipcode": "17302",
    "name": "Bakras",
    "region": "Himachal Pradesh",
    "short_region": "11",
    "lat": "30.667900",
    "lon": "77.585500"
  },
  {
    "id": "300481",
    "country": "IN",
    "zipcode": "17302",
    "name": "Shilla",
    "region": "Himachal Pradesh",
    "short_region": "11",
    "lat": "30.630100",
    "lon": "77.685800"
  },
  {
    "id": "300482",
    "country": "IN",
    "zipcode": "17302",
    "name": "Timbi",
    "region": "Himachal Pradesh",
    "short_region": "11",
    "lat": "30.655100",
    "lon": "77.653300"
  },
  {
    "id": "300483",
    "country": "IN",
    "zipcode": "17302",
    "name": "Poka",
    "region": "Himachal Pradesh",
    "short_region": "11",
    "lat": "30.556400",
    "lon": "77.663300"
  },
  {
    "id": "300484",
    "country": "IN",
    "zipcode": "17302",
    "name": "Korga",
    "region": "Himachal Pradesh",
    "short_region": "11",
    "lat": "30.591700",
    "lon": "77.585900"
  },
  {
    "id": "300485",
    "country": "IN",
    "zipcode": "17303",
    "name": "Palion",
    "region": "Himachal Pradesh",
    "short_region": "11",
    "lat": "30.562200",
    "lon": "77.185000"
  },
  {
    "id": "300486",
    "country": "IN",
    "zipcode": "17303",
    "name": "Moginand",
    "region": "Himachal Pradesh",
    "short_region": "11",
    "lat": "30.516300",
    "lon": "77.248800"
  },
  {
    "id": "300487",
    "country": "IN",
    "zipcode": "17303",
    "name": "Trilokpur",
    "region": "Himachal Pradesh",
    "short_region": "11",
    "lat": "30.540200",
    "lon": "77.209100"
  },