[
  {
    "id": "440001",
    "country": "IT",
    "zipcode": "94010",
    "name": "San Giorgio",
    "region": "Sicilia",
    "short_region": "15",
    "lat": "37.640300",
    "lon": "14.468200"
  },
  {
    "id": "440002",
    "country": "IT",
    "zipcode": "94010",
    "name": "Calascibetta",
    "region": "Sicilia",
    "short_region": "15",
    "lat": "37.590200",
    "lon": "14.271800"
  },
  {
    "id": "440003",
    "country": "IT",
    "zipcode": "94010",
    "name": "Cacchiamo",
    "region": "Sicilia",
    "short_region": "15",
    "lat": "37.682300",
    "lon": "14.232300"
  },
  {
    "id": "440004",
    "country": "IT",
    "zipcode": "94010",
    "name": "Nissoria",
    "region": "Sicilia",
    "short_region": "15",
    "lat": "37.654100",
    "lon": "14.448100"
  },
  {
    "id": "440005",
    "country": "IT",
    "zipcode": "94010",
    "name": "Borgo Baccarato",
    "region": "Sicilia",
    "short_region": "15",
    "lat": "37.638400",
    "lon": "14.420900"
  },
  {
    "id": "440006",
    "country": "IT",
    "zipcode": "94010",
    "name": "Villarosa",
    "region": "Sicilia",
    "short_region": "15",
    "lat": "37.587500",
    "lon": "14.170900"
  },
  {
    "id": "440007",
    "country": "IT",
    "zipcode": "94010",
    "name": "Aidone",
    "region": "Sicilia",
    "short_region": "15",
    "lat": "37.414700",
    "lon": "14.445400"
  },
  {
    "id": "440008",
    "country": "IT",
    "zipcode": "94010",
    "name": "Cerami",
    "region": "Sicilia",
    "short_region": "15",
    "lat": "37.809500",
    "lon": "14.506600"
  },
  {
    "id": "440009",
    "country": "IT",
    "zipcode": "94010",
    "name": "Gagliano Castelferrato",
    "region": "Sicilia",
    "short_region": "15",
    "lat": "37.709700",
    "lon": "14.535200"
  },
  {
    "id": "440010",
    "country": "IT",
    "zipcode": "94010",
    "name": "Catenanuova",
    "region": "Sicilia",
    "short_region": "15",
    "lat": "37.568800",
    "lon": "14.690800"
  },
  {
    "id": "440011",
    "country": "IT",
    "zipcode": "94010",
    "name": "Villapriolo",
    "region": "Sicilia",
    "short_region": "15",
    "lat": "37.629500",
    "lon": "14.193400"
  },
  {
    "id": "440012",
    "country": "IT",
    "zipcode": "94010",
    "name": "Centuripe",
    "region": "Sicilia",
    "short_region": "15",
    "lat": "37.623400",
    "lon": "14.740500"
  },
  {
    "id": "440013",
    "country": "IT",
    "zipcode": "94010",
    "name": "Sperlinga",
    "region": "Sicilia",
    "short_region": "15",
    "lat": "37.766500",
    "lon": "14.350800"
  },
  {
    "id": "440014",
    "country": "IT",
    "zipcode": "94011",
    "name": "Agira",
    "region": "Sicilia",
    "short_region": "15",
    "lat": "37.655800",
    "lon": "14.519700"
  },
  {
    "id": "440015",
    "country": "IT",
    "zipcode": "94012",
    "name": "Barrafranca",
    "region": "Sicilia",
    "short_region": "15",
    "lat": "37.378500",
    "lon": "14.202700"
  },
  {
    "id": "440016",
    "country": "IT",
    "zipcode": "94013",
    "name": "Leonforte",
    "region": "Sicilia",
    "short_region": "15",
    "lat": "37.642000",
    "lon": "14.397700"
  },
  {
    "id": "440017",
    "country": "IT",
    "zipcode": "94014",
    "name": "Nicosia",
    "region": "Sicilia",
    "short_region": "15",
    "lat": "37.747500",
    "lon": "14.392200"
  },
  {
    "id": "440018",
    "country": "IT",
    "zipcode": "94014",
    "name": "San Giacomo",
    "region": "Sicilia",
    "short_region": "15",
    "lat": "37.580900",
    "lon": "14.429800"
  },
  {
    "id": "440019",
    "country": "IT",
    "zipcode": "94014",
    "name": "Villadoro",
    "region": "Sicilia",
    "short_region": "15",
    "lat": "37.692100",
    "lon": "14.260300"
  },
  {
    "id": "440020",
    "country": "IT",
    "zipcode": "94015",
    "name": "Grottacalda",
    "region": "Sicilia",
    "short_region": "15",
    "lat": "37.384200",
    "lon": "14.369200"
  },
  {
    "id": "440021",
    "country": "IT",
    "zipcode": "94015",
    "name": "Piazza Armerina",
    "region": "Sicilia",
    "short_region": "15",
    "lat": "37.384200",
    "lon": "14.369200"
  },
  {
    "id": "440022",
    "country": "IT",
    "zipcode": "94016",
    "name": "Pietraperzia",
    "region": "Sicilia",
    "short_region": "15",
    "lat": "37.418500",
    "lon": "14.137400"
  },
  {
    "id": "440023",
    "country": "IT",
    "zipcode": "94017",
    "name": "Regalbuto",
    "region": "Sicilia",
    "short_region": "15",
    "lat": "37.651900",
    "lon": "14.639100"
  },
  {
    "id": "440024",
    "country": "IT",
    "zipcode": "94018",
    "name": "Troina",
    "region": "Sicilia",
    "short_region": "15",
    "lat": "37.784400",
    "lon": "14.596100"
  },
  {
    "id": "440025",
    "country": "IT",
    "zipcode": "94019",
    "name": "Valguarnera Caropepe",
    "region": "Sicilia",
    "short_region": "15",
    "lat": "37.495300",
    "lon": "14.390300"
  },
  {
    "id": "440026",
    "country": "IT",
    "zipcode": "94100",
    "name": "Enna",
    "region": "Sicilia",
    "short_region": "15",
    "lat": "37.565500",
    "lon": "14.274300"
  },
  {
    "id": "440027",
    "country": "IT",
    "zipcode": "94100",
    "name": "Pergusa",
    "region": "Sicilia",
    "short_region": "15",
    "lat": "37.523800",
    "lon": "14.305900"
  },
  {
    "id": "440028",
    "country": "IT",
    "zipcode": "94100",
    "name": "Borgo Cascino",
    "region": "Sicilia",
    "short_region": "15",
    "lat": "37.496900",
    "lon": "14.200500"
  },
  {
    "id": "440029",
    "country": "IT",
    "zipcode": "98020",
    "name": "Rocchenere",
    "region": "Sicilia",
    "short_region": "15",
    "lat": "37.974300",
    "lon": "15.376200"
  },
  {
    "id": "440030",
    "country": "IT",
    "zipcode": "98020",
    "name": "Locadi",
    "region": "Sicilia",
    "short_region": "15",
    "lat": "37.988700",
    "lon": "15.340500"
  },
  {
    "id": "440031",
    "country": "IT",
    "zipcode": "98020",
    "name": "Pagliara",
    "region": "Sicilia",
    "short_region": "15",
    "lat": "37.985500",
    "lon": "15.359700"
  },
  {
    "id": "440032",
    "country": "IT",
    "zipcode": "98020",
    "name": "Ali'",
    "region": "Sicilia",
    "short_region": "15",
    "lat": "38.026800",
    "lon": "15.419100"
  },
  {
    "id": "440033",
    "country": "IT",
    "zipcode": "98020",
    "name": "Mandanici",
    "region": "Sicilia",
    "short_region": "15",
    "lat": "38.003600",
    "lon": "15.316700"
  },
  {
    "id": "440034",
    "country": "IT",
    "zipcode": "98021",
    "name": "Ali' Terme",
    "region": "Sicilia",
    "short_region": "15",
    "lat": "38.005100",
    "lon": "15.422700"
  },
  {
    "id": "440035",
    "country": "IT",
    "zipcode": "98022",
    "name": "Fiumedinisi",
    "region": "Sicilia",
    "short_region": "15",
    "lat": "38.026000",
    "lon": "15.381000"
  },
  {
    "id": "440036",
    "country": "IT",
    "zipcode": "98023",
    "name": "Furci Siculo",
    "region": "Sicilia",
    "short_region": "15",
    "lat": "37.961600",
    "lon": "15.377600"
  },
  {
    "id": "440037",
    "country": "IT",
    "zipcode": "98025",
    "name": "Itala",
    "region": "Sicilia",
    "short_region": "15",
    "lat": "38.051400",
    "lon": "15.437100"
  },
  {
    "id": "440038",
    "country": "IT",
    "zipcode": "98025",
    "name": "Itala Marina",
    "region": "Sicilia",
    "short_region": "15",
    "lat": "38.036800",
    "lon": "15.452700"
  },
  {
    "id": "440039",
    "country": "IT",
    "zipcode": "98026",
    "name": "Nizza Di Sicilia",
    "region": "Sicilia",
    "short_region": "15",
    "lat": "37.990800",
    "lon": "15.409600"
  },
  {
    "id": "440040",
    "country": "IT",
    "zipcode": "98027",
    "name": "Allume",
    "region": "Sicilia",
    "short_region": "15",
    "lat": "37.991600",
    "lon": "15.390400"
  },
  {
    "id": "440041",
    "country": "IT",
    "zipcode": "98027",
    "name": "Sciglio",
    "region": "Sicilia",
    "short_region": "15",
    "lat": "37.985800",
    "lon": "15.386200"
  },
  {
    "id": "440042",
    "country": "IT",
    "zipcode": "98027",
    "name": "Roccalumera",
    "region": "Sicilia",
    "short_region": "15",
    "lat": "37.975500",
    "lon": "15.394400"
  },
  {
    "id": "440043",
    "country": "IT",
    "zipcode": "98028",
    "name": "Santa Teresa Di Riva",
    "region": "Sicilia",
    "short_region": "15",
    "lat": "37.946400",
    "lon": "15.366700"
  },
  {
    "id": "440044",
    "country": "IT",
    "zipcode": "98028",
    "name": "Misserio",
    "region": "Sicilia",
    "short_region": "15",
    "lat": "37.979100",
    "lon": "15.314500"
  },
  {
    "id": "440045",
    "country": "IT",
    "zipcode": "98028",
    "name": "Barracca",
    "region": "Sicilia",
    "short_region": "15",
    "lat": "37.962700",
    "lon": "15.340600"
  },
  {
    "id": "440046",
    "country": "IT",
    "zipcode": "98029",
    "name": "Guidomandri",
    "region": "Sicilia",
    "short_region": "15",
    "lat": "38.046800",
    "lon": "15.459400"
  },
  {
    "id": "440047",
    "country": "IT",
    "zipcode": "98029",
    "name": "Guidomandri Superiore",
    "region": "Sicilia",
    "short_region": "15",
    "lat": "38.047100",
    "lon": "15.447400"
  },
  {
    "id": "440048",
    "country": "IT",
    "zipcode": "98029",
    "name": "Scaletta Zanclea",
    "region": "Sicilia",
    "short_region": "15",
    "lat": "38.048000",
    "lon": "15.467700"
  },
  {
    "id": "440049",
    "country": "IT",
    "zipcode": "98029",
    "name": "Guidomandri Marina",
    "region": "Sicilia",
    "short_region": "15",
    "lat": "38.045300",
    "lon": "15.463000"
  },
  {
    "id": "440050",
    "country": "IT",
    "zipcode": "98030",
    "name": "Floresta",
    "region": "Sicilia",
    "short_region": "15",
    "lat": "37.987800",
    "lon": "14.911000"
  },
  {
    "id": "440051",
    "country": "IT",
    "zipcode": "98030",
    "name": "Roccafiorita",
    "region": "Sicilia",
    "short_region": "15",
    "lat": "37.930900",
    "lon": "15.267400"
  },
  {
    "id": "440052",
    "country": "IT",
    "zipcode": "98030",
    "name": "San Teodoro",
    "region": "Sicilia",
    "short_region": "15",
    "lat": "37.848000",
    "lon": "14.698800"
  },
  {
    "id": "440053",
    "country": "IT",
    "zipcode": "98030",
    "name": "Mongiuffi",
    "region": "Sicilia",
    "short_region": "15",
    "lat": "37.910300",
    "lon": "15.278000"
  },
  {
    "id": "440054",
    "country": "IT",
    "zipcode": "98030",
    "name": "Mongiuffi Melia",
    "region": "Sicilia",
    "short_region": "15",
    "lat": "37.903400",
    "lon": "15.275400"
  },
  {
    "id": "440055",
    "country": "IT",
    "zipcode": "98030",
    "name": "Forza D'Agro'",
    "region": "Sicilia",
    "short_region": "15",
    "lat": "37.912400",
    "lon": "15.153400"
  },
  {
    "id": "440056",
    "country": "IT",
    "zipcode": "98030",
    "name": "Santa Domenica Vittoria",
    "region": "Sicilia",
    "short_region": "15",
    "lat": "37.916200",
    "lon": "14.962900"
  },
  {
    "id": "440057",
    "country": "IT",
    "zipcode": "98030",
    "name": "Melia",
    "region": "Sicilia",
    "short_region": "15",
    "lat": "37.903800",
    "lon": "15.275000"
  },
  {
    "id": "440058",
    "country": "IT",
    "zipcode": "98030",
    "name": "Gallodoro",
    "region": "Sicilia",
    "short_region": "15",
    "lat": "37.902100",
    "lon": "15.293600"
  },
  {
    "id": "440059",
    "country": "IT",
    "zipcode": "98030",
    "name": "Moio Alcantara",
    "region": "Sicilia",
    "short_region": "15",
    "lat": "37.900600",
    "lon": "15.050700"
  },
  {
    "id": "440060",
    "country": "IT",
    "zipcode": "98030",
    "name": "Limina",
    "region": "Sicilia",
    "short_region": "15",
    "lat": "37.940800",
    "lon": "15.271200"
  },
  {
    "id": "440061",
    "country": "IT",
    "zipcode": "98030",
    "name": "Roccella Valdemone",
    "region": "Sicilia",
    "short_region": "15",
    "lat": "37.932900",
    "lon": "15.010000"
  },
  {
    "id": "440062",
    "country": "IT",
    "zipcode": "98030",
    "name": "Sant'Alessio Siculo",
    "region": "Sicilia",
    "short_region": "15",
    "lat": "37.925200",
    "lon": "15.349700"
  },
  {
    "id": "440063",
    "country": "IT",
    "zipcode": "98030",
    "name": "Gaggi",
    "region": "Sicilia",
    "short_region": "15",
    "lat": "37.859900",
    "lon": "15.221300"
  },
  {
    "id": "440064",
    "country": "IT",
    "zipcode": "98030",
    "name": "Castelmola",
    "region": "Sicilia",
    "short_region": "15",
    "lat": "37.858300",
    "lon": "15.277100"
  },
  {
    "id": "440065",
    "country": "IT",
    "zipcode": "98030",
    "name": "Motta Camastra",
    "region": "Sicilia",
    "short_region": "15",
    "lat": "37.894300",
    "lon": "15.170100"
  },
  {
    "id": "440066",
    "country": "IT",
    "zipcode": "98030",
    "name": "Malvagna",
    "region": "Sicilia",
    "short_region": "15",
    "lat": "37.917500",
    "lon": "15.055500"
  },
  {
    "id": "440067",
    "country": "IT",
    "zipcode": "98030",
    "name": "Antillo",
    "region": "Sicilia",
    "short_region": "15",
    "lat": "37.979400",
    "lon": "15.240300"
  },
  {
    "id": "440068",
    "country": "IT",
    "zipcode": "98031",
    "name": "Capizzi",
    "region": "Sicilia",
    "short_region": "15",
    "lat": "37.847900",
    "lon": "14.479800"
  },
  {
    "id": "440069",
    "country": "IT",
    "zipcode": "98032",
    "name": "Misitano Inferiore",
    "region": "Sicilia",
    "short_region": "15",
    "lat": "37.977300",
    "lon": "15.286900"
  },
  {
    "id": "440070",
    "country": "IT",
    "zipcode": "98032",
    "name": "Misitano Superiore",
    "region": "Sicilia",
    "short_region": "15",
    "lat": "37.986600",
    "lon": "15.268500"
  },
  {
    "id": "440071",
    "country": "IT",
    "zipcode": "98032",
    "name": "Misitano",
    "region": "Sicilia",
    "short_region": "15",
    "lat": "37.986600",
    "lon": "15.268500"
  },
  {
    "id": "440072",
    "country": "IT",
    "zipcode": "98032",
    "name": "Casalvecchio Siculo",
    "region": "Sicilia",
    "short_region": "15",
    "lat": "37.958500",
    "lon": "15.323700"
  },
  {
    "id": "440073",
    "country": "IT",
    "zipcode": "98033",
    "name": "Cesaro'",
    "region": "Sicilia",
    "short_region": "15",
    "lat": "37.844800",
    "lon": "14.713100"
  },
  {
    "id": "440074",
    "country": "IT",
    "zipcode": "98034",
    "name": "Francavilla Di Sicilia",
    "region": "Sicilia",
    "short_region": "15",
    "lat": "37.902000",
    "lon": "15.138200"
  },
  {
    "id": "440075",
    "country": "IT",
    "zipcode": "98035",
    "name": "Giardini Naxos",
    "region": "Sicilia",
    "short_region": "15",
    "lat": "37.821100",
    "lon": "15.253200"
  },
  {
    "id": "440076",
    "country": "IT",
    "zipcode": "98035",
    "name": "Naxos",
    "region": "Sicilia",
    "short_region": "15",
    "lat": "37.821100",
    "lon": "15.253200"
  },
  {
    "id": "440077",
    "country": "IT",
    "zipcode": "98035",
    "name": "Pallio",
    "region": "Sicilia",
    "short_region": "15",
    "lat": "37.821100",
    "lon": "15.253200"
  },
  {
    "id": "440078",
    "country": "IT",
    "zipcode": "98036",
    "name": "Graniti",
    "region": "Sicilia",
    "short_region": "15",
    "lat": "37.889900",
    "lon": "15.224600"
  },
  {
    "id": "440079",
    "country": "IT",
    "zipcode": "98037",
    "name": "Letojanni",
    "region": "Sicilia",
    "short_region": "15",
    "lat": "37.880500",
    "lon": "15.307300"
  },
  {
    "id": "440080",
    "country": "IT",
    "zipcode": "98038",
    "name": "Savoca",
    "region": "Sicilia",
    "short_region": "15",
    "lat": "37.953300",
    "lon": "15.340100"
  },
  {
    "id": "440081",
    "country": "IT",
    "zipcode": "98038",
    "name": "Rina",
    "region": "Sicilia",
    "short_region": "15",
    "lat": "37.942600",
    "lon": "15.334000"
  },
  {
    "id": "440082",
    "country": "IT",
    "zipcode": "98039",
    "name": "Mazzeo",
    "region": "Sicilia",
    "short_region": "15",
    "lat": "37.872200",
    "lon": "15.300800"
  },
  {
    "id": "440083",
    "country": "IT",
    "zipcode": "98039",
    "name": "Chianchitta",
    "region": "Sicilia",
    "short_region": "15",
    "lat": "37.853100",
    "lon": "15.285300"
  },
  {
    "id": "440084",
    "country": "IT",
    "zipcode": "98039",
    "name": "Trappitello",
    "region": "Sicilia",
    "short_region": "15",
    "lat": "37.829800",
    "lon": "15.250800"
  },
  {
    "id": "440085",
    "country": "IT",
    "zipcode": "98039",
    "name": "Mazzaro'",
    "region": "Sicilia",
    "short_region": "15",
    "lat": "37.857000",
    "lon": "15.301100"
  },
  {
    "id": "440086",
    "country": "IT",
    "zipcode": "98039",
    "name": "Taormina",
    "region": "Sicilia",
    "short_region": "15",
    "lat": "37.853600",
    "lon": "15.288500"
  },
  {
    "id": "440087",
    "country": "IT",
    "zipcode": "98040",
    "name": "Roccavaldina",
    "region": "Sicilia",
    "short_region": "15",
    "lat": "38.183000",
    "lon": "15.374000"
  },
  {
    "id": "440088",
    "country": "IT",
    "zipcode": "98040",
    "name": "Condro'",
    "region": "Sicilia",
    "short_region": "15",
    "lat": "38.173800",
    "lon": "15.326600"
  },
  {
    "id": "440089",
    "country": "IT",
    "zipcode": "98040",
    "name": "Torregrotta",
    "region": "Sicilia",
    "short_region": "15",
    "lat": "38.202600",
    "lon": "15.350100"
  },
  {
    "id": "440090",
    "country": "IT",
    "zipcode": "98040",
    "name": "Fondachello",
    "region": "Sicilia",
    "short_region": "15",
    "lat": "38.216300",
    "lon": "15.356200"
  },
  {
    "id": "440091",
    "country": "IT",
    "zipcode": "98040",
    "name": "Gualtieri Sicamino'",
    "region": "Sicilia",
    "short_region": "15",
    "lat": "38.162700",
    "lon": "15.317000"
  },
  {
    "id": "440092",
    "country": "IT",
    "zipcode": "98040",
    "name": "Venetico",
    "region": "Sicilia",
    "short_region": "15",
    "lat": "38.193100",
    "lon": "15.381200"
  },
  {
    "id": "440093",
    "country": "IT",
    "zipcode": "98040",
    "name": "Venetico Superiore",
    "region": "Sicilia",
    "short_region": "15",
    "lat": "38.193100",
    "lon": "15.381200"
  },
  {
    "id": "440094",
    "country": "IT",
    "zipcode": "98040",
    "name": "Scala Di Torregrotta",
    "region": "Sicilia",
    "short_region": "15",
    "lat": "38.187700",
    "lon": "15.343800"
  },
  {
    "id": "440095",
    "country": "IT",
    "zipcode": "98040",
    "name": "Meri'",
    "region": "Sicilia",
    "short_region": "15",
    "lat": "38.166300",
    "lon": "15.249700"
  },
  {
    "id": "440096",
    "country": "IT",
    "zipcode": "98040",
    "name": "Valdina",
    "region": "Sicilia",
    "short_region": "15",
    "lat": "38.193500",
    "lon": "15.369800"
  },
  {
    "id": "440097",
    "country": "IT",
    "zipcode": "98040",
    "name": "Venetico Marina",
    "region": "Sicilia",
    "short_region": "15",
    "lat": "38.219300",
    "lon": "15.366500"
  },
  {
    "id": "440098",
    "country": "IT",
    "zipcode": "98040",
    "name": "Soccorso",
    "region": "Sicilia",
    "short_region": "15",
    "lat": "38.160600",
    "lon": "15.309200"
  },
  {
    "id": "440099",
    "country": "IT",
    "zipcode": "98041",
    "name": "Monforte San Giorgio",
    "region": "Sicilia",
    "short_region": "15",
    "lat": "38.157300",
    "lon": "15.381300"
  },
  {
    "id": "440100",
    "country": "IT",
    "zipcode": "98041",
    "name": "Pellegrino",
    "region": "Sicilia",
    "short_region": "15",
    "lat": "38.140800",
    "lon": "15.394400"
  },
  {
    "id": "440101",
    "country": "IT",
    "zipcode": "98041",
    "name": "Monforte Marina",
    "region": "Sicilia",
    "short_region": "15",
    "lat": "38.206100",
    "lon": "15.336800"
  },
  {
    "id": "440102",
    "country": "IT",
    "zipcode": "98042",
    "name": "Giammoro",
    "region": "Sicilia",
    "short_region": "15",
    "lat": "38.203700",
    "lon": "15.306700"
  },
  {
    "id": "440103",
    "country": "IT",
    "zipcode": "98042",
    "name": "Pace Del Mela",
    "region": "Sicilia",
    "short_region": "15",
    "lat": "38.180000",
    "lon": "15.306300"
  },
  {
    "id": "440104",
    "country": "IT",
    "zipcode": "98043",
    "name": "Rometta",
    "region": "Sicilia",
    "short_region": "15",
    "lat": "38.170100",
    "lon": "15.414300"
  },
  {
    "id": "440105",
    "country": "IT",
    "zipcode": "98043",
    "name": "Gimello",
    "region": "Sicilia",
    "short_region": "15",
    "lat": "38.158100",
    "lon": "15.419900"
  },
  {
    "id": "440106",
    "country": "IT",
    "zipcode": "98043",
    "name": "Rometta Marea",
    "region": "Sicilia",
    "short_region": "15",
    "lat": "38.232600",
    "lon": "15.409600"
  },
  {
    "id": "440107",
    "country": "IT",
    "zipcode": "98043",
    "name": "Sant'Andrea",
    "region": "Sicilia",
    "short_region": "15",
    "lat": "38.213400",
    "lon": "15.425200"
  },
  {
    "id": "440108",
    "country": "IT",
    "zipcode": "98044",
    "name": "San Filippo Del Mela",
    "region": "Sicilia",
    "short_region": "15",
    "lat": "38.170100",
    "lon": "15.273400"
  },
  {
    "id": "440109",
    "country": "IT",
    "zipcode": "98044",
    "name": "Archi",
    "region": "Sicilia",
    "short_region": "15",
    "lat": "38.194700",
    "lon": "15.274200"
  },
  {
    "id": "440110",
    "country": "IT",
    "zipcode": "98044",
    "name": "Corriolo",
    "region": "Sicilia",
    "short_region": "15",
    "lat": "38.183300",
    "lon": "15.266700"
  },
  {
    "id": "440111",
    "country": "IT",
    "zipcode": "98044",
    "name": "Cattafi",
    "region": "Sicilia",
    "short_region": "15",
    "lat": "38.178700",
    "lon": "15.270200"
  },
  {
    "id": "440112",
    "country": "IT",
    "zipcode": "98044",
    "name": "Olivarella",
    "region": "Sicilia",
    "short_region": "15",
    "lat": "38.166700",
    "lon": "15.266700"
  },
  {
    "id": "440113",
    "country": "IT",
    "zipcode": "98045",
    "name": "San Pier Niceto",
    "region": "Sicilia",
    "short_region": "15",
    "lat": "38.160500",
    "lon": "15.349800"
  },
  {
    "id": "440114",
    "country": "IT",
    "zipcode": "98045",
    "name": "San Pier Marina",
    "region": "Sicilia",
    "short_region": "15",
    "lat": "38.199900",
    "lon": "15.325800"
  },
  {
    "id": "440115",
    "country": "IT",
    "zipcode": "98046",
    "name": "Santa Lucia Del Mela",
    "region": "Sicilia",
    "short_region": "15",
    "lat": "38.144100",
    "lon": "15.280600"
  },
  {
    "id": "440116",
    "country": "IT",
    "zipcode": "98047",
    "name": "Cavaliere",
    "region": "Sicilia",
    "short_region": "15",
    "lat": "38.216700",
    "lon": "15.433300"
  },
  {
    "id": "440117",
    "country": "IT",
    "zipcode": "98047",
    "name": "Saponara",
    "region": "Sicilia",
    "short_region": "15",
    "lat": "38.192400",
    "lon": "15.434400"
  },
  {
    "id": "440118",
    "country": "IT",
    "zipcode": "98047",
    "name": "Saponara Marittima",
    "region": "Sicilia",
    "short_region": "15",
    "lat": "38.231200",
    "lon": "15.426200"
  },
  {
    "id": "440119",
    "country": "IT",
    "zipcode": "98047",
    "name": "Scarcelli",
    "region": "Sicilia",
    "short_region": "15",
    "lat": "38.205300",
    "lon": "15.431600"
  },
  {
    "id": "440120",
    "country": "IT",
    "zipcode": "98048",
    "name": "Spadafora",
    "region": "Sicilia",
    "short_region": "15",
    "lat": "38.223500",
    "lon": "15.381800"
  },
  {
    "id": "440121",
    "country": "IT",
    "zipcode": "98048",
    "name": "San Martino",
    "region": "Sicilia",
    "short_region": "15",
    "lat": "38.206300",
    "lon": "15.391100"
  },
  {
    "id": "440122",
    "country": "IT",
    "zipcode": "98048",
    "name": "San Martino Spadafora",
    "region": "Sicilia",
    "short_region": "15",
    "lat": "38.206300",
    "lon": "15.391100"
  },
  {
    "id": "440123",
    "country": "IT",
    "zipcode": "98049",
    "name": "Villafranca Tirrena",
    "region": "Sicilia",
    "short_region": "15",
    "lat": "38.239500",
    "lon": "15.438800"
  },
  {
    "id": "440124",
    "country": "IT",
    "zipcode": "98049",
    "name": "Divieto",
    "region": "Sicilia",
    "short_region": "15",
    "lat": "38.038500",
    "lon": "14.943500"
  },
  {
    "id": "440125",
    "country": "IT",
    "zipcode": "98049",
    "name": "Serro",
    "region": "Sicilia",
    "short_region": "15",
    "lat": "38.195800",
    "lon": "15.329700"
  },
  {
    "id": "440126",
    "country": "IT",
    "zipcode": "98049",
    "name": "Calvaruso",
    "region": "Sicilia",
    "short_region": "15",
    "lat": "38.221900",
    "lon": "15.453400"
  },
  {
    "id": "440127",
    "country": "IT",
    "zipcode": "98050",
    "name": "Ginostra Di Lipari",
    "region": "Sicilia",
    "short_region": "15",
    "lat": "38.786300",
    "lon": "15.192900"
  },
  {
    "id": "440128",
    "country": "IT",
    "zipcode": "98050",
    "name": "Malfa",
    "region": "Sicilia",
    "short_region": "15",
    "lat": "38.577300",
    "lon": "14.836000"
  },
  {
    "id": "440129",
    "country": "IT",
    "zipcode": "98050",
    "name": "Ginostra",
    "region": "Sicilia",
    "short_region": "15",
    "lat": "38.786300",
    "lon": "15.192900"
  },
  {
    "id": "440130",
    "country": "IT",
    "zipcode": "98050",
    "name": "Panarea",
    "region": "Sicilia",
    "short_region": "15",
    "lat": "38.636900",
    "lon": "15.075300"
  },
  {
    "id": "440131",
    "country": "IT",
    "zipcode": "98050",
    "name": "Lingua",
    "region": "Sicilia",
    "short_region": "15",
    "lat": "38.539400",
    "lon": "14.867700"
  },
  {
    "id": "440132",
    "country": "IT",
    "zipcode": "98050",
    "name": "Filicudi",
    "region": "Sicilia",
    "short_region": "15",
    "lat": "38.519200",
    "lon": "14.997600"
  },
  {
    "id": "440133",
    "country": "IT",
    "zipcode": "98050",
    "name": "Fondachelli Fantina",
    "region": "Sicilia",
    "short_region": "15",
    "lat": "38.519200",
    "lon": "14.997600"
  },
  {
    "id": "440134",
    "country": "IT",
    "zipcode": "98050",
    "name": "Vigliatore",
    "region": "Sicilia",
    "short_region": "15",
    "lat": "38.519200",
    "lon": "14.997600"
  },
  {
    "id": "440135",
    "country": "IT",
    "zipcode": "98050",
    "name": "Terme Vigliatore",
    "region": "Sicilia",
    "short_region": "15",
    "lat": "38.519200",
    "lon": "14.997600"
  },
  {
    "id": "440136",
    "country": "IT",
    "zipcode": "98050",
    "name": "Vulcano",
    "region": "Sicilia",
    "short_region": "15",
    "lat": "38.519200",
    "lon": "14.997600"
  },
  {
    "id": "440137",
    "country": "IT",
    "zipcode": "98050",
    "name": "Castroreale Terme",
    "region": "Sicilia",
    "short_region": "15",
    "lat": "38.519200",
    "lon": "14.997600"
  },
  {
    "id": "440138",
    "country": "IT",
    "zipcode": "98050",
    "name": "Rubino",
    "region": "Sicilia",
    "short_region": "15",
    "lat": "38.519200",
    "lon": "14.997600"
  },
  {
    "id": "440139",
    "country": "IT",
    "zipcode": "98050",
    "name": "Alicudi",
    "region": "Sicilia",
    "short_region": "15",
    "lat": "38.519200",
    "lon": "14.997600"
  },
  {
    "id": "440140",
    "country": "IT",
    "zipcode": "98050",
    "name": "Alicudi Porto",
    "region": "Sicilia",
    "short_region": "15",
    "lat": "38.519200",
    "lon": "14.997600"
  },
  {
    "id": "440141",
    "country": "IT",
    "zipcode": "98050",
    "name": "Santa Marina Salina",
    "region": "Sicilia",
    "short_region": "15",
    "lat": "38.561200",
    "lon": "14.870800"
  },
  {
    "id": "440142",
    "country": "IT",
    "zipcode": "98050",
    "name": "Filicudi Porto",
    "region": "Sicilia",
    "short_region": "15",
    "lat": "38.519200",
    "lon": "14.997600"
  },
  {
    "id": "440143",
    "country": "IT",
    "zipcode": "98050",
    "name": "Stromboli",
    "region": "Sicilia",
    "short_region": "15",
    "lat": "38.803000",
    "lon": "15.238100"
  },
  {
    "id": "440144",
    "country": "IT",
    "zipcode": "98050",
    "name": "Vulcano Porto",
    "region": "Sicilia",
    "short_region": "15",
    "lat": "38.413600",
    "lon": "14.957100"
  },
  {
    "id": "440145",
    "country": "IT",
    "zipcode": "98050",
    "name": "Evangelisti",
    "region": "Sicilia",
    "short_region": "15",
    "lat": "37.984100",
    "lon": "15.173200"
  },
  {
    "id": "440146",
    "country": "IT",
    "zipcode": "98050",
    "name": "Leni",
    "region": "Sicilia",
    "short_region": "15",
    "lat": "38.555300",
    "lon": "14.825000"
  },
  {
    "id": "440147",
    "country": "IT",
    "zipcode": "98050",
    "name": "Fantina",
    "region": "Sicilia",
    "short_region": "15",
    "lat": "38.026000",
    "lon": "15.176800"
  },
  {
    "id": "440148",
    "country": "IT",
    "zipcode": "98050",
    "name": "Pecorini A Mare",
    "region": "Sicilia",
    "short_region": "15",
    "lat": "38.561200",
    "lon": "14.565800"
  },
  {
    "id": "440149",
    "country": "IT",
    "zipcode": "98051",
    "name": "Porto Salvo",
    "region": "Sicilia",
    "short_region": "15",
    "lat": "38.133300",
    "lon": "15.183300"
  },
  {
    "id": "440150",
    "country": "IT",
    "zipcode": "98051",
    "name": "Sant'Antonio",
    "region": "Sicilia",
    "short_region": "15",
    "lat": "38.150000",
    "lon": "15.183300"
  },
  {
    "id": "440151",
    "country": "IT",
    "zipcode": "98051",
    "name": "Acquaficara",
    "region": "Sicilia",
    "short_region": "15",
    "lat": "38.129100",
    "lon": "15.207100"
  },
  {
    "id": "440152",
    "country": "IT",
    "zipcode": "98051",
    "name": "Cannistra'",
    "region": "Sicilia",
    "short_region": "15",
    "lat": "38.133300",
    "lon": "15.233300"
  },
  {
    "id": "440153",
    "country": "IT",
    "zipcode": "98051",
    "name": "Barcellona Pozzo Di Gotto",
    "region": "Sicilia",
    "short_region": "15",
    "lat": "38.147700",
    "lon": "15.214700"
  },
  {
    "id": "440154",
    "country": "IT",
    "zipcode": "98051",
    "name": "Caldera'",
    "region": "Sicilia",
    "short_region": "15",
    "lat": "38.134000",
    "lon": "15.187200"
  },
  {
    "id": "440155",
    "country": "IT",
    "zipcode": "98051",
    "name": "Pozzo Di Gotto",
    "region": "Sicilia",
    "short_region": "15",
    "lat": "38.150000",
    "lon": "15.233300"
  },
  {
    "id": "440156",
    "country": "IT",
    "zipcode": "98051",
    "name": "Sant'Antonino Convento",
    "region": "Sicilia",
    "short_region": "15",
    "lat": "38.134000",
    "lon": "15.187200"
  },
  {
    "id": "440157",
    "country": "IT",
    "zipcode": "98051",
    "name": "La Gala",
    "region": "Sicilia",
    "short_region": "15",
    "lat": "38.118000",
    "lon": "15.230900"
  },
  {
    "id": "440158",
    "country": "IT",
    "zipcode": "98051",
    "name": "San Paolo",
    "region": "Sicilia",
    "short_region": "15",
    "lat": "38.126700",
    "lon": "14.967600"
  },
  {
    "id": "440159",
    "country": "IT",
    "zipcode": "98051",
    "name": "Gala",
    "region": "Sicilia",
    "short_region": "15",
    "lat": "38.118000",
    "lon": "15.230900"
  },
  {
    "id": "440160",
    "country": "IT",
    "zipcode": "98053",
    "name": "Castroreale",
    "region": "Sicilia",
    "short_region": "15",
    "lat": "38.098600",
    "lon": "15.210100"
  },
  {
    "id": "440161",
    "country": "IT",
    "zipcode": "98053",
    "name": "Bafia",
    "region": "Sicilia",
    "short_region": "15",
    "lat": "38.074500",
    "lon": "15.205300"
  },
  {
    "id": "440162",
    "country": "IT",
    "zipcode": "98053",
    "name": "Protonotaro",
    "region": "Sicilia",
    "short_region": "15",
    "lat": "38.120800",
    "lon": "15.192400"
  },
  {
    "id": "440163",
    "country": "IT",
    "zipcode": "98054",
    "name": "Furnari",
    "region": "Sicilia",
    "short_region": "15",
    "lat": "38.104400",
    "lon": "15.123600"
  },
  {
    "id": "440164",
    "country": "IT",
    "zipcode": "98054",
    "name": "Tonnarella",
    "region": "Sicilia",
    "short_region": "15",
    "lat": "38.125400",
    "lon": "15.113500"
  },
  {
    "id": "440165",
    "country": "IT",
    "zipcode": "98055",
    "name": "Canneto",
    "region": "Sicilia",
    "short_region": "15",
    "lat": "38.495000",
    "lon": "14.960400"
  },
  {
    "id": "440166",
    "country": "IT",
    "zipcode": "98055",
    "name": "Canneto Lipari",
    "region": "Sicilia",
    "short_region": "15",
    "lat": "38.495000",
    "lon": "14.960400"
  },
  {
    "id": "440167",
    "country": "IT",
    "zipcode": "98055",
    "name": "Pianoconte",
    "region": "Sicilia",
    "short_region": "15",
    "lat": "38.474300",
    "lon": "14.928600"
  },
  {
    "id": "440168",
    "country": "IT",
    "zipcode": "98055",
    "name": "Acquacalda",
    "region": "Sicilia",
    "short_region": "15",
    "lat": "38.519700",
    "lon": "14.944500"
  },
  {
    "id": "440169",
    "country": "IT",
    "zipcode": "98055",
    "name": "Quattropani",
    "region": "Sicilia",
    "short_region": "15",
    "lat": "38.500000",
    "lon": "14.916700"
  },
  {
    "id": "440170",
    "country": "IT",
    "zipcode": "98055",
    "name": "Lipari",
    "region": "Sicilia",
    "short_region": "15",
    "lat": "38.467400",
    "lon": "14.954000"
  },
  {
    "id": "440171",
    "country": "IT",
    "zipcode": "98056",
    "name": "Mazzarra' Sant'Andrea",
    "region": "Sicilia",
    "short_region": "15",
    "lat": "38.089700",
    "lon": "15.135400"
  },
  {
    "id": "440172",
    "country": "IT",
    "zipcode": "98057",
    "name": "Milazzo",
    "region": "Sicilia",
    "short_region": "15",
    "lat": "38.220100",
    "lon": "15.240200"
  },
  {
    "id": "440173",
    "country": "IT",
    "zipcode": "98057",
    "name": "San Pietro Di Milazzo",
    "region": "Sicilia",
    "short_region": "15",
    "lat": "38.183300",
    "lon": "15.233300"
  },
  {
    "id": "440174",
    "country": "IT",
    "zipcode": "98057",
    "name": "Santa Marina Di Milazzo",
    "region": "Sicilia",
    "short_region": "15",
    "lat": "38.201700",
    "lon": "15.236800"
  },
  {
    "id": "440175",
    "country": "IT",
    "zipcode": "98058",
    "name": "San Basilio Di Novara Di Sicilia",
    "region": "Sicilia",
    "short_region": "15",
    "lat": "38.009600",
    "lon": "15.103900"
  },
  {
    "id": "440176",
    "country": "IT",
    "zipcode": "98058",
    "name": "Novara Di Sicilia",
    "region": "Sicilia",
    "short_region": "15",
    "lat": "38.015400",
    "lon": "15.131300"
  },
  {
    "id": "440177",
    "country": "IT",
    "zipcode": "98059",
    "name": "Milici",
    "region": "Sicilia",
    "short_region": "15",
    "lat": "38.083500",
    "lon": "15.168800"
  },
  {
    "id": "440178",
    "country": "IT",
    "zipcode": "98059",
    "name": "Rodi' Milici",
    "region": "Sicilia",
    "short_region": "15",
    "lat": "38.083500",
    "lon": "15.168800"
  },
  {
    "id": "440179",
    "country": "IT",
    "zipcode": "98060",
    "name": "Tripi",
    "region": "Sicilia",
    "short_region": "15",
    "lat": "38.046700",
    "lon": "15.096700"
  },
  {
    "id": "440180",
    "country": "IT",
    "zipcode": "98060",
    "name": "Piraino",
    "region": "Sicilia",
    "short_region": "15",
    "lat": "38.161300",
    "lon": "14.861000"
  },
  {
    "id": "440181",
    "country": "IT",
    "zipcode": "98060",
    "name": "Salina'",
    "region": "Sicilia",
    "short_region": "15",
    "lat": "38.144400",
    "lon": "14.866100"
  },
  {
    "id": "440182",
    "country": "IT",
    "zipcode": "98060",
    "name": "San Lorenzitto",
    "region": "Sicilia",
    "short_region": "15",
    "lat": "38.107700",
    "lon": "14.957100"
  },
  {
    "id": "440183",
    "country": "IT",
    "zipcode": "98060",
    "name": "Montagnareale",
    "region": "Sicilia",
    "short_region": "15",
    "lat": "38.132200",
    "lon": "14.946600"
  },
  {
    "id": "440184",
    "country": "IT",
    "zipcode": "98060",
    "name": "Belvedere",
    "region": "Sicilia",
    "short_region": "15",
    "lat": "38.105700",
    "lon": "15.081400"
  },
  {
    "id": "440185",
    "country": "IT",
    "zipcode": "98060",
    "name": "Falcone",
    "region": "Sicilia",
    "short_region": "15",
    "lat": "38.117000",
    "lon": "15.079700"
  },
  {
    "id": "440186",
    "country": "IT",
    "zipcode": "98060",
    "name": "Sant'Angelo Di Brolo",
    "region": "Sicilia",
    "short_region": "15",
    "lat": "38.115200",
    "lon": "14.884000"
  },
  {
    "id": "440187",
    "country": "IT",
    "zipcode": "98060",
    "name": "Oliveri",
    "region": "Sicilia",
    "short_region": "15",
    "lat": "38.125100",
    "lon": "15.060700"
  },
  {
    "id": "440188",
    "country": "IT",
    "zipcode": "98060",
    "name": "Ucria",
    "region": "Sicilia",
    "short_region": "15",
    "lat": "38.046200",
    "lon": "14.880900"
  },
  {
    "id": "440189",
    "country": "IT",
    "zipcode": "98060",
    "name": "Fiumara Di Piraino",
    "region": "Sicilia",
    "short_region": "15",
    "lat": "38.152700",
    "lon": "14.853300"
  },
  {
    "id": "440190",
    "country": "IT",
    "zipcode": "98060",
    "name": "Cavallo Pastorio",
    "region": "Sicilia",
    "short_region": "15",
    "lat": "38.089500",
    "lon": "14.884400"
  },
  {
    "id": "440191",
    "country": "IT",
    "zipcode": "98060",
    "name": "Campogrande",
    "region": "Sicilia",
    "short_region": "15",
    "lat": "38.073000",
    "lon": "15.098900"
  },
  {
    "id": "440192",
    "country": "IT",
    "zipcode": "98060",
    "name": "San Silvestro",
    "region": "Sicilia",
    "short_region": "15",
    "lat": "38.095000",
    "lon": "14.904900"
  },
  {
    "id": "440193",
    "country": "IT",
    "zipcode": "98060",
    "name": "Santa Maria Lo Piano",
    "region": "Sicilia",
    "short_region": "15",
    "lat": "38.095000",
    "lon": "14.904900"
  },
  {
    "id": "440194",
    "country": "IT",
    "zipcode": "98060",
    "name": "Basico'",
    "region": "Sicilia",
    "short_region": "15",
    "lat": "38.060800",
    "lon": "15.062600"
  },
  {
    "id": "440195",
    "country": "IT",
    "zipcode": "98060",
    "name": "Gliaca",
    "region": "Sicilia",
    "short_region": "15",
    "lat": "38.163200",
    "lon": "14.847700"
  },
  {
    "id": "440196",
    "country": "IT",
    "zipcode": "98061",
    "name": "Brolo",
    "region": "Sicilia",
    "short_region": "15",
    "lat": "38.156200",
    "lon": "14.828000"
  },
  {
    "id": "440197",
    "country": "IT",
    "zipcode": "98062",
    "name": "Ficarra",
    "region": "Sicilia",
    "short_region": "15",
    "lat": "38.108500",
    "lon": "14.829900"
  },
  {
    "id": "440198",
    "country": "IT",
    "zipcode": "98063",
    "name": "Magaro",
    "region": "Sicilia",
    "short_region": "15",
    "lat": "38.171000",
    "lon": "14.923800"
  },
  {
    "id": "440199",
    "country": "IT",
    "zipcode": "98063",
    "name": "Gioiosa Marea",
    "region": "Sicilia",
    "short_region": "15",
    "lat": "38.173700",
    "lon": "14.899300"
  },
  {
    "id": "440200",
    "country": "IT",
    "zipcode": "98063",
    "name": "San Giorgio",
    "region": "Sicilia",
    "short_region": "15",
    "lat": "38.168300",
    "lon": "14.948200"
  },
  {
    "id": "440201",
    "country": "IT",
    "zipcode": "98064",
    "name": "Librizzi",
    "region": "Sicilia",
    "short_region": "15",
    "lat": "38.097200",
    "lon": "14.959100"
  },
  {
    "id": "440202",
    "country": "IT",
    "zipcode": "98064",
    "name": "Colla Maffone",
    "region": "Sicilia",
    "short_region": "15",
    "lat": "38.093700",
    "lon": "14.974300"
  },
  {
    "id": "440203",
    "country": "IT",
    "zipcode": "98064",
    "name": "Nasidi",
    "region": "Sicilia",
    "short_region": "15",
    "lat": "38.080600",
    "lon": "14.963400"
  },
  {
    "id": "440204",
    "country": "IT",
    "zipcode": "98065",
    "name": "Santa Barbara",
    "region": "Sicilia",
    "short_region": "15",
    "lat": "38.054600",
    "lon": "15.035700"
  },
  {
    "id": "440205",
    "country": "IT",
    "zipcode": "98065",
    "name": "Braidi",
    "region": "Sicilia",
    "short_region": "15",
    "lat": "38.059300",
    "lon": "15.015400"
  },
  {
    "id": "440206",
    "country": "IT",
    "zipcode": "98065",
    "name": "Montalbano Elicona",
    "region": "Sicilia",
    "short_region": "15",
    "lat": "38.023600",
    "lon": "15.013900"
  },
  {
    "id": "440207",
    "country": "IT",
    "zipcode": "98066",
    "name": "Case Nuove Russo",
    "region": "Sicilia",
    "short_region": "15",
    "lat": "38.140500",
    "lon": "14.988800"
  },
  {
    "id": "440208",
    "country": "IT",
    "zipcode": "98066",
    "name": "Patti",
    "region": "Sicilia",
    "short_region": "15",
    "lat": "38.147400",
    "lon": "14.964100"
  },
  {
    "id": "440209",
    "country": "IT",
    "zipcode": "98066",
    "name": "San Cosimo",
    "region": "Sicilia",
    "short_region": "15",
    "lat": "38.103500",
    "lon": "15.011100"
  },
  {
    "id": "440210",
    "country": "IT",
    "zipcode": "98066",
    "name": "Tindari",
    "region": "Sicilia",
    "short_region": "15",
    "lat": "38.142400",
    "lon": "15.044300"
  },
  {
    "id": "440211",
    "country": "IT",
    "zipcode": "98066",
    "name": "Marina Di Patti",
    "region": "Sicilia",
    "short_region": "15",
    "lat": "38.135600",
    "lon": "15.009700"
  },
  {
    "id": "440212",
    "country": "IT",
    "zipcode": "98066",
    "name": "Mongiove",
    "region": "Sicilia",
    "short_region": "15",
    "lat": "38.147900",
    "lon": "15.014100"
  },
  {
    "id": "440213",
    "country": "IT",
    "zipcode": "98066",
    "name": "Scala",
    "region": "Sicilia",
    "short_region": "15",
    "lat": "38.132200",
    "lon": "15.035700"
  },
  {
    "id": "440214",
    "country": "IT",
    "zipcode": "98067",
    "name": "Zappa",
    "region": "Sicilia",
    "short_region": "15",
    "lat": "38.034600",
    "lon": "14.909200"
  },
  {
    "id": "440215",
    "country": "IT",
    "zipcode": "98067",
    "name": "Raccuja",
    "region": "Sicilia",
    "short_region": "15",
    "lat": "38.055800",
    "lon": "14.910400"
  },
  {
    "id": "440216",
    "country": "IT",
    "zipcode": "98067",
    "name": "Fondachello Di Raccuja",
    "region": "Sicilia",
    "short_region": "15",
    "lat": "38.045200",
    "lon": "14.909800"
  },
  {
    "id": "440217",
    "country": "IT",
    "zipcode": "98068",
    "name": "Fiumara",
    "region": "Sicilia",
    "short_region": "15",
    "lat": "38.025800",
    "lon": "14.965900"
  },
  {
    "id": "440218",
    "country": "IT",
    "zipcode": "98068",
    "name": "San Piero Patti",
    "region": "Sicilia",
    "short_region": "15",
    "lat": "38.052100",
    "lon": "14.968200"
  },
  {
    "id": "440219",
    "country": "IT",
    "zipcode": "98068",
    "name": "Tesoriero",
    "region": "Sicilia",
    "short_region": "15",
    "lat": "38.061400",
    "lon": "14.995800"
  },
  {
    "id": "440220",
    "country": "IT",
    "zipcode": "98069",
    "name": "Sinagra",
    "region": "Sicilia",
    "short_region": "15",
    "lat": "38.081900",
    "lon": "14.850100"
  },
  {
    "id": "440221",
    "country": "IT",
    "zipcode": "98070",
    "name": "Acquedolci",
    "region": "Sicilia",
    "short_region": "15",
    "lat": "38.057100",
    "lon": "14.585500"
  },
  {
    "id": "440222",
    "country": "IT",
    "zipcode": "98070",
    "name": "Militello Rosmarino",
    "region": "Sicilia",
    "short_region": "15",
    "lat": "38.045800",
    "lon": "14.675800"
  },
  {
    "id": "440223",
    "country": "IT",
    "zipcode": "98070",
    "name": "Capri Leone",
    "region": "Sicilia",
    "short_region": "15",
    "lat": "38.086800",
    "lon": "14.729600"
  },
  {
    "id": "440224",
    "country": "IT",
    "zipcode": "98070",
    "name": "Galati Mamertino",
    "region": "Sicilia",
    "short_region": "15",
    "lat": "38.031800",
    "lon": "14.771500"
  },
  {
    "id": "440225",
    "country": "IT",
    "zipcode": "98070",
    "name": "Reitano",
    "region": "Sicilia",
    "short_region": "15",
    "lat": "37.972000",
    "lon": "14.344200"
  },
  {
    "id": "440226",
    "country": "IT",
    "zipcode": "98070",
    "name": "Alcara Li Fusi",
    "region": "Sicilia",
    "short_region": "15",
    "lat": "38.021400",
    "lon": "14.701400"
  },
  {
    "id": "440227",
    "country": "IT",
    "zipcode": "98070",
    "name": "San Salvatore Di Fitalia",
    "region": "Sicilia",
    "short_region": "15",
    "lat": "38.068400",
    "lon": "14.778000"
  },
  {
    "id": "440228",
    "country": "IT",
    "zipcode": "98070",
    "name": "Torrenova",
    "region": "Sicilia",
    "short_region": "15",
    "lat": "38.092500",
    "lon": "14.679200"
  },
  {
    "id": "440229",
    "country": "IT",
    "zipcode": "98070",
    "name": "Rocca Di Capri Leone",
    "region": "Sicilia",
    "short_region": "15",
    "lat": "38.106800",
    "lon": "14.710300"
  },
  {
    "id": "440230",
    "country": "IT",
    "zipcode": "98070",
    "name": "Mirto",
    "region": "Sicilia",
    "short_region": "15",
    "lat": "38.084400",
    "lon": "14.746100"
  },
  {
    "id": "440231",
    "country": "IT",
    "zipcode": "98070",
    "name": "Longi",
    "region": "Sicilia",
    "short_region": "15",
    "lat": "38.026200",
    "lon": "14.753100"
  },
  {
    "id": "440232",
    "country": "IT",
    "zipcode": "98070",
    "name": "Castel Di Lucio",
    "region": "Sicilia",
    "short_region": "15",
    "lat": "37.887000",
    "lon": "14.311200"
  },
  {
    "id": "440233",
    "country": "IT",
    "zipcode": "98070",
    "name": "Sfaranda",
    "region": "Sicilia",
    "short_region": "15",
    "lat": "38.058100",
    "lon": "14.831500"
  },
  {
    "id": "440234",
    "country": "IT",
    "zipcode": "98070",
    "name": "San Marco D'Alunzio",
    "region": "Sicilia",
    "short_region": "15",
    "lat": "38.072600",
    "lon": "14.700900"
  },
  {
    "id": "440235",
    "country": "IT",
    "zipcode": "98070",
    "name": "San Basilio",
    "region": "Sicilia",
    "short_region": "15",
    "lat": "38.016700",
    "lon": "14.778400"
  },
  {
    "id": "440236",
    "country": "IT",
    "zipcode": "98070",
    "name": "Motta D'Affermo",
    "region": "Sicilia",
    "short_region": "15",
    "lat": "37.981000",
    "lon": "14.303400"
  },
  {
    "id": "440237",
    "country": "IT",
    "zipcode": "98070",
    "name": "Castell'Umberto",
    "region": "Sicilia",
    "short_region": "15",
    "lat": "38.086300",
    "lon": "14.806900"
  },
  {
    "id": "440238",
    "country": "IT",
    "zipcode": "98070",
    "name": "Pettineo",
    "region": "Sicilia",
    "short_region": "15",
    "lat": "37.967900",
    "lon": "14.291200"
  },
  {
    "id": "440239",
    "country": "IT",
    "zipcode": "98070",
    "name": "Torremuzza",
    "region": "Sicilia",
    "short_region": "15",
    "lat": "38.038500",
    "lon": "14.943500"
  },
  {
    "id": "440240",
    "country": "IT",
    "zipcode": "98070",
    "name": "Frazzano'",
    "region": "Sicilia",
    "short_region": "15",
    "lat": "38.072000",
    "lon": "14.744100"
  },
  {
    "id": "440241",
    "country": "IT",
    "zipcode": "98071",
    "name": "Piana Di Capo D'Orlando",
    "region": "Sicilia",
    "short_region": "15",
    "lat": "38.146800",
    "lon": "14.755900"
  },
  {
    "id": "440242",
    "country": "IT",
    "zipcode": "98071",
    "name": "Scafa",
    "region": "Sicilia",
    "short_region": "15",
    "lat": "38.151000",
    "lon": "14.778800"
  },
  {
    "id": "440243",
    "country": "IT",
    "zipcode": "98071",
    "name": "Capo D'Orlando",
    "region": "Sicilia",
    "short_region": "15",
    "lat": "38.142600",
    "lon": "14.732900"
  },
  {
    "id": "440244",
    "country": "IT",
    "zipcode": "98072",
    "name": "Marina Di Caronia",
    "region": "Sicilia",
    "short_region": "15",
    "lat": "38.035400",
    "lon": "14.441800"
  },
  {
    "id": "440245",
    "country": "IT",
    "zipcode": "98072",
    "name": "Canneto Di Caronia",
    "region": "Sicilia",
    "short_region": "15",
    "lat": "38.021400",
    "lon": "14.388900"
  },
  {
    "id": "440246",
    "country": "IT",
    "zipcode": "98072",
    "name": "Caronia",
    "region": "Sicilia",
    "short_region": "15",
    "lat": "38.023800",
    "lon": "14.441400"
  },
  {
    "id": "440247",
    "country": "IT",
    "zipcode": "98073",
    "name": "Mistretta",
    "region": "Sicilia",
    "short_region": "15",
    "lat": "37.928200",
    "lon": "14.357800"
  },
  {
    "id": "440248",
    "country": "IT",
    "zipcode": "98074",
    "name": "Naso",
    "region": "Sicilia",
    "short_region": "15",
    "lat": "38.122100",
    "lon": "14.787000"
  },
  {
    "id": "440249",
    "country": "IT",
    "zipcode": "98074",
    "name": "Malo'",
    "region": "Sicilia",
    "short_region": "15",
    "lat": "38.115400",
    "lon": "14.751000"
  },
  {
    "id": "440250",
    "country": "IT",
    "zipcode": "98074",
    "name": "Cresta",
    "region": "Sicilia",
    "short_region": "15",
    "lat": "38.132500",
    "lon": "14.765900"
  },
  {
    "id": "440251",
    "country": "IT",
    "zipcode": "98075",
    "name": "San Fratello",
    "region": "Sicilia",
    "short_region": "15",
    "lat": "38.015600",
    "lon": "14.598200"
  },
  {
    "id": "440252",
    "country": "IT",
    "zipcode": "98076",
    "name": "Torrecandele",
    "region": "Sicilia",
    "short_region": "15",
    "lat": "38.066700",
    "lon": "14.650000"
  },
  {
    "id": "440253",
    "country": "IT",
    "zipcode": "98076",
    "name": "Sant'Agata Di Militello",
    "region": "Sicilia",
    "short_region": "15",
    "lat": "38.068400",
    "lon": "14.636000"
  },
  {
    "id": "440254",
    "country": "IT",
    "zipcode": "98076",
    "name": "Vallebruca",
    "region": "Sicilia",
    "short_region": "15",
    "lat": "38.033300",
    "lon": "14.633300"
  },
  {
    "id": "440255",
    "country": "IT",
    "zipcode": "98077",
    "name": "Santo Stefano Di Camastra",
    "region": "Sicilia",
    "short_region": "15",
    "lat": "38.013000",
    "lon": "14.351400"
  },
  {
    "id": "440256",
    "country": "IT",
    "zipcode": "98078",
    "name": "Sceti",
    "region": "Sicilia",
    "short_region": "15",
    "lat": "38.030400",
    "lon": "14.807100"
  },
  {
    "id": "440257",
    "country": "IT",
    "zipcode": "98078",
    "name": "Grazia",
    "region": "Sicilia",
    "short_region": "15",
    "lat": "38.048000",
    "lon": "14.835500"
  },
  {
    "id": "440258",
    "country": "IT",
    "zipcode": "98078",
    "name": "Tortorici",
    "region": "Sicilia",
    "short_region": "15",
    "lat": "38.029700",
    "lon": "14.822100"
  },
  {
    "id": "440259",
    "country": "IT",
    "zipcode": "98078",
    "name": "Moira",
    "region": "Sicilia",
    "short_region": "15",
    "lat": "38.031300",
    "lon": "14.844800"
  },
  {
    "id": "440260",
    "country": "IT",
    "zipcode": "98078",
    "name": "Ilombati",
    "region": "Sicilia",
    "short_region": "15",
    "lat": "38.010600",
    "lon": "14.830300"
  },
  {
    "id": "440261",
    "country": "IT",
    "zipcode": "98078",
    "name": "Sant'Antonino Sciortino",
    "region": "Sicilia",
    "short_region": "15",
    "lat": "38.019200",
    "lon": "14.817500"
  },
  {
    "id": "440262",
    "country": "IT",
    "zipcode": "98079",
    "name": "Tusa",
    "region": "Sicilia",
    "short_region": "15",
    "lat": "37.983900",
    "lon": "14.236100"
  },
  {
    "id": "440263",
    "country": "IT",
    "zipcode": "98079",
    "name": "Castel Di Tusa",
    "region": "Sicilia",
    "short_region": "15",
    "lat": "38.008900",
    "lon": "14.257600"
  },
  {
    "id": "440264",
    "country": "IT",
    "zipcode": "98100",
    "name": "Messina",
    "region": "Sicilia",
    "short_region": "15",
    "lat": "38.193900",
    "lon": "15.552600"
  },
  {
    "id": "440265",
    "country": "IT",
    "zipcode": "98121",
    "name": "Messina",
    "region": "Sicilia",
    "short_region": "15",
    "lat": "38.193900",
    "lon": "15.552600"
  },
  {
    "id": "440266",
    "country": "IT",
    "zipcode": "98122",
    "name": "Messina",
    "region": "Sicilia",
    "short_region": "15",
    "lat": "38.193900",
    "lon": "15.552600"
  },
  {
    "id": "440267",
    "country": "IT",
    "zipcode": "98123",
    "name": "Messina",
    "region": "Sicilia",
    "short_region": "15",
    "lat": "38.193900",
    "lon": "15.552600"
  },
  {
    "id": "440268",
    "country": "IT",
    "zipcode": "98124",
    "name": "Messina",
    "region": "Sicilia",
    "short_region": "15",
    "lat": "38.193900",
    "lon": "15.552600"
  },
  {
    "id": "440269",
    "country": "IT",
    "zipcode": "98124",
    "name": "Gazzi",
    "region": "Sicilia",
    "short_region": "15",
    "lat": "38.166700",
    "lon": "15.550000"
  },
  {
    "id": "440270",
    "country": "IT",
    "zipcode": "98125",
    "name": "Contesse",
    "region": "Sicilia",
    "short_region": "15",
    "lat": "38.186600",
    "lon": "15.547800"
  },
  {
    "id": "440271",
    "country": "IT",
    "zipcode": "98125",
    "name": "Messina",
    "region": "Sicilia",
    "short_region": "15",
    "lat": "38.193900",
    "lon": "15.552600"
  },
  {
    "id": "440272",
    "country": "IT",
    "zipcode": "98126",
    "name": "Messina",
    "region": "Sicilia",
    "short_region": "15",
    "lat": "38.193900",
    "lon": "15.552600"
  },
  {
    "id": "440273",
    "country": "IT",
    "zipcode": "98126",
    "name": "Santa Lucia Sopra Contesse",
    "region": "Sicilia",
    "short_region": "15",
    "lat": "38.193900",
    "lon": "15.552600"
  },
  {
    "id": "440274",
    "country": "IT",
    "zipcode": "98127",
    "name": "Zafferia",
    "region": "Sicilia",
    "short_region": "15",
    "lat": "38.186600",
    "lon": "15.547800"
  },
  {
    "id": "440275",
    "country": "IT",
    "zipcode": "98127",
    "name": "Messina",
    "region": "Sicilia",
    "short_region": "15",
    "lat": "38.193900",
    "lon": "15.552600"
  },
  {
    "id": "440276",
    "country": "IT",
    "zipcode": "98128",
    "name": "Messina",
    "region": "Sicilia",
    "short_region": "15",
    "lat": "38.193900",
    "lon": "15.552600"
  },
  {
    "id": "440277",
    "country": "IT",
    "zipcode": "98128",
    "name": "Tremestieri",
    "region": "Sicilia",
    "short_region": "15",
    "lat": "38.186600",
    "lon": "15.547800"
  },
  {
    "id": "440278",
    "country": "IT",
    "zipcode": "98129",
    "name": "Larderia",
    "region": "Sicilia",
    "short_region": "15",
    "lat": "38.141000",
    "lon": "15.502900"
  },
  {
    "id": "440279",
    "country": "IT",
    "zipcode": "98129",
    "name": "Messina",
    "region": "Sicilia",
    "short_region": "15",
    "lat": "38.193900",
    "lon": "15.552600"
  },
  {
    "id": "440280",
    "country": "IT",
    "zipcode": "98130",
    "name": "Messina",
    "region": "Sicilia",
    "short_region": "15",
    "lat": "38.193900",
    "lon": "15.552600"
  },
  {
    "id": "440281",
    "country": "IT",
    "zipcode": "98131",
    "name": "Mili Marina",
    "region": "Sicilia",
    "short_region": "15",
    "lat": "38.116700",
    "lon": "15.516700"
  },
  {
    "id": "440282",
    "country": "IT",
    "zipcode": "98131",
    "name": "Messina",
    "region": "Sicilia",
    "short_region": "15",
    "lat": "38.193900",
    "lon": "15.552600"
  },
  {
    "id": "440283",
    "country": "IT",
    "zipcode": "98132",
    "name": "Messina",
    "region": "Sicilia",
    "short_region": "15",
    "lat": "38.193900",
    "lon": "15.552600"
  },
  {
    "id": "440284",
    "country": "IT",
    "zipcode": "98132",
    "name": "Mili San Marco",
    "region": "Sicilia",
    "short_region": "15",
    "lat": "38.116700",
    "lon": "15.500000"
  },
  {
    "id": "440285",
    "country": "IT",
    "zipcode": "98132",
    "name": "Mili Marina",
    "region": "Sicilia",
    "short_region": "15",
    "lat": "38.116700",
    "lon": "15.516700"
  },
  {
    "id": "440286",
    "country": "IT",
    "zipcode": "98133",
    "name": "Mili Superiore",
    "region": "Sicilia",
    "short_region": "15",
    "lat": "38.139400",
    "lon": "15.515600"
  },
  {
    "id": "440287",
    "country": "IT",
    "zipcode": "98133",
    "name": "Messina",
    "region": "Sicilia",
    "short_region": "15",
    "lat": "38.193900",
    "lon": "15.552600"
  },
  {
    "id": "440288",
    "country": "IT",
    "zipcode": "98134",
    "name": "Galati Marina",
    "region": "Sicilia",
    "short_region": "15",
    "lat": "38.100000",
    "lon": "15.500000"
  },
  {
    "id": "440289",
    "country": "IT",
    "zipcode": "98134",
    "name": "Messina",
    "region": "Sicilia",
    "short_region": "15",
    "lat": "38.193900",
    "lon": "15.552600"
  },
  {
    "id": "440290",
    "country": "IT",
    "zipcode": "98135",
    "name": "Messina",
    "region": "Sicilia",
    "short_region": "15",
    "lat": "38.193900",
    "lon": "15.552600"
  },
  {
    "id": "440291",
    "country": "IT",
    "zipcode": "98135",
    "name": "Santa Margherita",
    "region": "Sicilia",
    "short_region": "15",
    "lat": "37.911400",
    "lon": "15.344100"
  },
  {
    "id": "440292",
    "country": "IT",
    "zipcode": "98135",
    "name": "Santo Stefano Medio",
    "region": "Sicilia",
    "short_region": "15",
    "lat": "38.052700",
    "lon": "15.448300"
  },
  {
    "id": "440293",
    "country": "IT",
    "zipcode": "98136",
    "name": "Santo Stefano Medio",
    "region": "Sicilia",
    "short_region": "15",
    "lat": "38.193900",
    "lon": "15.552600"
  },
  {
    "id": "440294",
    "country": "IT",
    "zipcode": "98136",
    "name": "Messina",
    "region": "Sicilia",
    "short_region": "15",
    "lat": "38.193900",
    "lon": "15.552600"
  },
  {
    "id": "440295",
    "country": "IT",
    "zipcode": "98137",
    "name": "Santo Stefano Di Briga",
    "region": "Sicilia",
    "short_region": "15",
    "lat": "38.100000",
    "lon": "15.483300"
  },
  {
    "id": "440296",
    "country": "IT",
    "zipcode": "98137",
    "name": "Messina",
    "region": "Sicilia",
    "short_region": "15",
    "lat": "38.193900",
    "lon": "15.552600"
  },
  {
    "id": "440297",
    "country": "IT",
    "zipcode": "98138",
    "name": "Messina",
    "region": "Sicilia",
    "short_region": "15",
    "lat": "38.193900",
    "lon": "15.552600"
  },
  {
    "id": "440298",
    "country": "IT",
    "zipcode": "98138",
    "name": "Pezzolo",
    "region": "Sicilia",
    "short_region": "15",
    "lat": "38.085300",
    "lon": "15.458400"
  },
  {
    "id": "440299",
    "country": "IT",
    "zipcode": "98139",
    "name": "Briga Marina",
    "region": "Sicilia",
    "short_region": "15",
    "lat": "38.136200",
    "lon": "15.512700"
  },
  {
    "id": "440300",
    "country": "IT",
    "zipcode": "98139",
    "name": "San Placido Calonero'",
    "region": "Sicilia",
    "short_region": "15",
    "lat": "38.136200",
    "lon": "15.512700"
  },
  {
    "id": "440301",
    "country": "IT",
    "zipcode": "98139",
    "name": "Briga",
    "region": "Sicilia",
    "short_region": "15",
    "lat": "38.078400",
    "lon": "15.472900"
  },
  {
    "id": "440302",
    "country": "IT",
    "zipcode": "98139",
    "name": "Messina",
    "region": "Sicilia",
    "short_region": "15",
    "lat": "38.193900",
    "lon": "15.552600"
  },
  {
    "id": "440303",
    "country": "IT",
    "zipcode": "98140",
    "name": "Messina",
    "region": "Sicilia",
    "short_region": "15",
    "lat": "38.193900",
    "lon": "15.552600"
  },
  {
    "id": "440304",
    "country": "IT",
    "zipcode": "98141",
    "name": "Giampilieri Marina",
    "region": "Sicilia",
    "short_region": "15",
    "lat": "38.180500",
    "lon": "15.523400"
  },
  {
    "id": "440305",
    "country": "IT",
    "zipcode": "98141",
    "name": "Messina",
    "region": "Sicilia",
    "short_region": "15",
    "lat": "38.193900",
    "lon": "15.552600"
  },
  {
    "id": "440306",
    "country": "IT",
    "zipcode": "98142",
    "name": "Messina",
    "region": "Sicilia",
    "short_region": "15",
    "lat": "38.193900",
    "lon": "15.552600"
  },
  {
    "id": "440307",
    "country": "IT",
    "zipcode": "98142",
    "name": "Giampilieri",
    "region": "Sicilia",
    "short_region": "15",
    "lat": "38.068200",
    "lon": "15.469900"
  },
  {
    "id": "440308",
    "country": "IT",
    "zipcode": "98142",
    "name": "San Filippo Inferiore",
    "region": "Sicilia",
    "short_region": "15",
    "lat": "38.162800",
    "lon": "15.510800"
  },
  {
    "id": "440309",
    "country": "IT",
    "zipcode": "98143",
    "name": "Molino",
    "region": "Sicilia",
    "short_region": "15",
    "lat": "38.074700",
    "lon": "15.455200"
  },
  {
    "id": "440310",
    "country": "IT",
    "zipcode": "98143",
    "name": "Altolia",
    "region": "Sicilia",
    "short_region": "15",
    "lat": "38.076200",
    "lon": "15.446000"
  },
  {
    "id": "440311",
    "country": "IT",
    "zipcode": "98143",
    "name": "Messina",
    "region": "Sicilia",
    "short_region": "15",
    "lat": "38.193900",
    "lon": "15.552600"
  },
  {
    "id": "440312",
    "country": "IT",
    "zipcode": "98144",
    "name": "Messina",
    "region": "Sicilia",
    "short_region": "15",
    "lat": "38.193900",
    "lon": "15.552600"
  },
  {
    "id": "440313",
    "country": "IT",
    "zipcode": "98144",
    "name": "San Filippo",
    "region": "Sicilia",
    "short_region": "15",
    "lat": "38.279600",
    "lon": "15.505200"
  },
  {
    "id": "440314",
    "country": "IT",
    "zipcode": "98145",
    "name": "Bordonaro",
    "region": "Sicilia",
    "short_region": "15",
    "lat": "38.183300",
    "lon": "15.516700"
  },
  {
    "id": "440315",
    "country": "IT",
    "zipcode": "98145",
    "name": "Messina",
    "region": "Sicilia",
    "short_region": "15",
    "lat": "38.193900",
    "lon": "15.552600"
  },
  {
    "id": "440316",
    "country": "IT",
    "zipcode": "98145",
    "name": "San Filippo",
    "region": "Sicilia",
    "short_region": "15",
    "lat": "38.279600",
    "lon": "15.505200"
  },
  {
    "id": "440317",
    "country": "IT",
    "zipcode": "98146",
    "name": "Messina",
    "region": "Sicilia",
    "short_region": "15",
    "lat": "38.193900",
    "lon": "15.552600"
  },
  {
    "id": "440318",
    "country": "IT",
    "zipcode": "98146",
    "name": "Cumia",
    "region": "Sicilia",
    "short_region": "15",
    "lat": "38.173500",
    "lon": "15.503400"
  },
  {
    "id": "440319",
    "country": "IT",
    "zipcode": "98146",
    "name": "Santo",
    "region": "Sicilia",
    "short_region": "15",
    "lat": "38.183300",
    "lon": "15.533300"
  },
  {
    "id": "440320",
    "country": "IT",
    "zipcode": "98147",
    "name": "Messina",
    "region": "Sicilia",
    "short_region": "15",
    "lat": "38.193900",
    "lon": "15.552600"
  },
  {
    "id": "440321",
    "country": "IT",
    "zipcode": "98147",
    "name": "Villaggio Aldisio",
    "region": "Sicilia",
    "short_region": "15",
    "lat": "38.180500",
    "lon": "15.523400"
  },
  {
    "id": "440322",
    "country": "IT",
    "zipcode": "98148",
    "name": "Messina",
    "region": "Sicilia",
    "short_region": "15",
    "lat": "38.193900",
    "lon": "15.552600"
  },
  {
    "id": "440323",
    "country": "IT",
    "zipcode": "98148",
    "name": "Santo",
    "region": "Sicilia",
    "short_region": "15",
    "lat": "38.183300",
    "lon": "15.533300"
  },
  {
    "id": "440324",
    "country": "IT",
    "zipcode": "98149",
    "name": "Messina",
    "region": "Sicilia",
    "short_region": "15",
    "lat": "38.193900",
    "lon": "15.552600"
  },
  {
    "id": "440325",
    "country": "IT",
    "zipcode": "98149",
    "name": "Camaro Inferiore",
    "region": "Sicilia",
    "short_region": "15",
    "lat": "38.180500",
    "lon": "15.523400"
  },
  {
    "id": "440326",
    "country": "IT",
    "zipcode": "98149",
    "name": "Cataratti",
    "region": "Sicilia",
    "short_region": "15",
    "lat": "38.197000",
    "lon": "15.534600"
  },
  {
    "id": "440327",
    "country": "IT",
    "zipcode": "98149",
    "name": "Camaro",
    "region": "Sicilia",
    "short_region": "15",
    "lat": "38.200000",
    "lon": "15.516700"
  },
  {
    "id": "440328",
    "country": "IT",
    "zipcode": "98150",
    "name": "Messina",
    "region": "Sicilia",
    "short_region": "15",
    "lat": "38.193900",
    "lon": "15.552600"
  },
  {
    "id": "440329",
    "country": "IT",
    "zipcode": "98151",
    "name": "Camaro",
    "region": "Sicilia",
    "short_region": "15",
    "lat": "38.200000",
    "lon": "15.516700"
  },
  {
    "id": "440330",
    "country": "IT",
    "zipcode": "98151",
    "name": "Messina",
    "region": "Sicilia",
    "short_region": "15",
    "lat": "38.193900",
    "lon": "15.552600"
  },
  {
    "id": "440331",
    "country": "IT",
    "zipcode": "98152",
    "name": "Scala Ritiro",
    "region": "Sicilia",
    "short_region": "15",
    "lat": "38.216700",
    "lon": "15.533300"
  },
  {
    "id": "440332",
    "country": "IT",
    "zipcode": "98152",
    "name": "Messina",
    "region": "Sicilia",
    "short_region": "15",
    "lat": "38.193900",
    "lon": "15.552600"
  },
  {
    "id": "440333",
    "country": "IT",
    "zipcode": "98152",
    "name": "San Michele",
    "region": "Sicilia",
    "short_region": "15",
    "lat": "38.038500",
    "lon": "14.943500"
  },
  {
    "id": "440334",
    "country": "IT",
    "zipcode": "98153",
    "name": "Gesso",
    "region": "Sicilia",
    "short_region": "15",
    "lat": "38.235300",
    "lon": "15.468700"
  },
  {
    "id": "440335",
    "country": "IT",
    "zipcode": "98153",
    "name": "Messina",
    "region": "Sicilia",
    "short_region": "15",
    "lat": "38.193900",
    "lon": "15.552600"
  },
  {
    "id": "440336",
    "country": "IT",
    "zipcode": "98154",
    "name": "Salice",
    "region": "Sicilia",
    "short_region": "15",
    "lat": "38.249900",
    "lon": "15.495900"
  },
  {
    "id": "440337",
    "country": "IT",
    "zipcode": "98154",
    "name": "Messina",
    "region": "Sicilia",
    "short_region": "15",
    "lat": "38.193900",
    "lon": "15.552600"
  },
  {
    "id": "440338",
    "country": "IT",
    "zipcode": "98154",
    "name": "Salice Calabro",
    "region": "Sicilia",
    "short_region": "15",
    "lat": "38.221900",
    "lon": "15.524200"
  },
  {
    "id": "440339",
    "country": "IT",
    "zipcode": "98155",
    "name": "Castanea",
    "region": "Sicilia",
    "short_region": "15",
    "lat": "38.261600",
    "lon": "15.521800"
  },
  {
    "id": "440340",
    "country": "IT",
    "zipcode": "98155",
    "name": "Castanea Delle Furie",
    "region": "Sicilia",
    "short_region": "15",
    "lat": "38.261600",
    "lon": "15.521800"
  },
  {
    "id": "440341",
    "country": "IT",
    "zipcode": "98155",
    "name": "Messina",
    "region": "Sicilia",
    "short_region": "15",
    "lat": "38.193900",
    "lon": "15.552600"
  },
  {
    "id": "440342",
    "country": "IT",
    "zipcode": "98156",
    "name": "Messina",
    "region": "Sicilia",
    "short_region": "15",
    "lat": "38.193900",
    "lon": "15.552600"
  },
  {
    "id": "440343",
    "country": "IT",
    "zipcode": "98156",
    "name": "Massa San Giorgio",
    "region": "Sicilia",
    "short_region": "15",
    "lat": "38.274400",
    "lon": "15.536700"
  },
  {
    "id": "440344",
    "country": "IT",
    "zipcode": "98157",
    "name": "Messina",
    "region": "Sicilia",
    "short_region": "15",
    "lat": "38.193900",
    "lon": "15.552600"
  },
  {
    "id": "440345",
    "country": "IT",
    "zipcode": "98157",
    "name": "Massa Santa Lucia",
    "region": "Sicilia",
    "short_region": "15",
    "lat": "38.269800",
    "lon": "15.549100"
  },
  {
    "id": "440346",
    "country": "IT",
    "zipcode": "98157",
    "name": "Massa San Giovanni",
    "region": "Sicilia",
    "short_region": "15",
    "lat": "38.265400",
    "lon": "15.544400"
  },
  {
    "id": "440347",
    "country": "IT",
    "zipcode": "98158",
    "name": "Faro Superiore",
    "region": "Sicilia",
    "short_region": "15",
    "lat": "38.267900",
    "lon": "15.582700"
  },
  {
    "id": "440348",
    "country": "IT",
    "zipcode": "98158",
    "name": "Messina",
    "region": "Sicilia",
    "short_region": "15",
    "lat": "38.193900",
    "lon": "15.552600"
  },
  {
    "id": "440349",
    "country": "IT",
    "zipcode": "98159",
    "name": "Messina",
    "region": "Sicilia",
    "short_region": "15",
    "lat": "38.193900",
    "lon": "15.552600"
  },
  {
    "id": "440350",
    "country": "IT",
    "zipcode": "98159",
    "name": "Liuzzo Orto",
    "region": "Sicilia",
    "short_region": "15",
    "lat": "38.254900",
    "lon": "15.458200"
  },
  {
    "id": "440351",
    "country": "IT",
    "zipcode": "98160",
    "name": "Messina",
    "region": "Sicilia",
    "short_region": "15",
    "lat": "38.193900",
    "lon": "15.552600"
  },
  {
    "id": "440352",
    "country": "IT",
    "zipcode": "98161",
    "name": "Rodia",
    "region": "Sicilia",
    "short_region": "15",
    "lat": "38.273200",
    "lon": "15.485500"
  },
  {
    "id": "440353",
    "country": "IT",
    "zipcode": "98161",
    "name": "Messina",
    "region": "Sicilia",
    "short_region": "15",
    "lat": "38.193900",
    "lon": "15.552600"
  },
  {
    "id": "440354",
    "country": "IT",
    "zipcode": "98162",
    "name": "Messina",
    "region": "Sicilia",
    "short_region": "15",
    "lat": "38.193900",
    "lon": "15.552600"
  },
  {
    "id": "440355",
    "country": "IT",
    "zipcode": "98162",
    "name": "San Saba",
    "region": "Sicilia",
    "short_region": "15",
    "lat": "38.219900",
    "lon": "15.557600"
  },
  {
    "id": "440356",
    "country": "IT",
    "zipcode": "98163",
    "name": "Sparta'",
    "region": "Sicilia",
    "short_region": "15",
    "lat": "38.293700",
    "lon": "15.535000"
  },
  {
    "id": "440357",
    "country": "IT",
    "zipcode": "98163",
    "name": "Messina",
    "region": "Sicilia",
    "short_region": "15",
    "lat": "38.193900",
    "lon": "15.552600"
  },
  {
    "id": "440358",
    "country": "IT",
    "zipcode": "98164",
    "name": "Torre Faro",
    "region": "Sicilia",
    "short_region": "15",
    "lat": "38.266700",
    "lon": "15.650000"
  },
  {
    "id": "440359",
    "country": "IT",
    "zipcode": "98164",
    "name": "Messina",
    "region": "Sicilia",
    "short_region": "15",
    "lat": "38.193900",
    "lon": "15.552600"
  },
  {
    "id": "440360",
    "country": "IT",
    "zipcode": "98164",
    "name": "Lido Di Mortelle",
    "region": "Sicilia",
    "short_region": "15",
    "lat": "38.230300",
    "lon": "15.601300"
  },
  {
    "id": "440361",
    "country": "IT",
    "zipcode": "98165",
    "name": "Ganzirri",
    "region": "Sicilia",
    "short_region": "15",
    "lat": "38.219900",
    "lon": "15.557600"
  },
  {
    "id": "440362",
    "country": "IT",
    "zipcode": "98165",
    "name": "Messina",
    "region": "Sicilia",
    "short_region": "15",
    "lat": "38.193900",
    "lon": "15.552600"
  },
  {
    "id": "440363",
    "country": "IT",
    "zipcode": "98166",
    "name": "Messina",
    "region": "Sicilia",
    "short_region": "15",
    "lat": "38.193900",
    "lon": "15.552600"
  },
  {
    "id": "440364",
    "country": "IT",
    "zipcode": "98166",
    "name": "Sant'Agata",
    "region": "Sicilia",
    "short_region": "15",
    "lat": "38.254300",
    "lon": "15.600100"
  },
  {
    "id": "440365",
    "country": "IT",
    "zipcode": "98167",
    "name": "Messina",
    "region": "Sicilia",
    "short_region": "15",
    "lat": "38.193900",
    "lon": "15.552600"
  },
  {
    "id": "440366",
    "country": "IT",
    "zipcode": "98167",
    "name": "Pace",
    "region": "Sicilia",
    "short_region": "15",
    "lat": "38.219900",
    "lon": "15.557600"
  },
  {
    "id": "440367",
    "country": "IT",
    "zipcode": "98168",
    "name": "Villaggio Paradiso",
    "region": "Sicilia",
    "short_region": "15",
    "lat": "38.193900",
    "lon": "15.552600"
  },
  {
    "id": "440368",
    "country": "IT",
    "zipcode": "98168",
    "name": "Pace",
    "region": "Sicilia",
    "short_region": "15",
    "lat": "38.193900",
    "lon": "15.552600"
  },
  {
    "id": "440369",
    "country": "IT",
    "zipcode": "98168",
    "name": "Contemplazione",
    "region": "Sicilia",
    "short_region": "15",
    "lat": "38.219900",
    "lon": "15.557600"
  },
  {
    "id": "440370",
    "country": "IT",
    "zipcode": "98168",
    "name": "Villaggio Annunziata",
    "region": "Sicilia",
    "short_region": "15",
    "lat": "38.193900",
    "lon": "15.552600"
  },
  {
    "id": "440371",
    "country": "IT",
    "zipcode": "98168",
    "name": "Messina",
    "region": "Sicilia",
    "short_region": "15",
    "lat": "38.193900",
    "lon": "15.552600"
  },
  {
    "id": "440372",
    "country": "IT",
    "zipcode": "90010",
    "name": "Ustica",
    "region": "Sicilia",
    "short_region": "15",
    "lat": "37.975000",
    "lon": "13.934200"
  },
  {
    "id": "440373",
    "country": "IT",
    "zipcode": "90010",
    "name": "Campofelice Di Roccella",
    "region": "Sicilia",
    "short_region": "15",
    "lat": "37.992700",
    "lon": "13.876500"
  },
  {
    "id": "440374",
    "country": "IT",
    "zipcode": "90010",
    "name": "Pollina",
    "region": "Sicilia",
    "short_region": "15",
    "lat": "37.993100",
    "lon": "14.145900"
  },
  {
    "id": "440375",
    "country": "IT",
    "zipcode": "90010",
    "name": "San Mauro Castelverde",
    "region": "Sicilia",
    "short_region": "15",
    "lat": "37.914800",
    "lon": "14.189600"
  },
  {
    "id": "440376",
    "country": "IT",
    "zipcode": "90010",
    "name": "Gratteri",
    "region": "Sicilia",
    "short_region": "15",
    "lat": "37.966100",
    "lon": "13.973100"
  },
  {
    "id": "440377",
    "country": "IT",
    "zipcode": "90010",
    "name": "Cerda",
    "region": "Sicilia",
    "short_region": "15",
    "lat": "37.905800",
    "lon": "13.815000"
  },
  {
    "id": "440378",
    "country": "IT",
    "zipcode": "90010",
    "name": "Borrello Di San Mauro Castelverde",
    "region": "Sicilia",
    "short_region": "15",
    "lat": "37.975000",
    "lon": "13.934200"
  },
  {
    "id": "440379",
    "country": "IT",
    "zipcode": "90010",
    "name": "Finale",
    "region": "Sicilia",
    "short_region": "15",
    "lat": "38.018900",
    "lon": "14.161500"
  },
  {
    "id": "440380",
    "country": "IT",
    "zipcode": "90010",
    "name": "Lascari Scalo",
    "region": "Sicilia",
    "short_region": "15",
    "lat": "37.975000",
    "lon": "13.934200"
  },
  {
    "id": "440381",
    "country": "IT",
    "zipcode": "90010",
    "name": "Lascari",
    "region": "Sicilia",
    "short_region": "15",
    "lat": "38.000700",
    "lon": "13.940500"
  },
  {
    "id": "440382",
    "country": "IT",
    "zipcode": "90010",
    "name": "Geraci Siculo",
    "region": "Sicilia",
    "short_region": "15",
    "lat": "37.859000",
    "lon": "14.153300"
  },
  {
    "id": "440383",
    "country": "IT",
    "zipcode": "90010",
    "name": "Torre Normanna",
    "region": "Sicilia",
    "short_region": "15",
    "lat": "37.975000",
    "lon": "13.934200"
  },
  {
    "id": "440384",
    "country": "IT",
    "zipcode": "90010",
    "name": "Altavilla Milicia",
    "region": "Sicilia",
    "short_region": "15",
    "lat": "38.038000",
    "lon": "13.549500"
  },
  {
    "id": "440385",
    "country": "IT",
    "zipcode": "90010",
    "name": "Ficarazzi",
    "region": "Sicilia",
    "short_region": "15",
    "lat": "38.092300",
    "lon": "13.463900"
  },
  {
    "id": "440386",
    "country": "IT",
    "zipcode": "90010",
    "name": "Isnello",
    "region": "Sicilia",
    "short_region": "15",
    "lat": "37.943200",
    "lon": "14.007200"
  },
  {
    "id": "440387",
    "country": "IT",
    "zipcode": "90011",
    "name": "Aspra",
    "region": "Sicilia",
    "short_region": "15",
    "lat": "38.104900",
    "lon": "13.501800"
  },
  {
    "id": "440388",
    "country": "IT",
    "zipcode": "90011",
    "name": "Bagheria",
    "region": "Sicilia",
    "short_region": "15",
    "lat": "38.078900",
    "lon": "13.512400"
  },
  {
    "id": "440389",
    "country": "IT",
    "zipcode": "90012",
    "name": "San Giovanni Li Greci",
    "region": "Sicilia",
    "short_region": "15",
    "lat": "37.901700",
    "lon": "13.652500"
  },
  {
    "id": "440390",
    "country": "IT",
    "zipcode": "90012",
    "name": "Caccamo",
    "region": "Sicilia",
    "short_region": "15",
    "lat": "37.933600",
    "lon": "13.668100"
  },
  {
    "id": "440391",
    "country": "IT",
    "zipcode": "90012",
    "name": "Sambuchi",
    "region": "Sicilia",
    "short_region": "15",
    "lat": "37.869700",
    "lon": "13.636900"
  },
  {
    "id": "440392",
    "country": "IT",
    "zipcode": "90013",
    "name": "Castelbuono",
    "region": "Sicilia",
    "short_region": "15",
    "lat": "37.925300",
    "lon": "14.086700"
  },
  {
    "id": "440393",
    "country": "IT",
    "zipcode": "90014",
    "name": "Casteldaccia",
    "region": "Sicilia",
    "short_region": "15",
    "lat": "38.051200",
    "lon": "13.530400"
  },
  {
    "id": "440394",
    "country": "IT",
    "zipcode": "90015",
    "name": "Gibilmanna",
    "region": "Sicilia",
    "short_region": "15",
    "lat": "37.986500",
    "lon": "14.018000"
  },
  {
    "id": "440395",
    "country": "IT",
    "zipcode": "90015",
    "name": "Sant'Ambrogio",
    "region": "Sicilia",
    "short_region": "15",
    "lat": "38.018700",
    "lon": "14.087800"
  },
  {
    "id": "440396",
    "country": "IT",
    "zipcode": "90015",
    "name": "Cefalu'",
    "region": "Sicilia",
    "short_region": "15",
    "lat": "38.038600",
    "lon": "14.022800"
  },
  {
    "id": "440397",
    "country": "IT",
    "zipcode": "90016",
    "name": "Collesano",
    "region": "Sicilia",
    "short_region": "15",
    "lat": "37.918100",
    "lon": "13.937000"
  },
  {
    "id": "440398",
    "country": "IT",
    "zipcode": "90017",
    "name": "Santa Flavia",
    "region": "Sicilia",
    "short_region": "15",
    "lat": "38.104500",
    "lon": "13.533400"
  },
  {
    "id": "440399",
    "country": "IT",
    "zipcode": "90017",
    "name": "Sant'Elia",
    "region": "Sicilia",
    "short_region": "15",
    "lat": "38.096400",
    "lon": "13.537600"
  },
  {
    "id": "440400",
    "country": "IT",
    "zipcode": "90017",
    "name": "Porticello",
    "region": "Sicilia",
    "short_region": "15",
    "lat": "38.086300",
    "lon": "13.535000"
  },
  {
    "id": "440401",
    "country": "IT",
    "zipcode": "90018",
    "name": "Termini Imerese",
    "region": "Sicilia",
    "short_region": "15",
    "lat": "37.982300",
    "lon": "13.697300"
  },
  {
    "id": "440402",
    "country": "IT",
    "zipcode": "90018",
    "name": "Danigarci",
    "region": "Sicilia",
    "short_region": "15",
    "lat": "37.982300",
    "lon": "13.697300"
  },
  {
    "id": "440403",
    "country": "IT",
    "zipcode": "90019",
    "name": "San Nicolo' L'Arena",
    "region": "Sicilia",
    "short_region": "15",
    "lat": "38.004200",
    "lon": "13.633900"
  },
  {
    "id": "440404",
    "country": "IT",
    "zipcode": "90019",
    "name": "Trabia",
    "region": "Sicilia",
    "short_region": "15",
    "lat": "38.004200",
    "lon": "13.633900"
  },
  {
    "id": "440405",
    "country": "IT",
    "zipcode": "90020",
    "name": "Vicari",
    "region": "Sicilia",
    "short_region": "15",
    "lat": "37.823700",
    "lon": "13.568900"
  },
  {
    "id": "440406",
    "country": "IT",
    "zipcode": "90020",
    "name": "Baucina",
    "region": "Sicilia",
    "short_region": "15",
    "lat": "37.925200",
    "lon": "13.536400"
  },
  {
    "id": "440407",
    "country": "IT",
    "zipcode": "90020",
    "name": "Calcarelli",
    "region": "Sicilia",
    "short_region": "15",
    "lat": "37.800000",
    "lon": "14.033300"
  },
  {
    "id": "440408",
    "country": "IT",
    "zipcode": "90020",
    "name": "Ventimiglia Di Sicilia",
    "region": "Sicilia",
    "short_region": "15",
    "lat": "37.923600",
    "lon": "13.567700"
  },
  {
    "id": "440409",
    "country": "IT",
    "zipcode": "90020",
    "name": "Sciara",
    "region": "Sicilia",
    "short_region": "15",
    "lat": "37.915100",
    "lon": "13.761800"
  },
  {
    "id": "440410",
    "country": "IT",
    "zipcode": "90020",
    "name": "Roccapalumba",
    "region": "Sicilia",
    "short_region": "15",
    "lat": "37.808200",
    "lon": "13.636700"
  },
  {
    "id": "440411",
    "country": "IT",
    "zipcode": "90020",
    "name": "Regalgioffoli",
    "region": "Sicilia",
    "short_region": "15",
    "lat": "37.820800",
    "lon": "13.637600"
  },
  {
    "id": "440412",
    "country": "IT",
    "zipcode": "90020",
    "name": "Sclafani Bagni",
    "region": "Sicilia",
    "short_region": "15",
    "lat": "37.821700",
    "lon": "13.854800"
  },
  {
    "id": "440413",
    "country": "IT",
    "zipcode": "90020",
    "name": "Aliminusa",
    "region": "Sicilia",
    "short_region": "15",
    "lat": "37.864000",
    "lon": "13.781300"
  },
  {
    "id": "440414",
    "country": "IT",
    "zipcode": "90020",
    "name": "Nociazzi",
    "region": "Sicilia",
    "short_region": "15",
    "lat": "37.805100",
    "lon": "14.038200"
  },
  {
    "id": "440415",
    "country": "IT",
    "zipcode": "90020",
    "name": "Locati",
    "region": "Sicilia",
    "short_region": "15",
    "lat": "37.733300",
    "lon": "14.083300"
  },
  {
    "id": "440416",
    "country": "IT",
    "zipcode": "90020",
    "name": "Bompietro",
    "region": "Sicilia",
    "short_region": "15",
    "lat": "37.743900",
    "lon": "14.094700"
  },
  {
    "id": "440417",
    "country": "IT",
    "zipcode": "90020",
    "name": "Castellana Sicula",
    "region": "Sicilia",
    "short_region": "15",
    "lat": "37.786900",
    "lon": "14.039100"
  },
  {
    "id": "440418",
    "country": "IT",
    "zipcode": "90020",
    "name": "Nociazzi Inferiore",
    "region": "Sicilia",
    "short_region": "15",
    "lat": "37.819000",
    "lon": "13.852300"
  },
  {
    "id": "440419",
    "country": "IT",
    "zipcode": "90020",
    "name": "Scillato",
    "region": "Sicilia",
    "short_region": "15",
    "lat": "37.857800",
    "lon": "13.906300"
  },
  {
    "id": "440420",
    "country": "IT",
    "zipcode": "90020",
    "name": "Alimena",
    "region": "Sicilia",
    "short_region": "15",
    "lat": "37.693100",
    "lon": "14.113700"
  },
  {
    "id": "440421",
    "country": "IT",
    "zipcode": "90020",
    "name": "Blufi",
    "region": "Sicilia",
    "short_region": "15",
    "lat": "37.752000",
    "lon": "14.073000"
  },
  {
    "id": "440422",
    "country": "IT",
    "zipcode": "90020",
    "name": "Montemaggiore Belsito",
    "region": "Sicilia",
    "short_region": "15",
    "lat": "37.848200",
    "lon": "13.762100"
  },
  {
    "id": "440423",
    "country": "IT",
    "zipcode": "90021",
    "name": "Alia",
    "region": "Sicilia",
    "short_region": "15",
    "lat": "37.778700",
    "lon": "13.713900"
  },
  {
    "id": "440424",
    "country": "IT",
    "zipcode": "90022",
    "name": "Caltavuturo",
    "region": "Sicilia",
    "short_region": "15",
    "lat": "37.820400",
    "lon": "13.891600"
  },
  {
    "id": "440425",
    "country": "IT",
    "zipcode": "90023",
    "name": "Ciminna",
    "region": "Sicilia",
    "short_region": "15",
    "lat": "37.897600",
    "lon": "13.559700"
  },
  {
    "id": "440426",
    "country": "IT",
    "zipcode": "90024",
    "name": "Gangi",
    "region": "Sicilia",
    "short_region": "15",
    "lat": "37.795700",
    "lon": "14.204400"
  },
  {
    "id": "440427",
    "country": "IT",
    "zipcode": "90025",
    "name": "Lercara Friddi",
    "region": "Sicilia",
    "short_region": "15",
    "lat": "37.746600",
    "lon": "13.603900"
  },
  {
    "id": "440428",
    "country": "IT",
    "zipcode": "90026",
    "name": "Pianello",
    "region": "Sicilia",
    "short_region": "15",
    "lat": "37.787100",
    "lon": "14.112400"
  },
  {
    "id": "440429",
    "country": "IT",
    "zipcode": "90026",
    "name": "Pianello Di Petralia Sottana",
    "region": "Sicilia",
    "short_region": "15",
    "lat": "37.787100",
    "lon": "14.112400"
  },
  {
    "id": "440430",
    "country": "IT",
    "zipcode": "90026",
    "name": "Raffo",
    "region": "Sicilia",
    "short_region": "15",
    "lat": "37.784600",
    "lon": "14.130900"
  },
  {
    "id": "440431",
    "country": "IT",
    "zipcode": "90026",
    "name": "Petralia Soprana",
    "region": "Sicilia",
    "short_region": "15",
    "lat": "37.800600",
    "lon": "14.108100"
  },
  {
    "id": "440432",
    "country": "IT",
    "zipcode": "90026",
    "name": "Fasano'",
    "region": "Sicilia",
    "short_region": "15",
    "lat": "37.776100",
    "lon": "14.098200"
  },
  {
    "id": "440433",
    "country": "IT",
    "zipcode": "90027",
    "name": "Petralia Sottana",
    "region": "Sicilia",
    "short_region": "15",
    "lat": "37.809200",
    "lon": "14.092900"
  },
  {
    "id": "440434",
    "country": "IT",
    "zipcode": "90028",
    "name": "Polizzi Generosa",
    "region": "Sicilia",
    "short_region": "15",
    "lat": "37.811600",
    "lon": "14.002700"
  },
  {
    "id": "440435",
    "country": "IT",
    "zipcode": "90029",
    "name": "Valledolmo",
    "region": "Sicilia",
    "short_region": "15",
    "lat": "37.747000",
    "lon": "13.828100"
  },
  {
    "id": "440436",
    "country": "IT",
    "zipcode": "90030",
    "name": "Campofiorito",
    "region": "Sicilia",
    "short_region": "15",
    "lat": "37.753700",
    "lon": "13.268700"
  },
  {
    "id": "440437",
    "country": "IT",
    "zipcode": "90030",
    "name": "Godrano",
    "region": "Sicilia",
    "short_region": "15",
    "lat": "37.903100",
    "lon": "13.428200"
  },
  {
    "id": "440438",
    "country": "IT",
    "zipcode": "90030",
    "name": "Santa Cristina Gela",
    "region": "Sicilia",
    "short_region": "15",
    "lat": "37.985100",
    "lon": "13.327500"
  },
  {
    "id": "440439",
    "country": "IT",
    "zipcode": "90030",
    "name": "Giuliana",
    "region": "Sicilia",
    "short_region": "15",
    "lat": "37.672800",
    "lon": "13.237400"
  },
  {
    "id": "440440",
    "country": "IT",
    "zipcode": "90030",
    "name": "Cefala' Diana",
    "region": "Sicilia",
    "short_region": "15",
    "lat": "37.915600",
    "lon": "13.463300"
  },
  {
    "id": "440441",
    "country": "IT",
    "zipcode": "90030",
    "name": "Mezzojuso",
    "region": "Sicilia",
    "short_region": "15",
    "lat": "37.865100",
    "lon": "13.465100"
  },
  {
    "id": "440442",
    "country": "IT",
    "zipcode": "90030",
    "name": "Castronuovo Di Sicilia",
    "region": "Sicilia",
    "short_region": "15",
    "lat": "37.678900",
    "lon": "13.603500"
  },
  {
    "id": "440443",
    "country": "IT",
    "zipcode": "90030",
    "name": "Bolognetta",
    "region": "Sicilia",
    "short_region": "15",
    "lat": "37.971200",
    "lon": "13.456300"
  },
  {
    "id": "440444",
    "country": "IT",
    "zipcode": "90030",
    "name": "Piano Maglio",
    "region": "Sicilia",
    "short_region": "15",
    "lat": "38.057900",
    "lon": "13.309100"
  },
  {
    "id": "440445",
    "country": "IT",
    "zipcode": "90030",
    "name": "Palazzo Adriano",
    "region": "Sicilia",
    "short_region": "15",
    "lat": "37.680700",
    "lon": "13.379400"
  },
  {
    "id": "440446",
    "country": "IT",
    "zipcode": "90030",
    "name": "Blandino",
    "region": "Sicilia",
    "short_region": "15",
    "lat": "38.057900",
    "lon": "13.309100"
  },
  {
    "id": "440447",
    "country": "IT",
    "zipcode": "90030",
    "name": "Contessa Entellina",
    "region": "Sicilia",
    "short_region": "15",
    "lat": "37.730100",
    "lon": "13.184300"
  },
  {
    "id": "440448",
    "country": "IT",
    "zipcode": "90030",
    "name": "Altofonte",
    "region": "Sicilia",
    "short_region": "15",
    "lat": "38.043000",
    "lon": "13.294300"
  },
  {
    "id": "440449",
    "country": "IT",
    "zipcode": "90030",
    "name": "Villafrati",
    "region": "Sicilia",
    "short_region": "15",
    "lat": "37.906500",
    "lon": "13.484900"
  },
  {
    "id": "440450",
    "country": "IT",
    "zipcode": "90030",
    "name": "Campofelice Di Fitalia",
    "region": "Sicilia",
    "short_region": "15",
    "lat": "37.826900",
    "lon": "13.485700"
  },
  {
    "id": "440451",
    "country": "IT",
    "zipcode": "90031",
    "name": "Belmonte Mezzagno",
    "region": "Sicilia",
    "short_region": "15",
    "lat": "38.046500",
    "lon": "13.392100"
  },
  {
    "id": "440452",
    "country": "IT",
    "zipcode": "90032",
    "name": "Bisacquino",
    "region": "Sicilia",
    "short_region": "15",
    "lat": "37.703500",
    "lon": "13.260500"
  },
  {
    "id": "440453",
    "country": "IT",
    "zipcode": "90033",
    "name": "Chiusa Sclafani",
    "region": "Sicilia",
    "short_region": "15",
    "lat": "37.676900",
    "lon": "13.270700"
  },
  {
    "id": "440454",
    "country": "IT",
    "zipcode": "90033",
    "name": "San Carlo",
    "region": "Sicilia",
    "short_region": "15",
    "lat": "37.624400",
    "lon": "13.253100"
  },
  {
    "id": "440455",
    "country": "IT",
    "zipcode": "90034",
    "name": "Corleone",
    "region": "Sicilia",
    "short_region": "15",
    "lat": "37.813400",
    "lon": "13.301700"
  },
  {
    "id": "440456",
    "country": "IT",
    "zipcode": "90034",
    "name": "Ficuzza",
    "region": "Sicilia",
    "short_region": "15",
    "lat": "37.884900",
    "lon": "13.375400"
  },
  {
    "id": "440457",
    "country": "IT",
    "zipcode": "90035",
    "name": "Marineo",
    "region": "Sicilia",
    "short_region": "15",
    "lat": "37.951900",
    "lon": "13.417800"
  },
  {
    "id": "440458",
    "country": "IT",
    "zipcode": "90036",
    "name": "Portella Di Mare",
    "region": "Sicilia",
    "short_region": "15",
    "lat": "38.073000",
    "lon": "13.462000"
  },
  {
    "id": "440459",
    "country": "IT",
    "zipcode": "90036",
    "name": "Misilmeri",
    "region": "Sicilia",
    "short_region": "15",
    "lat": "38.031800",
    "lon": "13.448000"
  },
  {
    "id": "440460",
    "country": "IT",
    "zipcode": "90037",
    "name": "Piana Degli Albanesi",
    "region": "Sicilia",
    "short_region": "15",
    "lat": "37.993700",
    "lon": "13.284600"
  },
  {
    "id": "440461",
    "country": "IT",
    "zipcode": "90038",
    "name": "Prizzi",
    "region": "Sicilia",
    "short_region": "15",
    "lat": "37.720900",
    "lon": "13.434400"
  },
  {
    "id": "440462",
    "country": "IT",
    "zipcode": "90038",
    "name": "Filaga",
    "region": "Sicilia",
    "short_region": "15",
    "lat": "37.693400",
    "lon": "13.467600"
  },
  {
    "id": "440463",
    "country": "IT",
    "zipcode": "90039",
    "name": "Villabate",
    "region": "Sicilia",
    "short_region": "15",
    "lat": "38.077900",
    "lon": "13.442800"
  },
  {
    "id": "440464",
    "country": "IT",
    "zipcode": "90040",
    "name": "Roccamena",
    "region": "Sicilia",
    "short_region": "15",
    "lat": "37.838200",
    "lon": "13.155100"
  },
  {
    "id": "440465",
    "country": "IT",
    "zipcode": "90040",
    "name": "San Cipirello",
    "region": "Sicilia",
    "short_region": "15",
    "lat": "37.960700",
    "lon": "13.177300"
  },
  {
    "id": "440466",
    "country": "IT",
    "zipcode": "90040",
    "name": "Giardinello",
    "region": "Sicilia",
    "short_region": "15",
    "lat": "38.087100",
    "lon": "13.156500"
  },
  {
    "id": "440467",
    "country": "IT",
    "zipcode": "90040",
    "name": "Grisi'",
    "region": "Sicilia",
    "short_region": "15",
    "lat": "37.953000",
    "lon": "13.089800"
  },
  {
    "id": "440468",
    "country": "IT",
    "zipcode": "90040",
    "name": "Trappeto",
    "region": "Sicilia",
    "short_region": "15",
    "lat": "38.068700",
    "lon": "13.037900"
  },
  {
    "id": "440469",
    "country": "IT",
    "zipcode": "90040",
    "name": "Montelepre",
    "region": "Sicilia",
    "short_region": "15",
    "lat": "38.090300",
    "lon": "13.175200"
  },
  {
    "id": "440470",
    "country": "IT",
    "zipcode": "90040",
    "name": "Isola Delle Femmine",
    "region": "Sicilia",
    "short_region": "15",
    "lat": "38.191200",
    "lon": "13.246900"
  },
  {
    "id": "440471",
    "country": "IT",
    "zipcode": "90040",
    "name": "Cortiglia",
    "region": "Sicilia",
    "short_region": "15",
    "lat": "38.088900",
    "lon": "13.163700"
  },
  {
    "id": "440472",
    "country": "IT",
    "zipcode": "90040",
    "name": "Torretta",
    "region": "Sicilia",
    "short_region": "15",
    "lat": "38.130400",
    "lon": "13.235500"
  },
  {
    "id": "440473",
    "country": "IT",
    "zipcode": "90040",
    "name": "Capaci",
    "region": "Sicilia",
    "short_region": "15",
    "lat": "38.171100",
    "lon": "13.239300"
  },
  {
    "id": "440474",
    "country": "IT",
    "zipcode": "90041",
    "name": "Foce",
    "region": "Sicilia",
    "short_region": "15",
    "lat": "38.051200",
    "lon": "13.007200"
  },
  {
    "id": "440475",
    "country": "IT",
    "zipcode": "90041",
    "name": "Balestrate",
    "region": "Sicilia",
    "short_region": "15",
    "lat": "38.051200",
    "lon": "13.007200"
  },
  {
    "id": "440476",
    "country": "IT",
    "zipcode": "90042",
    "name": "Borgetto",
    "region": "Sicilia",
    "short_region": "15",
    "lat": "38.046600",
    "lon": "13.140700"
  },
  {
    "id": "440477",
    "country": "IT",
    "zipcode": "90043",
    "name": "Camporeale",
    "region": "Sicilia",
    "short_region": "15",
    "lat": "37.886100",
    "lon": "13.101100"
  },
  {
    "id": "440478",
    "country": "IT",
    "zipcode": "90044",
    "name": "Carini",
    "region": "Sicilia",
    "short_region": "15",
    "lat": "38.132400",
    "lon": "13.182700"
  },
  {
    "id": "440479",
    "country": "IT",
    "zipcode": "90044",
    "name": "Villagrazia Di Carini",
    "region": "Sicilia",
    "short_region": "15",
    "lat": "38.161700",
    "lon": "13.169000"
  },
  {
    "id": "440480",
    "country": "IT",
    "zipcode": "90045",
    "name": "Cinisi",
    "region": "Sicilia",
    "short_region": "15",
    "lat": "38.160800",
    "lon": "13.101000"
  },
  {
    "id": "440481",
    "country": "IT",
    "zipcode": "90045",
    "name": "Punta Raisi Aeroporto",
    "region": "Sicilia",
    "short_region": "15",
    "lat": "38.160800",
    "lon": "13.101000"
  },
  {
    "id": "440482",
    "country": "IT",
    "zipcode": "90046",
    "name": "Villa Ciambra",
    "region": "Sicilia",
    "short_region": "15",
    "lat": "38.061300",
    "lon": "13.320000"
  },
  {
    "id": "440483",
    "country": "IT",
    "zipcode": "90046",
    "name": "Poggio San Francesco",
    "region": "Sicilia",
    "short_region": "15",
    "lat": "38.004900",
    "lon": "13.341500"
  },
  {
    "id": "440484",
    "country": "IT",
    "zipcode": "90046",
    "name": "Pioppo",
    "region": "Sicilia",
    "short_region": "15",
    "lat": "38.050000",
    "lon": "13.233300"
  },
  {
    "id": "440485",
    "country": "IT",
    "zipcode": "90046",
    "name": "Monreale",
    "region": "Sicilia",
    "short_region": "15",
    "lat": "38.081200",
    "lon": "13.289500"
  },
  {
    "id": "440486",
    "country": "IT",
    "zipcode": "90046",
    "name": "Malpasso",
    "region": "Sicilia",
    "short_region": "15",
    "lat": "37.741300",
    "lon": "13.610400"
  },
  {
    "id": "440487",
    "country": "IT",
    "zipcode": "90046",
    "name": "San Martino Delle Scale",
    "region": "Sicilia",
    "short_region": "15",
    "lat": "38.090600",
    "lon": "13.254100"
  },
  {
    "id": "440488",
    "country": "IT",
    "zipcode": "90047",
    "name": "Partinico",
    "region": "Sicilia",
    "short_region": "15",
    "lat": "38.046600",
    "lon": "13.117900"
  },
  {
    "id": "440489",
    "country": "IT",
    "zipcode": "90048",
    "name": "San Giuseppe Jato",
    "region": "Sicilia",
    "short_region": "15",
    "lat": "37.973300",
    "lon": "13.188900"
  },
  {
    "id": "440490",
    "country": "IT",
    "zipcode": "90049",
    "name": "Terrasini",
    "region": "Sicilia",
    "short_region": "15",
    "lat": "38.146200",
    "lon": "13.083200"
  },
  {
    "id": "440491",
    "country": "IT",
    "zipcode": "90049",
    "name": "Citta' Del Mare",
    "region": "Sicilia",
    "short_region": "15",
    "lat": "38.100600",
    "lon": "13.074800"
  },
  {
    "id": "440492",
    "country": "IT",
    "zipcode": "90100",
    "name": "Palermo",
    "region": "Sicilia",
    "short_region": "15",
    "lat": "38.132100",
    "lon": "13.335600"
  },
  {
    "id": "440493",
    "country": "IT",
    "zipcode": "90121",
    "name": "Palermo",
    "region": "Sicilia",
    "short_region": "15",
    "lat": "38.132100",
    "lon": "13.335600"
  },
  {
    "id": "440494",
    "country": "IT",
    "zipcode": "90121",
    "name": "Boccadifalco",
    "region": "Sicilia",
    "short_region": "15",
    "lat": "38.100000",
    "lon": "13.300000"
  },
  {
    "id": "440495",
    "country": "IT",
    "zipcode": "90121",
    "name": "Acqua Dei Corsari",
    "region": "Sicilia",
    "short_region": "15",
    "lat": "38.116000",
    "lon": "13.317800"
  },
  {
    "id": "440496",
    "country": "IT",
    "zipcode": "90121",
    "name": "In Via Messina Marine",
    "region": "Sicilia",
    "short_region": "15",
    "lat": "38.116000",
    "lon": "13.317800"
  },
  {
    "id": "440497",
    "country": "IT",
    "zipcode": "90121",
    "name": "In Via Ammiraglio Cristodulo",
    "region": "Sicilia",
    "short_region": "15",
    "lat": "38.116000",
    "lon": "13.317800"
  },
  {
    "id": "440498",
    "country": "IT",
    "zipcode": "90121",
    "name": "Brancaccio Ciaculli",
    "region": "Sicilia",
    "short_region": "15",
    "lat": "38.116000",
    "lon": "13.317800"
  },
  {
    "id": "440499",
    "country": "IT",
    "zipcode": "90122",
    "name": "Roccella Guarnaschelli",
    "region": "Sicilia",
    "short_region": "15",
    "lat": "38.132100",
    "lon": "13.335600"
  },
  {
    "id": "440500",
    "country": "IT",
    "zipcode": "90122",
    "name": "Palermo",
    "region": "Sicilia",
    "short_region": "15",
    "lat": "38.132100",
    "lon": "13.335600"
  },
  {
    "id": "440501",
    "country": "IT",
    "zipcode": "90123",
    "name": "Palermo",
    "region": "Sicilia",
    "short_region": "15",
    "lat": "38.132100",
    "lon": "13.335600"
  },
  {
    "id": "440502",
    "country": "IT",
    "zipcode": "90123",
    "name": "Settecannoli",
    "region": "Sicilia",
    "short_region": "15",
    "lat": "38.132100",
    "lon": "13.335600"
  },