[
  {
    "id": "710001",
    "country": "MX",
    "zipcode": "45615",
    "name": "López Cotilla",
    "region": "Jalisco",
    "short_region": "14",
    "lat": "20.571900",
    "lon": "-103.363200"
  },
  {
    "id": "710002",
    "country": "MX",
    "zipcode": "45615",
    "name": "El Bosque II",
    "region": "Jalisco",
    "short_region": "14",
    "lat": "20.571900",
    "lon": "-103.363200"
  },
  {
    "id": "710003",
    "country": "MX",
    "zipcode": "45615",
    "name": "Coto Del Carmen",
    "region": "Jalisco",
    "short_region": "14",
    "lat": "20.571900",
    "lon": "-103.363200"
  },
  {
    "id": "710004",
    "country": "MX",
    "zipcode": "45615",
    "name": "Misión Magnolia",
    "region": "Jalisco",
    "short_region": "14",
    "lat": "20.571900",
    "lon": "-103.363200"
  },
  {
    "id": "710005",
    "country": "MX",
    "zipcode": "45615",
    "name": "Valle de La Misericordia",
    "region": "Jalisco",
    "short_region": "14",
    "lat": "20.571900",
    "lon": "-103.363200"
  },
  {
    "id": "710006",
    "country": "MX",
    "zipcode": "45615",
    "name": "Parques de Santa Cruz del Valle",
    "region": "Jalisco",
    "short_region": "14",
    "lat": "20.571900",
    "lon": "-103.363200"
  },
  {
    "id": "710007",
    "country": "MX",
    "zipcode": "45615",
    "name": "Villa Fontana",
    "region": "Jalisco",
    "short_region": "14",
    "lat": "20.571900",
    "lon": "-103.363200"
  },
  {
    "id": "710008",
    "country": "MX",
    "zipcode": "45618",
    "name": "Ex-haciendas del Cuatro",
    "region": "Jalisco",
    "short_region": "14",
    "lat": "20.569000",
    "lon": "-103.354300"
  },
  {
    "id": "710009",
    "country": "MX",
    "zipcode": "45618",
    "name": "Vista Hermosa",
    "region": "Jalisco",
    "short_region": "14",
    "lat": "20.591100",
    "lon": "-103.348700"
  },
  {
    "id": "710010",
    "country": "MX",
    "zipcode": "45618",
    "name": "Haciendas de Vista Hermosa",
    "region": "Jalisco",
    "short_region": "14",
    "lat": "20.569000",
    "lon": "-103.354300"
  },
  {
    "id": "710011",
    "country": "MX",
    "zipcode": "45618",
    "name": "Senderos de Tlaquepaque",
    "region": "Jalisco",
    "short_region": "14",
    "lat": "20.569000",
    "lon": "-103.354300"
  },
  {
    "id": "710012",
    "country": "MX",
    "zipcode": "45618",
    "name": "Juan de La Barrera",
    "region": "Jalisco",
    "short_region": "14",
    "lat": "20.569000",
    "lon": "-103.354300"
  },
  {
    "id": "710013",
    "country": "MX",
    "zipcode": "45618",
    "name": "Ojo de Agua",
    "region": "Jalisco",
    "short_region": "14",
    "lat": "20.559200",
    "lon": "-103.430800"
  },
  {
    "id": "710014",
    "country": "MX",
    "zipcode": "45618",
    "name": "San Clemente",
    "region": "Jalisco",
    "short_region": "14",
    "lat": "20.591100",
    "lon": "-103.348700"
  },
  {
    "id": "710015",
    "country": "MX",
    "zipcode": "45618",
    "name": "Valle Verde",
    "region": "Jalisco",
    "short_region": "14",
    "lat": "20.578900",
    "lon": "-103.277800"
  },
  {
    "id": "710016",
    "country": "MX",
    "zipcode": "45619",
    "name": "Las Pintas de Abajo",
    "region": "Jalisco",
    "short_region": "14",
    "lat": "20.571900",
    "lon": "-103.363200"
  },
  {
    "id": "710017",
    "country": "MX",
    "zipcode": "45619",
    "name": "Granjas de Monte Negro",
    "region": "Jalisco",
    "short_region": "14",
    "lat": "20.571900",
    "lon": "-103.363200"
  },
  {
    "id": "710018",
    "country": "MX",
    "zipcode": "45619",
    "name": "Paseos Lago",
    "region": "Jalisco",
    "short_region": "14",
    "lat": "20.571900",
    "lon": "-103.363200"
  },
  {
    "id": "710019",
    "country": "MX",
    "zipcode": "45620",
    "name": "Plan de Oriente",
    "region": "Jalisco",
    "short_region": "14",
    "lat": "20.583700",
    "lon": "-103.290300"
  },
  {
    "id": "710020",
    "country": "MX",
    "zipcode": "45620",
    "name": "Plan del Sur",
    "region": "Jalisco",
    "short_region": "14",
    "lat": "20.583700",
    "lon": "-103.290300"
  },
  {
    "id": "710021",
    "country": "MX",
    "zipcode": "45623",
    "name": "Atlas",
    "region": "Jalisco",
    "short_region": "14",
    "lat": "20.526900",
    "lon": "-103.357500"
  },
  {
    "id": "710022",
    "country": "MX",
    "zipcode": "45623",
    "name": "Iberoamericano",
    "region": "Jalisco",
    "short_region": "14",
    "lat": "20.526900",
    "lon": "-103.357500"
  },
  {
    "id": "710023",
    "country": "MX",
    "zipcode": "45623",
    "name": "Portillo Blanco",
    "region": "Jalisco",
    "short_region": "14",
    "lat": "20.526900",
    "lon": "-103.357500"
  },
  {
    "id": "710024",
    "country": "MX",
    "zipcode": "45623",
    "name": "Las Liebres",
    "region": "Jalisco",
    "short_region": "14",
    "lat": "20.591100",
    "lon": "-103.348700"
  },
  {
    "id": "710025",
    "country": "MX",
    "zipcode": "45623",
    "name": "El Manantial",
    "region": "Jalisco",
    "short_region": "14",
    "lat": "20.591100",
    "lon": "-103.348700"
  },
  {
    "id": "710026",
    "country": "MX",
    "zipcode": "45625",
    "name": "Rinconadas de Los Encinos",
    "region": "Jalisco",
    "short_region": "14",
    "lat": "20.614800",
    "lon": "-103.295300"
  },
  {
    "id": "710027",
    "country": "MX",
    "zipcode": "45625",
    "name": "Villas de San Miguel",
    "region": "Jalisco",
    "short_region": "14",
    "lat": "20.614800",
    "lon": "-103.295300"
  },
  {
    "id": "710028",
    "country": "MX",
    "zipcode": "45625",
    "name": "Lomas de San Pedrito",
    "region": "Jalisco",
    "short_region": "14",
    "lat": "20.614800",
    "lon": "-103.295300"
  },
  {
    "id": "710029",
    "country": "MX",
    "zipcode": "45625",
    "name": "San Pedrito",
    "region": "Jalisco",
    "short_region": "14",
    "lat": "20.614800",
    "lon": "-103.295300"
  },
  {
    "id": "710030",
    "country": "MX",
    "zipcode": "45626",
    "name": "Cedro Jalisco",
    "region": "Jalisco",
    "short_region": "14",
    "lat": "20.583700",
    "lon": "-103.290300"
  },
  {
    "id": "710031",
    "country": "MX",
    "zipcode": "45627",
    "name": "Verde Valle",
    "region": "Jalisco",
    "short_region": "14",
    "lat": "20.578900",
    "lon": "-103.277800"
  },
  {
    "id": "710032",
    "country": "MX",
    "zipcode": "45627",
    "name": "El Zalate",
    "region": "Jalisco",
    "short_region": "14",
    "lat": "20.591100",
    "lon": "-103.348700"
  },
  {
    "id": "710033",
    "country": "MX",
    "zipcode": "45627",
    "name": "Los Amiales",
    "region": "Jalisco",
    "short_region": "14",
    "lat": "20.591100",
    "lon": "-103.348700"
  },
  {
    "id": "710034",
    "country": "MX",
    "zipcode": "45628",
    "name": "Jardines de San Martín",
    "region": "Jalisco",
    "short_region": "14",
    "lat": "20.583700",
    "lon": "-103.290300"
  },
  {
    "id": "710035",
    "country": "MX",
    "zipcode": "45628",
    "name": "Lomas Del Tapatío",
    "region": "Jalisco",
    "short_region": "14",
    "lat": "20.583700",
    "lon": "-103.290300"
  },
  {
    "id": "710036",
    "country": "MX",
    "zipcode": "45628",
    "name": "Alfredo Barba",
    "region": "Jalisco",
    "short_region": "14",
    "lat": "20.583700",
    "lon": "-103.290300"
  },
  {
    "id": "710037",
    "country": "MX",
    "zipcode": "45629",
    "name": "El Morito",
    "region": "Jalisco",
    "short_region": "14",
    "lat": "20.583700",
    "lon": "-103.290300"
  },
  {
    "id": "710038",
    "country": "MX",
    "zipcode": "45629",
    "name": "Mirador de San Martín",
    "region": "Jalisco",
    "short_region": "14",
    "lat": "20.583700",
    "lon": "-103.290300"
  },
  {
    "id": "710039",
    "country": "MX",
    "zipcode": "45629",
    "name": "Quintas de Tlaquepaque",
    "region": "Jalisco",
    "short_region": "14",
    "lat": "20.583700",
    "lon": "-103.290300"
  },
  {
    "id": "710040",
    "country": "MX",
    "zipcode": "45629",
    "name": "Jardines del Órgano",
    "region": "Jalisco",
    "short_region": "14",
    "lat": "20.583700",
    "lon": "-103.290300"
  },
  {
    "id": "710041",
    "country": "MX",
    "zipcode": "45629",
    "name": "San Martín de las Flores de Abajo",
    "region": "Jalisco",
    "short_region": "14",
    "lat": "20.583700",
    "lon": "-103.290300"
  },
  {
    "id": "710042",
    "country": "MX",
    "zipcode": "45629",
    "name": "San Martín de las Flores de Arriba",
    "region": "Jalisco",
    "short_region": "14",
    "lat": "20.583700",
    "lon": "-103.290300"
  },
  {
    "id": "710043",
    "country": "MX",
    "zipcode": "45629",
    "name": "Álvaro Obregón",
    "region": "Jalisco",
    "short_region": "14",
    "lat": "20.583700",
    "lon": "-103.290300"
  },
  {
    "id": "710044",
    "country": "MX",
    "zipcode": "45629",
    "name": "Villas del Tapatío",
    "region": "Jalisco",
    "short_region": "14",
    "lat": "20.583700",
    "lon": "-103.290300"
  },
  {
    "id": "710045",
    "country": "MX",
    "zipcode": "45629",
    "name": "López Mateos",
    "region": "Jalisco",
    "short_region": "14",
    "lat": "20.591100",
    "lon": "-103.348700"
  },
  {
    "id": "710046",
    "country": "MX",
    "zipcode": "45629",
    "name": "El Cerrito",
    "region": "Jalisco",
    "short_region": "14",
    "lat": "20.591100",
    "lon": "-103.348700"
  },
  {
    "id": "710047",
    "country": "MX",
    "zipcode": "45630",
    "name": "Tateposco",
    "region": "Jalisco",
    "short_region": "14",
    "lat": "20.591100",
    "lon": "-103.348700"
  },
  {
    "id": "710048",
    "country": "MX",
    "zipcode": "45630",
    "name": "El Refugio",
    "region": "Jalisco",
    "short_region": "14",
    "lat": "20.591100",
    "lon": "-103.348700"
  },
  {
    "id": "710049",
    "country": "MX",
    "zipcode": "45630",
    "name": "Tinajitas",
    "region": "Jalisco",
    "short_region": "14",
    "lat": "20.591100",
    "lon": "-103.348700"
  },
  {
    "id": "710050",
    "country": "MX",
    "zipcode": "45630",
    "name": "Ojo de Agua",
    "region": "Jalisco",
    "short_region": "14",
    "lat": "20.559200",
    "lon": "-103.430800"
  },
  {
    "id": "710051",
    "country": "MX",
    "zipcode": "45630",
    "name": "La Pilita",
    "region": "Jalisco",
    "short_region": "14",
    "lat": "20.633900",
    "lon": "-103.503600"
  },
  {
    "id": "710052",
    "country": "MX",
    "zipcode": "45630",
    "name": "Alameda",
    "region": "Jalisco",
    "short_region": "14",
    "lat": "20.633900",
    "lon": "-103.503600"
  },
  {
    "id": "710053",
    "country": "MX",
    "zipcode": "45630",
    "name": "Cerro del Jagüey",
    "region": "Jalisco",
    "short_region": "14",
    "lat": "20.633900",
    "lon": "-103.503600"
  },
  {
    "id": "710054",
    "country": "MX",
    "zipcode": "45630",
    "name": "Cantera Colorada",
    "region": "Jalisco",
    "short_region": "14",
    "lat": "20.633900",
    "lon": "-103.503600"
  },
  {
    "id": "710055",
    "country": "MX",
    "zipcode": "45630",
    "name": "Laderita",
    "region": "Jalisco",
    "short_region": "14",
    "lat": "20.633900",
    "lon": "-103.503600"
  },
  {
    "id": "710056",
    "country": "MX",
    "zipcode": "45638",
    "name": "Barrios Unidos de Intercolonias",
    "region": "Jalisco",
    "short_region": "14",
    "lat": "20.560800",
    "lon": "-103.319900"
  },
  {
    "id": "710057",
    "country": "MX",
    "zipcode": "45638",
    "name": "Los Puestos",
    "region": "Jalisco",
    "short_region": "14",
    "lat": "20.560800",
    "lon": "-103.319900"
  },
  {
    "id": "710058",
    "country": "MX",
    "zipcode": "45638",
    "name": "Sentimientos de La Nación",
    "region": "Jalisco",
    "short_region": "14",
    "lat": "20.560800",
    "lon": "-103.319900"
  },
  {
    "id": "710059",
    "country": "MX",
    "zipcode": "45638",
    "name": "Santibáñez",
    "region": "Jalisco",
    "short_region": "14",
    "lat": "20.560800",
    "lon": "-103.319900"
  },
  {
    "id": "710060",
    "country": "MX",
    "zipcode": "45638",
    "name": "Residentes de San Martín",
    "region": "Jalisco",
    "short_region": "14",
    "lat": "20.560800",
    "lon": "-103.319900"
  },
  {
    "id": "710061",
    "country": "MX",
    "zipcode": "45638",
    "name": "La Severiana",
    "region": "Jalisco",
    "short_region": "14",
    "lat": "20.560800",
    "lon": "-103.319900"
  },
  {
    "id": "710062",
    "country": "MX",
    "zipcode": "45638",
    "name": "La Artesana",
    "region": "Jalisco",
    "short_region": "14",
    "lat": "20.560800",
    "lon": "-103.319900"
  },
  {
    "id": "710063",
    "country": "MX",
    "zipcode": "45638",
    "name": "El Canelo",
    "region": "Jalisco",
    "short_region": "14",
    "lat": "20.560800",
    "lon": "-103.319900"
  },
  {
    "id": "710064",
    "country": "MX",
    "zipcode": "45638",
    "name": "Cantares del Paraíso",
    "region": "Jalisco",
    "short_region": "14",
    "lat": "20.560800",
    "lon": "-103.319900"
  },
  {
    "id": "710065",
    "country": "MX",
    "zipcode": "45638",
    "name": "Horizontes de Tlaquepaque",
    "region": "Jalisco",
    "short_region": "14",
    "lat": "20.560800",
    "lon": "-103.319900"
  },
  {
    "id": "710066",
    "country": "MX",
    "zipcode": "45638",
    "name": "Francisco Silva Romero",
    "region": "Jalisco",
    "short_region": "14",
    "lat": "20.560800",
    "lon": "-103.319900"
  },
  {
    "id": "710067",
    "country": "MX",
    "zipcode": "45638",
    "name": "San Juan",
    "region": "Jalisco",
    "short_region": "14",
    "lat": "20.576100",
    "lon": "-103.270000"
  },
  {
    "id": "710068",
    "country": "MX",
    "zipcode": "45638",
    "name": "Los Hornos",
    "region": "Jalisco",
    "short_region": "14",
    "lat": "20.591100",
    "lon": "-103.348700"
  },
  {
    "id": "710069",
    "country": "MX",
    "zipcode": "45638",
    "name": "Los Naranjos",
    "region": "Jalisco",
    "short_region": "14",
    "lat": "20.591100",
    "lon": "-103.348700"
  },
  {
    "id": "710070",
    "country": "MX",
    "zipcode": "45638",
    "name": "La Arena",
    "region": "Jalisco",
    "short_region": "14",
    "lat": "20.591100",
    "lon": "-103.348700"
  },
  {
    "id": "710071",
    "country": "MX",
    "zipcode": "45638",
    "name": "Valle del Paraíso",
    "region": "Jalisco",
    "short_region": "14",
    "lat": "20.591100",
    "lon": "-103.348700"
  },
  {
    "id": "710072",
    "country": "MX",
    "zipcode": "45638",
    "name": "El Sauz",
    "region": "Jalisco",
    "short_region": "14",
    "lat": "20.591100",
    "lon": "-103.348700"
  },
  {
    "id": "710073",
    "country": "MX",
    "zipcode": "45638",
    "name": "El Nogal",
    "region": "Jalisco",
    "short_region": "14",
    "lat": "20.591100",
    "lon": "-103.348700"
  },
  {
    "id": "710074",
    "country": "MX",
    "zipcode": "45638",
    "name": "Guadalupana",
    "region": "Jalisco",
    "short_region": "14",
    "lat": "20.591100",
    "lon": "-103.348700"
  },
  {
    "id": "710075",
    "country": "MX",
    "zipcode": "45638",
    "name": "Emiliano Zapata",
    "region": "Jalisco",
    "short_region": "14",
    "lat": "20.591100",
    "lon": "-103.348700"
  },
  {
    "id": "710076",
    "country": "MX",
    "zipcode": "45638",
    "name": "La Puerta",
    "region": "Jalisco",
    "short_region": "14",
    "lat": "20.591100",
    "lon": "-103.348700"
  },
  {
    "id": "710077",
    "country": "MX",
    "zipcode": "45638",
    "name": "La Cofradia",
    "region": "Jalisco",
    "short_region": "14",
    "lat": "20.591100",
    "lon": "-103.348700"
  },
  {
    "id": "710078",
    "country": "MX",
    "zipcode": "49750",
    "name": "Toliman",
    "region": "Jalisco",
    "short_region": "14",
    "lat": "19.601400",
    "lon": "-103.915200"
  },
  {
    "id": "710079",
    "country": "MX",
    "zipcode": "49754",
    "name": "Toxin",
    "region": "Jalisco",
    "short_region": "14",
    "lat": "19.493000",
    "lon": "-104.012700"
  },
  {
    "id": "710080",
    "country": "MX",
    "zipcode": "49755",
    "name": "El Rodeo",
    "region": "Jalisco",
    "short_region": "14",
    "lat": "19.548200",
    "lon": "-104.053500"
  },
  {
    "id": "710081",
    "country": "MX",
    "zipcode": "49756",
    "name": "Teutlan",
    "region": "Jalisco",
    "short_region": "14",
    "lat": "19.576200",
    "lon": "-103.913000"
  },
  {
    "id": "710082",
    "country": "MX",
    "zipcode": "49757",
    "name": "San Pedro Toxin",
    "region": "Jalisco",
    "short_region": "14",
    "lat": "19.589200",
    "lon": "-103.968300"
  },
  {
    "id": "710083",
    "country": "MX",
    "zipcode": "49758",
    "name": "Paso Real",
    "region": "Jalisco",
    "short_region": "14",
    "lat": "19.604500",
    "lon": "-103.960000"
  },
  {
    "id": "710084",
    "country": "MX",
    "zipcode": "49759",
    "name": "Cuauhtémoc",
    "region": "Jalisco",
    "short_region": "14",
    "lat": "19.633100",
    "lon": "-103.927200"
  },
  {
    "id": "710085",
    "country": "MX",
    "zipcode": "49760",
    "name": "Copala",
    "region": "Jalisco",
    "short_region": "14",
    "lat": "19.611200",
    "lon": "-103.771900"
  },
  {
    "id": "710086",
    "country": "MX",
    "zipcode": "49764",
    "name": "Las Canoas",
    "region": "Jalisco",
    "short_region": "14",
    "lat": "19.543500",
    "lon": "-103.897100"
  },
  {
    "id": "710087",
    "country": "MX",
    "zipcode": "49765",
    "name": "Santa Elena",
    "region": "Jalisco",
    "short_region": "14",
    "lat": "19.551400",
    "lon": "-103.869800"
  },
  {
    "id": "710088",
    "country": "MX",
    "zipcode": "49767",
    "name": "Huisichi",
    "region": "Jalisco",
    "short_region": "14",
    "lat": "19.566100",
    "lon": "-103.865600"
  },
  {
    "id": "710089",
    "country": "MX",
    "zipcode": "49769",
    "name": "Puerta Del Petacal",
    "region": "Jalisco",
    "short_region": "14",
    "lat": "19.613900",
    "lon": "-103.856900"
  },
  {
    "id": "710090",
    "country": "MX",
    "zipcode": "48450",
    "name": "Presa Cajón de Peña (La Presa)",
    "region": "Jalisco",
    "short_region": "14",
    "lat": "20.003300",
    "lon": "-105.141700"
  },
  {
    "id": "710091",
    "country": "MX",
    "zipcode": "48450",
    "name": "Gargantillo (La Hacienda)",
    "region": "Jalisco",
    "short_region": "14",
    "lat": "20.017500",
    "lon": "-105.346200"
  },
  {
    "id": "710092",
    "country": "MX",
    "zipcode": "48450",
    "name": "Centro Tomatlán",
    "region": "Jalisco",
    "short_region": "14",
    "lat": "20.011500",
    "lon": "-105.249400"
  },
  {
    "id": "710093",
    "country": "MX",
    "zipcode": "48450",
    "name": "Indígena",
    "region": "Jalisco",
    "short_region": "14",
    "lat": "20.011500",
    "lon": "-105.249400"
  },
  {
    "id": "710094",
    "country": "MX",
    "zipcode": "48450",
    "name": "Nuevo Santiago",
    "region": "Jalisco",
    "short_region": "14",
    "lat": "20.016400",
    "lon": "-105.391700"
  },
  {
    "id": "710095",
    "country": "MX",
    "zipcode": "48450",
    "name": "Santiago",
    "region": "Jalisco",
    "short_region": "14",
    "lat": "20.008800",
    "lon": "-105.118100"
  },
  {
    "id": "710096",
    "country": "MX",
    "zipcode": "48451",
    "name": "Las Partidas",
    "region": "Jalisco",
    "short_region": "14",
    "lat": "20.036800",
    "lon": "-105.183200"
  },
  {
    "id": "710097",
    "country": "MX",
    "zipcode": "48453",
    "name": "La Piedra Pintada",
    "region": "Jalisco",
    "short_region": "14",
    "lat": "20.103500",
    "lon": "-105.051000"
  },
  {
    "id": "710098",
    "country": "MX",
    "zipcode": "48453",
    "name": "El Corrido",
    "region": "Jalisco",
    "short_region": "14",
    "lat": "20.072200",
    "lon": "-105.077700"
  },
  {
    "id": "710099",
    "country": "MX",
    "zipcode": "48455",
    "name": "La Gloria",
    "region": "Jalisco",
    "short_region": "14",
    "lat": "19.942200",
    "lon": "-105.371300"
  },
  {
    "id": "710100",
    "country": "MX",
    "zipcode": "48456",
    "name": "La Pintada",
    "region": "Jalisco",
    "short_region": "14",
    "lat": "19.900900",
    "lon": "-105.318800"
  },
  {
    "id": "710101",
    "country": "MX",
    "zipcode": "48456",
    "name": "El Naranjo",
    "region": "Jalisco",
    "short_region": "14",
    "lat": "19.952200",
    "lon": "-105.304200"
  },
  {
    "id": "710102",
    "country": "MX",
    "zipcode": "48456",
    "name": "José María Pino Suárez (Nuevo Nahuapa)",
    "region": "Jalisco",
    "short_region": "14",
    "lat": "19.948900",
    "lon": "-105.327800"
  },
  {
    "id": "710103",
    "country": "MX",
    "zipcode": "48456",
    "name": "Mahuapa",
    "region": "Jalisco",
    "short_region": "14",
    "lat": "19.920800",
    "lon": "-105.318800"
  },
  {
    "id": "710104",
    "country": "MX",
    "zipcode": "48457",
    "name": "Las Lomas (Las Lomas de Malobaco)",
    "region": "Jalisco",
    "short_region": "14",
    "lat": "19.916100",
    "lon": "-105.193900"
  },
  {
    "id": "710105",
    "country": "MX",
    "zipcode": "48457",
    "name": "Teocinte (Teocintle)",
    "region": "Jalisco",
    "short_region": "14",
    "lat": "19.916100",
    "lon": "-105.193900"
  },
  {
    "id": "710106",
    "country": "MX",
    "zipcode": "48458",
    "name": "El Tigre",
    "region": "Jalisco",
    "short_region": "14",
    "lat": "20.141400",
    "lon": "-105.281600"
  },
  {
    "id": "710107",
    "country": "MX",
    "zipcode": "48460",
    "name": "La Cruz de Loreto",
    "region": "Jalisco",
    "short_region": "14",
    "lat": "20.007500",
    "lon": "-105.455100"
  },
  {
    "id": "710108",
    "country": "MX",
    "zipcode": "48461",
    "name": "Piloto (Corralito de Piloto)",
    "region": "Jalisco",
    "short_region": "14",
    "lat": "20.091300",
    "lon": "-105.330600"
  },
  {
    "id": "710109",
    "country": "MX",
    "zipcode": "48462",
    "name": "El Realito",
    "region": "Jalisco",
    "short_region": "14",
    "lat": "20.184100",
    "lon": "-105.517200"
  },
  {
    "id": "710110",
    "country": "MX",
    "zipcode": "48464",
    "name": "El Mapache",
    "region": "Jalisco",
    "short_region": "14",
    "lat": "20.107800",
    "lon": "-105.263200"
  },
  {
    "id": "710111",
    "country": "MX",
    "zipcode": "48464",
    "name": "Pochotitán",
    "region": "Jalisco",
    "short_region": "14",
    "lat": "20.141700",
    "lon": "-105.226400"
  },
  {
    "id": "710112",
    "country": "MX",
    "zipcode": "48464",
    "name": "Crucero del Aval",
    "region": "Jalisco",
    "short_region": "14",
    "lat": "20.103600",
    "lon": "-105.307200"
  },
  {
    "id": "710113",
    "country": "MX",
    "zipcode": "48465",
    "name": "El Tule",
    "region": "Jalisco",
    "short_region": "14",
    "lat": "20.028200",
    "lon": "-105.244100"
  },
  {
    "id": "710114",
    "country": "MX",
    "zipcode": "48466",
    "name": "Tequesquite",
    "region": "Jalisco",
    "short_region": "14",
    "lat": "20.066100",
    "lon": "-105.300600"
  },
  {
    "id": "710115",
    "country": "MX",
    "zipcode": "48470",
    "name": "San Rafael de los Moreno",
    "region": "Jalisco",
    "short_region": "14",
    "lat": "20.121200",
    "lon": "-105.195600"
  },
  {
    "id": "710116",
    "country": "MX",
    "zipcode": "48473",
    "name": "El Ocotillo",
    "region": "Jalisco",
    "short_region": "14",
    "lat": "20.002800",
    "lon": "-104.811700"
  },
  {
    "id": "710117",
    "country": "MX",
    "zipcode": "48473",
    "name": "Cimarronas",
    "region": "Jalisco",
    "short_region": "14",
    "lat": "19.965200",
    "lon": "-104.796500"
  },
  {
    "id": "710118",
    "country": "MX",
    "zipcode": "48475",
    "name": "Llano Grande",
    "region": "Jalisco",
    "short_region": "14",
    "lat": "20.035600",
    "lon": "-104.874800"
  },
  {
    "id": "710119",
    "country": "MX",
    "zipcode": "48475",
    "name": "Santa Gertrudis",
    "region": "Jalisco",
    "short_region": "14",
    "lat": "20.100100",
    "lon": "-104.760700"
  },
  {
    "id": "710120",
    "country": "MX",
    "zipcode": "48479",
    "name": "Cabrel",
    "region": "Jalisco",
    "short_region": "14",
    "lat": "20.184800",
    "lon": "-105.152200"
  },
  {
    "id": "710121",
    "country": "MX",
    "zipcode": "48480",
    "name": "Campo Acosta",
    "region": "Jalisco",
    "short_region": "14",
    "lat": "19.770600",
    "lon": "-105.249200"
  },
  {
    "id": "710122",
    "country": "MX",
    "zipcode": "48481",
    "name": "La Cumbre",
    "region": "Jalisco",
    "short_region": "14",
    "lat": "19.862500",
    "lon": "-105.082700"
  },
  {
    "id": "710123",
    "country": "MX",
    "zipcode": "48481",
    "name": "Valle de Majahuas (El Poblado)",
    "region": "Jalisco",
    "short_region": "14",
    "lat": "19.862500",
    "lon": "-105.082700"
  },
  {
    "id": "710124",
    "country": "MX",
    "zipcode": "48485",
    "name": "Emiliano Zapata Yautepec (Agua Zarca)",
    "region": "Jalisco",
    "short_region": "14",
    "lat": "19.811000",
    "lon": "-105.164800"
  },
  {
    "id": "710125",
    "country": "MX",
    "zipcode": "48485",
    "name": "Lázaro Cárdenas (La Nancy)",
    "region": "Jalisco",
    "short_region": "14",
    "lat": "19.828500",
    "lon": "-105.159700"
  },
  {
    "id": "710126",
    "country": "MX",
    "zipcode": "48486",
    "name": "El Aserradero",
    "region": "Jalisco",
    "short_region": "14",
    "lat": "19.817600",
    "lon": "-105.065500"
  },
  {
    "id": "710127",
    "country": "MX",
    "zipcode": "48490",
    "name": "Higuera Blanca",
    "region": "Jalisco",
    "short_region": "14",
    "lat": "19.689900",
    "lon": "-105.162900"
  },
  {
    "id": "710128",
    "country": "MX",
    "zipcode": "48491",
    "name": "Palmillas",
    "region": "Jalisco",
    "short_region": "14",
    "lat": "19.969300",
    "lon": "-104.948600"
  },
  {
    "id": "710129",
    "country": "MX",
    "zipcode": "48495",
    "name": "José María Morelos",
    "region": "Jalisco",
    "short_region": "14",
    "lat": "19.678000",
    "lon": "-105.184700"
  },
  {
    "id": "710130",
    "country": "MX",
    "zipcode": "48496",
    "name": "Puentecillas",
    "region": "Jalisco",
    "short_region": "14",
    "lat": "19.903200",
    "lon": "-105.140500"
  },
  {
    "id": "710131",
    "country": "MX",
    "zipcode": "48499",
    "name": "El Limón",
    "region": "Jalisco",
    "short_region": "14",
    "lat": "19.861600",
    "lon": "-105.000900"
  },
  {
    "id": "710132",
    "country": "MX",
    "zipcode": "48499",
    "name": "Llano del Toro",
    "region": "Jalisco",
    "short_region": "14",
    "lat": "19.889700",
    "lon": "-104.991400"
  },
  {
    "id": "710133",
    "country": "MX",
    "zipcode": "45400",
    "name": "El Mirador",
    "region": "Jalisco",
    "short_region": "14",
    "lat": "20.571400",
    "lon": "-103.140000"
  },
  {
    "id": "710134",
    "country": "MX",
    "zipcode": "45400",
    "name": "Jardines de Tonala",
    "region": "Jalisco",
    "short_region": "14",
    "lat": "20.684700",
    "lon": "-103.218900"
  },
  {
    "id": "710135",
    "country": "MX",
    "zipcode": "45400",
    "name": "Bellavista",
    "region": "Jalisco",
    "short_region": "14",
    "lat": "20.616800",
    "lon": "-103.213900"
  },
  {
    "id": "710136",
    "country": "MX",
    "zipcode": "45400",
    "name": "San Elias",
    "region": "Jalisco",
    "short_region": "14",
    "lat": "20.616800",
    "lon": "-103.213900"
  },
  {
    "id": "710137",
    "country": "MX",
    "zipcode": "45400",
    "name": "La Alberca",
    "region": "Jalisco",
    "short_region": "14",
    "lat": "20.616800",
    "lon": "-103.213900"
  },
  {
    "id": "710138",
    "country": "MX",
    "zipcode": "45400",
    "name": "El Zapote",
    "region": "Jalisco",
    "short_region": "14",
    "lat": "20.616800",
    "lon": "-103.213900"
  },
  {
    "id": "710139",
    "country": "MX",
    "zipcode": "45400",
    "name": "La Providencia",
    "region": "Jalisco",
    "short_region": "14",
    "lat": "20.616800",
    "lon": "-103.213900"
  },
  {
    "id": "710140",
    "country": "MX",
    "zipcode": "45400",
    "name": "El Remolino",
    "region": "Jalisco",
    "short_region": "14",
    "lat": "20.616800",
    "lon": "-103.213900"
  },
  {
    "id": "710141",
    "country": "MX",
    "zipcode": "45400",
    "name": "Cuchara",
    "region": "Jalisco",
    "short_region": "14",
    "lat": "20.616800",
    "lon": "-103.213900"
  },
  {
    "id": "710142",
    "country": "MX",
    "zipcode": "45400",
    "name": "Colorines",
    "region": "Jalisco",
    "short_region": "14",
    "lat": "20.616800",
    "lon": "-103.213900"
  },
  {
    "id": "710143",
    "country": "MX",
    "zipcode": "45400",
    "name": "Cañon",
    "region": "Jalisco",
    "short_region": "14",
    "lat": "20.616800",
    "lon": "-103.213900"
  },
  {
    "id": "710144",
    "country": "MX",
    "zipcode": "45400",
    "name": "Buenos Aires",
    "region": "Jalisco",
    "short_region": "14",
    "lat": "20.616800",
    "lon": "-103.213900"
  },
  {
    "id": "710145",
    "country": "MX",
    "zipcode": "45400",
    "name": "Altamira",
    "region": "Jalisco",
    "short_region": "14",
    "lat": "20.616800",
    "lon": "-103.213900"
  },
  {
    "id": "710146",
    "country": "MX",
    "zipcode": "45400",
    "name": "Tenamaxtle",
    "region": "Jalisco",
    "short_region": "14",
    "lat": "20.603500",
    "lon": "-103.184200"
  },
  {
    "id": "710147",
    "country": "MX",
    "zipcode": "45400",
    "name": "Arroyos",
    "region": "Jalisco",
    "short_region": "14",
    "lat": "20.603500",
    "lon": "-103.184200"
  },
  {
    "id": "710148",
    "country": "MX",
    "zipcode": "45400",
    "name": "Bajío de la Mesa",
    "region": "Jalisco",
    "short_region": "14",
    "lat": "20.603500",
    "lon": "-103.184200"
  },
  {
    "id": "710149",
    "country": "MX",
    "zipcode": "45400",
    "name": "Cihualpilli",
    "region": "Jalisco",
    "short_region": "14",
    "lat": "20.603500",
    "lon": "-103.184200"
  },
  {
    "id": "710150",
    "country": "MX",
    "zipcode": "45400",
    "name": "Colinas de Altamira",
    "region": "Jalisco",
    "short_region": "14",
    "lat": "20.603500",
    "lon": "-103.184200"
  },
  {
    "id": "710151",
    "country": "MX",
    "zipcode": "45400",
    "name": "Colonia del Sur",
    "region": "Jalisco",
    "short_region": "14",
    "lat": "20.603500",
    "lon": "-103.184200"
  },
  {
    "id": "710152",
    "country": "MX",
    "zipcode": "45400",
    "name": "Ricardo Flores Magón",
    "region": "Jalisco",
    "short_region": "14",
    "lat": "20.603500",
    "lon": "-103.184200"
  },
  {
    "id": "710153",
    "country": "MX",
    "zipcode": "45400",
    "name": "Rinconada de los Cerezos",
    "region": "Jalisco",
    "short_region": "14",
    "lat": "20.603500",
    "lon": "-103.184200"
  },
  {
    "id": "710154",
    "country": "MX",
    "zipcode": "45400",
    "name": "Rinconadas Del Sol",
    "region": "Jalisco",
    "short_region": "14",
    "lat": "20.603500",
    "lon": "-103.184200"
  },
  {
    "id": "710155",
    "country": "MX",
    "zipcode": "45400",
    "name": "Rinconada Tonalá",
    "region": "Jalisco",
    "short_region": "14",
    "lat": "20.603500",
    "lon": "-103.184200"
  },
  {
    "id": "710156",
    "country": "MX",
    "zipcode": "45400",
    "name": "Sillita Zapote",
    "region": "Jalisco",
    "short_region": "14",
    "lat": "20.603500",
    "lon": "-103.184200"
  },
  {
    "id": "710157",
    "country": "MX",
    "zipcode": "45400",
    "name": "Valle Del Sol",
    "region": "Jalisco",
    "short_region": "14",
    "lat": "20.603500",
    "lon": "-103.184200"
  },
  {
    "id": "710158",
    "country": "MX",
    "zipcode": "45400",
    "name": "Vistas del Valle",
    "region": "Jalisco",
    "short_region": "14",
    "lat": "20.603500",
    "lon": "-103.184200"
  },
  {
    "id": "710159",
    "country": "MX",
    "zipcode": "45400",
    "name": "Poder Popular",
    "region": "Jalisco",
    "short_region": "14",
    "lat": "20.603500",
    "lon": "-103.184200"
  },
  {
    "id": "710160",
    "country": "MX",
    "zipcode": "45400",
    "name": "Tonaltecas",
    "region": "Jalisco",
    "short_region": "14",
    "lat": "20.603500",
    "lon": "-103.184200"
  },
  {
    "id": "710161",
    "country": "MX",
    "zipcode": "45400",
    "name": "Pachaguillo",
    "region": "Jalisco",
    "short_region": "14",
    "lat": "20.603500",
    "lon": "-103.184200"
  },
  {
    "id": "710162",
    "country": "MX",
    "zipcode": "45400",
    "name": "San Mateo",
    "region": "Jalisco",
    "short_region": "14",
    "lat": "20.616800",
    "lon": "-103.213900"
  },
  {
    "id": "710163",
    "country": "MX",
    "zipcode": "45400",
    "name": "La Cabaña",
    "region": "Jalisco",
    "short_region": "14",
    "lat": "20.616800",
    "lon": "-103.213900"
  },
  {
    "id": "710164",
    "country": "MX",
    "zipcode": "45400",
    "name": "Pirul",
    "region": "Jalisco",
    "short_region": "14",
    "lat": "20.603500",
    "lon": "-103.184200"
  },
  {
    "id": "710165",
    "country": "MX",
    "zipcode": "45400",
    "name": "Mirador de La Reyna",
    "region": "Jalisco",
    "short_region": "14",
    "lat": "20.603500",
    "lon": "-103.184200"
  },
  {
    "id": "710166",
    "country": "MX",
    "zipcode": "45400",
    "name": "La Mesa I",
    "region": "Jalisco",
    "short_region": "14",
    "lat": "20.603500",
    "lon": "-103.184200"
  },
  {
    "id": "710167",
    "country": "MX",
    "zipcode": "45400",
    "name": "Balcones Del Sol",
    "region": "Jalisco",
    "short_region": "14",
    "lat": "20.603500",
    "lon": "-103.184200"
  },
  {
    "id": "710168",
    "country": "MX",
    "zipcode": "45400",
    "name": "Comolca",
    "region": "Jalisco",
    "short_region": "14",
    "lat": "20.603500",
    "lon": "-103.184200"
  },
  {
    "id": "710169",
    "country": "MX",
    "zipcode": "45400",
    "name": "Concha",
    "region": "Jalisco",
    "short_region": "14",
    "lat": "20.603500",
    "lon": "-103.184200"
  },
  {
    "id": "710170",
    "country": "MX",
    "zipcode": "45400",
    "name": "Fidel Velázquez",
    "region": "Jalisco",
    "short_region": "14",
    "lat": "20.603500",
    "lon": "-103.184200"
  },
  {
    "id": "710171",
    "country": "MX",
    "zipcode": "45400",
    "name": "Jardines de San Rafael",
    "region": "Jalisco",
    "short_region": "14",
    "lat": "20.603500",
    "lon": "-103.184200"
  },
  {
    "id": "710172",
    "country": "MX",
    "zipcode": "45400",
    "name": "Las Gabrielas",
    "region": "Jalisco",
    "short_region": "14",
    "lat": "20.603500",
    "lon": "-103.184200"
  },
  {
    "id": "710173",
    "country": "MX",
    "zipcode": "45400",
    "name": "Lomas de Tonalá",
    "region": "Jalisco",
    "short_region": "14",
    "lat": "20.603500",
    "lon": "-103.184200"
  },
  {
    "id": "710174",
    "country": "MX",
    "zipcode": "45400",
    "name": "Loma Sur",
    "region": "Jalisco",
    "short_region": "14",
    "lat": "20.603500",
    "lon": "-103.184200"
  },
  {
    "id": "710175",
    "country": "MX",
    "zipcode": "45400",
    "name": "Misión Del Campanario",
    "region": "Jalisco",
    "short_region": "14",
    "lat": "20.603500",
    "lon": "-103.184200"
  },
  {
    "id": "710176",
    "country": "MX",
    "zipcode": "45400",
    "name": "Potrerito Beccerros",
    "region": "Jalisco",
    "short_region": "14",
    "lat": "20.603500",
    "lon": "-103.184200"
  },
  {
    "id": "710177",
    "country": "MX",
    "zipcode": "45400",
    "name": "Prados Tonalá",
    "region": "Jalisco",
    "short_region": "14",
    "lat": "20.603500",
    "lon": "-103.184200"
  },
  {
    "id": "710178",
    "country": "MX",
    "zipcode": "45400",
    "name": "Tonaltecas II",
    "region": "Jalisco",
    "short_region": "14",
    "lat": "20.603500",
    "lon": "-103.184200"
  },
  {
    "id": "710179",
    "country": "MX",
    "zipcode": "45400",
    "name": "La Mesa II",
    "region": "Jalisco",
    "short_region": "14",
    "lat": "20.603500",
    "lon": "-103.184200"
  },
  {
    "id": "710180",
    "country": "MX",
    "zipcode": "45400",
    "name": "El Amial",
    "region": "Jalisco",
    "short_region": "14",
    "lat": "20.603500",
    "lon": "-103.184200"
  },
  {
    "id": "710181",
    "country": "MX",
    "zipcode": "45400",
    "name": "Pueblito Del Sol",
    "region": "Jalisco",
    "short_region": "14",
    "lat": "20.603500",
    "lon": "-103.184200"
  },
  {
    "id": "710182",
    "country": "MX",
    "zipcode": "45400",
    "name": "Xicoxochitl",
    "region": "Jalisco",
    "short_region": "14",
    "lat": "20.603500",
    "lon": "-103.184200"
  },
  {
    "id": "710183",
    "country": "MX",
    "zipcode": "45400",
    "name": "Hidalgo de Tonala",
    "region": "Jalisco",
    "short_region": "14",
    "lat": "20.603500",
    "lon": "-103.184200"
  },
  {
    "id": "710184",
    "country": "MX",
    "zipcode": "45400",
    "name": "Mirador Del Sol",
    "region": "Jalisco",
    "short_region": "14",
    "lat": "20.603500",
    "lon": "-103.184200"
  },
  {
    "id": "710185",
    "country": "MX",
    "zipcode": "45400",
    "name": "Praderas Del Sol",
    "region": "Jalisco",
    "short_region": "14",
    "lat": "20.603500",
    "lon": "-103.184200"
  },
  {
    "id": "710186",
    "country": "MX",
    "zipcode": "45400",
    "name": "La Comolea",
    "region": "Jalisco",
    "short_region": "14",
    "lat": "20.603500",
    "lon": "-103.184200"
  },
  {
    "id": "710187",
    "country": "MX",
    "zipcode": "45400",
    "name": "Colinas de San Carlos",
    "region": "Jalisco",
    "short_region": "14",
    "lat": "20.603500",
    "lon": "-103.184200"
  },
  {
    "id": "710188",
    "country": "MX",
    "zipcode": "45400",
    "name": "Tonalá Centro",
    "region": "Jalisco",
    "short_region": "14",
    "lat": "20.554400",
    "lon": "-103.193600"
  },
  {
    "id": "710189",
    "country": "MX",
    "zipcode": "45400",
    "name": "Vistas Tonallán",
    "region": "Jalisco",
    "short_region": "14",
    "lat": "20.603500",
    "lon": "-103.184200"
  },
  {
    "id": "710190",
    "country": "MX",
    "zipcode": "45402",
    "name": "Colinas de Tonalá",
    "region": "Jalisco",
    "short_region": "14",
    "lat": "20.614400",
    "lon": "-103.215800"
  },
  {
    "id": "710191",
    "country": "MX",
    "zipcode": "45402",
    "name": "Ciudad Aztlán",
    "region": "Jalisco",
    "short_region": "14",
    "lat": "20.614400",
    "lon": "-103.215800"
  },
  {
    "id": "710192",
    "country": "MX",
    "zipcode": "45402",
    "name": "Anexo Ciudad Aztlán",
    "region": "Jalisco",
    "short_region": "14",
    "lat": "20.614400",
    "lon": "-103.215800"
  },
  {
    "id": "710193",
    "country": "MX",
    "zipcode": "45402",
    "name": "Amiales Ciudad Aztlán",
    "region": "Jalisco",
    "short_region": "14",
    "lat": "20.614400",
    "lon": "-103.215800"
  },
  {
    "id": "710194",
    "country": "MX",
    "zipcode": "45402",
    "name": "Alfareros",
    "region": "Jalisco",
    "short_region": "14",
    "lat": "20.614400",
    "lon": "-103.215800"
  },
  {
    "id": "710195",
    "country": "MX",
    "zipcode": "45402",
    "name": "Alpinos",
    "region": "Jalisco",
    "short_region": "14",
    "lat": "20.614400",
    "lon": "-103.215800"
  },
  {
    "id": "710196",
    "country": "MX",
    "zipcode": "45402",
    "name": "Fuentes Del Nilo",
    "region": "Jalisco",
    "short_region": "14",
    "lat": "20.614400",
    "lon": "-103.215800"
  },
  {
    "id": "710197",
    "country": "MX",
    "zipcode": "45402",
    "name": "Loma Dorada Secc C",
    "region": "Jalisco",
    "short_region": "14",
    "lat": "20.614400",
    "lon": "-103.215800"
  },
  {
    "id": "710198",
    "country": "MX",
    "zipcode": "45402",
    "name": "Loma Dorada Secc D",
    "region": "Jalisco",
    "short_region": "14",
    "lat": "20.614400",
    "lon": "-103.215800"
  },
  {
    "id": "710199",
    "country": "MX",
    "zipcode": "45402",
    "name": "Lagunero",
    "region": "Jalisco",
    "short_region": "14",
    "lat": "20.614400",
    "lon": "-103.215800"
  },
  {
    "id": "710200",
    "country": "MX",
    "zipcode": "45402",
    "name": "Loma Dorada Secc B",
    "region": "Jalisco",
    "short_region": "14",
    "lat": "20.614400",
    "lon": "-103.215800"
  },
  {
    "id": "710201",
    "country": "MX",
    "zipcode": "45402",
    "name": "Los Cuadros",
    "region": "Jalisco",
    "short_region": "14",
    "lat": "20.614400",
    "lon": "-103.215800"
  },
  {
    "id": "710202",
    "country": "MX",
    "zipcode": "45402",
    "name": "Villas Artesanos",
    "region": "Jalisco",
    "short_region": "14",
    "lat": "20.614400",
    "lon": "-103.215800"
  },
  {
    "id": "710203",
    "country": "MX",
    "zipcode": "45402",
    "name": "Torres",
    "region": "Jalisco",
    "short_region": "14",
    "lat": "20.614400",
    "lon": "-103.215800"
  },
  {
    "id": "710204",
    "country": "MX",
    "zipcode": "45402",
    "name": "Privada Torres",
    "region": "Jalisco",
    "short_region": "14",
    "lat": "20.614400",
    "lon": "-103.215800"
  },
  {
    "id": "710205",
    "country": "MX",
    "zipcode": "45402",
    "name": "Rey Xolotl",
    "region": "Jalisco",
    "short_region": "14",
    "lat": "20.614400",
    "lon": "-103.215800"
  },
  {
    "id": "710206",
    "country": "MX",
    "zipcode": "45402",
    "name": "Los Músicos",
    "region": "Jalisco",
    "short_region": "14",
    "lat": "20.614400",
    "lon": "-103.215800"
  },
  {
    "id": "710207",
    "country": "MX",
    "zipcode": "45402",
    "name": "Los Liberales",
    "region": "Jalisco",
    "short_region": "14",
    "lat": "20.614400",
    "lon": "-103.215800"
  },
  {
    "id": "710208",
    "country": "MX",
    "zipcode": "45402",
    "name": "Loma Dorada Ejidal",
    "region": "Jalisco",
    "short_region": "14",
    "lat": "20.614400",
    "lon": "-103.215800"
  },
  {
    "id": "710209",
    "country": "MX",
    "zipcode": "45402",
    "name": "Larguero",
    "region": "Jalisco",
    "short_region": "14",
    "lat": "20.614400",
    "lon": "-103.215800"
  },
  {
    "id": "710210",
    "country": "MX",
    "zipcode": "45402",
    "name": "Ladera",
    "region": "Jalisco",
    "short_region": "14",
    "lat": "20.614400",
    "lon": "-103.215800"
  },
  {
    "id": "710211",
    "country": "MX",
    "zipcode": "45402",
    "name": "Loma Dorada Secc A",
    "region": "Jalisco",
    "short_region": "14",
    "lat": "20.614400",
    "lon": "-103.215800"
  },
  {
    "id": "710212",
    "country": "MX",
    "zipcode": "45402",
    "name": "Industrial Nueva Central Camionera",
    "region": "Jalisco",
    "short_region": "14",
    "lat": "20.614400",
    "lon": "-103.215800"
  },
  {
    "id": "710213",
    "country": "MX",
    "zipcode": "45402",
    "name": "Nuevo Santa Cruz",
    "region": "Jalisco",
    "short_region": "14",
    "lat": "20.614400",
    "lon": "-103.215800"
  },
  {
    "id": "710214",
    "country": "MX",
    "zipcode": "45402",
    "name": "Colonos Ciudad Aztlán",
    "region": "Jalisco",
    "short_region": "14",
    "lat": "20.614400",
    "lon": "-103.215800"
  },
  {
    "id": "710215",
    "country": "MX",
    "zipcode": "45402",
    "name": "Quintana Catalina",
    "region": "Jalisco",
    "short_region": "14",
    "lat": "20.614400",
    "lon": "-103.215800"
  },
  {
    "id": "710216",
    "country": "MX",
    "zipcode": "45402",
    "name": "Santa Cruz de las Huertas",
    "region": "Jalisco",
    "short_region": "14",
    "lat": "20.621800",
    "lon": "-103.260300"
  },
  {
    "id": "710217",
    "country": "MX",
    "zipcode": "45402",
    "name": "Francisco Villa",
    "region": "Jalisco",
    "short_region": "14",
    "lat": "20.616800",
    "lon": "-103.213900"
  },
  {
    "id": "710218",
    "country": "MX",
    "zipcode": "45402",
    "name": "Linda Vista",
    "region": "Jalisco",
    "short_region": "14",
    "lat": "20.616800",
    "lon": "-103.213900"
  },
  {
    "id": "710219",
    "country": "MX",
    "zipcode": "45402",
    "name": "El Cerrito",
    "region": "Jalisco",
    "short_region": "14",
    "lat": "20.616800",
    "lon": "-103.213900"
  },
  {
    "id": "710220",
    "country": "MX",
    "zipcode": "45402",
    "name": "El Barro",
    "region": "Jalisco",
    "short_region": "14",
    "lat": "20.616800",
    "lon": "-103.213900"
  },
  {
    "id": "710221",
    "country": "MX",
    "zipcode": "45402",
    "name": "Lomas Del Manantial",
    "region": "Jalisco",
    "short_region": "14",
    "lat": "20.616800",
    "lon": "-103.213900"
  },
  {
    "id": "710222",
    "country": "MX",
    "zipcode": "45402",
    "name": "Barrio Nuevo",
    "region": "Jalisco",
    "short_region": "14",
    "lat": "20.616800",
    "lon": "-103.213900"
  },
  {
    "id": "710223",
    "country": "MX",
    "zipcode": "45402",
    "name": "El Cerro",
    "region": "Jalisco",
    "short_region": "14",
    "lat": "20.616800",
    "lon": "-103.213900"
  },
  {
    "id": "710224",
    "country": "MX",
    "zipcode": "45402",
    "name": "Pedregal",
    "region": "Jalisco",
    "short_region": "14",
    "lat": "20.606900",
    "lon": "-103.171400"
  },
  {
    "id": "710225",
    "country": "MX",
    "zipcode": "45403",
    "name": "La Quinta",
    "region": "Jalisco",
    "short_region": "14",
    "lat": "20.616800",
    "lon": "-103.213900"
  },
  {
    "id": "710226",
    "country": "MX",
    "zipcode": "45403",
    "name": "Maravillas",
    "region": "Jalisco",
    "short_region": "14",
    "lat": "20.616800",
    "lon": "-103.213900"
  },
  {
    "id": "710227",
    "country": "MX",
    "zipcode": "45403",
    "name": "Buenos Aires",
    "region": "Jalisco",
    "short_region": "14",
    "lat": "20.616800",
    "lon": "-103.213900"
  },
  {
    "id": "710228",
    "country": "MX",
    "zipcode": "45403",
    "name": "Agua Escondida",
    "region": "Jalisco",
    "short_region": "14",
    "lat": "20.616800",
    "lon": "-103.213900"
  },
  {
    "id": "710229",
    "country": "MX",
    "zipcode": "45403",
    "name": "Los Pocitos",
    "region": "Jalisco",
    "short_region": "14",
    "lat": "20.616800",
    "lon": "-103.213900"
  },
  {
    "id": "710230",
    "country": "MX",
    "zipcode": "45403",
    "name": "Hacienda San Francisco",
    "region": "Jalisco",
    "short_region": "14",
    "lat": "20.616800",
    "lon": "-103.213900"
  },
  {
    "id": "710231",
    "country": "MX",
    "zipcode": "45403",
    "name": "Paseos Del Valle",
    "region": "Jalisco",
    "short_region": "14",
    "lat": "20.616800",
    "lon": "-103.213900"
  },
  {
    "id": "710232",
    "country": "MX",
    "zipcode": "45403",
    "name": "Lomas de La Soledad",
    "region": "Jalisco",
    "short_region": "14",
    "lat": "20.522200",
    "lon": "-103.333300"
  },
  {
    "id": "710233",
    "country": "MX",
    "zipcode": "45403",
    "name": "El Bajío de Santa Cruz",
    "region": "Jalisco",
    "short_region": "14",
    "lat": "20.522200",
    "lon": "-103.333300"
  },
  {
    "id": "710234",
    "country": "MX",
    "zipcode": "45403",
    "name": "Del Valle",
    "region": "Jalisco",
    "short_region": "14",
    "lat": "20.522200",
    "lon": "-103.333300"
  },
  {
    "id": "710235",
    "country": "MX",
    "zipcode": "45403",
    "name": "Colinas Santa Cruz II",
    "region": "Jalisco",
    "short_region": "14",
    "lat": "20.522200",
    "lon": "-103.333300"
  },
  {
    "id": "710236",
    "country": "MX",
    "zipcode": "45403",
    "name": "Villas de Oriente",
    "region": "Jalisco",
    "short_region": "14",
    "lat": "20.522200",
    "lon": "-103.333300"
  },
  {
    "id": "710237",
    "country": "MX",
    "zipcode": "45403",
    "name": "INFONAVIT La Soledad",
    "region": "Jalisco",
    "short_region": "14",
    "lat": "20.522200",
    "lon": "-103.333300"
  },
  {
    "id": "710238",
    "country": "MX",
    "zipcode": "45403",
    "name": "INFONAVIT Río Nilo",
    "region": "Jalisco",
    "short_region": "14",
    "lat": "20.522200",
    "lon": "-103.333300"
  },
  {
    "id": "710239",
    "country": "MX",
    "zipcode": "45403",
    "name": "Flores Magón I Fracc",
    "region": "Jalisco",
    "short_region": "14",
    "lat": "20.522200",
    "lon": "-103.333300"
  },
  {
    "id": "710240",
    "country": "MX",
    "zipcode": "45403",
    "name": "Lomas del Camichin",
    "region": "Jalisco",
    "short_region": "14",
    "lat": "20.522200",
    "lon": "-103.333300"
  },
  {
    "id": "710241",
    "country": "MX",
    "zipcode": "45403",
    "name": "Los Camichines III",
    "region": "Jalisco",
    "short_region": "14",
    "lat": "20.522200",
    "lon": "-103.333300"
  },
  {
    "id": "710242",
    "country": "MX",
    "zipcode": "45403",
    "name": "Lomas de los Pájaros",
    "region": "Jalisco",
    "short_region": "14",
    "lat": "20.522200",
    "lon": "-103.333300"
  },
  {
    "id": "710243",
    "country": "MX",
    "zipcode": "45403",
    "name": "Rinconada de la Presa",
    "region": "Jalisco",
    "short_region": "14",
    "lat": "20.522200",
    "lon": "-103.333300"
  },
  {
    "id": "710244",
    "country": "MX",
    "zipcode": "45403",
    "name": "Rinconada del Árbol",
    "region": "Jalisco",
    "short_region": "14",
    "lat": "20.522200",
    "lon": "-103.333300"
  },
  {
    "id": "710245",
    "country": "MX",
    "zipcode": "45403",
    "name": "Cipreses",
    "region": "Jalisco",
    "short_region": "14",
    "lat": "20.522200",
    "lon": "-103.333300"
  },
  {
    "id": "710246",
    "country": "MX",
    "zipcode": "45403",
    "name": "Rinconada San Francisco",
    "region": "Jalisco",
    "short_region": "14",
    "lat": "20.522200",
    "lon": "-103.333300"
  },
  {
    "id": "710247",
    "country": "MX",
    "zipcode": "45403",
    "name": "Torres de Rio Nilo",
    "region": "Jalisco",
    "short_region": "14",
    "lat": "20.522200",
    "lon": "-103.333300"
  },
  {
    "id": "710248",
    "country": "MX",
    "zipcode": "45403",
    "name": "Flores Magón II",
    "region": "Jalisco",
    "short_region": "14",
    "lat": "20.522200",
    "lon": "-103.333300"
  },
  {
    "id": "710249",
    "country": "MX",
    "zipcode": "45403",
    "name": "Colinas de La Cruz",
    "region": "Jalisco",
    "short_region": "14",
    "lat": "20.522200",
    "lon": "-103.333300"
  },
  {
    "id": "710250",
    "country": "MX",
    "zipcode": "45403",
    "name": "Villas de Guadalupe de Tonalá",
    "region": "Jalisco",
    "short_region": "14",
    "lat": "20.522200",
    "lon": "-103.333300"
  },
  {
    "id": "710251",
    "country": "MX",
    "zipcode": "45403",
    "name": "Plaza Camichines",
    "region": "Jalisco",
    "short_region": "14",
    "lat": "20.522200",
    "lon": "-103.333300"
  },
  {
    "id": "710252",
    "country": "MX",
    "zipcode": "45403",
    "name": "Real Patria",
    "region": "Jalisco",
    "short_region": "14",
    "lat": "20.522200",
    "lon": "-103.333300"
  },
  {
    "id": "710253",
    "country": "MX",
    "zipcode": "45403",
    "name": "Villas de Oriente II",
    "region": "Jalisco",
    "short_region": "14",
    "lat": "20.522200",
    "lon": "-103.333300"
  },
  {
    "id": "710254",
    "country": "MX",
    "zipcode": "45403",
    "name": "Los Camichines II",
    "region": "Jalisco",
    "short_region": "14",
    "lat": "20.522200",
    "lon": "-103.333300"
  },
  {
    "id": "710255",
    "country": "MX",
    "zipcode": "45403",
    "name": "Los Camichines I",
    "region": "Jalisco",
    "short_region": "14",
    "lat": "20.522200",
    "lon": "-103.333300"
  },
  {
    "id": "710256",
    "country": "MX",
    "zipcode": "45403",
    "name": "El Doradito",
    "region": "Jalisco",
    "short_region": "14",
    "lat": "20.522200",
    "lon": "-103.333300"
  },
  {
    "id": "710257",
    "country": "MX",
    "zipcode": "45404",
    "name": "Adobera",
    "region": "Jalisco",
    "short_region": "14",
    "lat": "20.642400",
    "lon": "-103.231400"
  },
  {
    "id": "710258",
    "country": "MX",
    "zipcode": "45404",
    "name": "Rinconada del Rosario",
    "region": "Jalisco",
    "short_region": "14",
    "lat": "20.642400",
    "lon": "-103.231400"
  },
  {
    "id": "710259",
    "country": "MX",
    "zipcode": "45404",
    "name": "Valle Leones",
    "region": "Jalisco",
    "short_region": "14",
    "lat": "20.642400",
    "lon": "-103.231400"
  },
  {
    "id": "710260",
    "country": "MX",
    "zipcode": "45404",
    "name": "El Rosarito",
    "region": "Jalisco",
    "short_region": "14",
    "lat": "20.616800",
    "lon": "-103.213900"
  },
  {
    "id": "710261",
    "country": "MX",
    "zipcode": "45404",
    "name": "Gavilanes",
    "region": "Jalisco",
    "short_region": "14",
    "lat": "20.616800",
    "lon": "-103.213900"
  },
  {
    "id": "710262",
    "country": "MX",
    "zipcode": "45404",
    "name": "Plan",
    "region": "Jalisco",
    "short_region": "14",
    "lat": "20.640300",
    "lon": "-103.203900"
  },
  {
    "id": "710263",
    "country": "MX",
    "zipcode": "45404",
    "name": "El Rosario",
    "region": "Jalisco",
    "short_region": "14",
    "lat": "20.644400",
    "lon": "-103.258900"
  },
  {
    "id": "710264",
    "country": "MX",
    "zipcode": "45404",
    "name": "Águilas",
    "region": "Jalisco",
    "short_region": "14",
    "lat": "20.642400",
    "lon": "-103.231400"
  },
  {
    "id": "710265",
    "country": "MX",
    "zipcode": "45404",
    "name": "Aguajomate",
    "region": "Jalisco",
    "short_region": "14",
    "lat": "20.642400",
    "lon": "-103.231400"
  },
  {
    "id": "710266",
    "country": "MX",
    "zipcode": "45404",
    "name": "20 de Noviembre II",
    "region": "Jalisco",
    "short_region": "14",
    "lat": "20.642400",
    "lon": "-103.231400"
  },
  {
    "id": "710267",
    "country": "MX",
    "zipcode": "45404",
    "name": "Leyes de Reforma",
    "region": "Jalisco",
    "short_region": "14",
    "lat": "20.642400",
    "lon": "-103.231400"
  },
  {
    "id": "710268",
    "country": "MX",
    "zipcode": "45404",
    "name": "Puesta Del Sol",
    "region": "Jalisco",
    "short_region": "14",
    "lat": "20.642400",
    "lon": "-103.231400"
  },
  {
    "id": "710269",
    "country": "MX",
    "zipcode": "45404",
    "name": "Rinconada Del Mezquital",
    "region": "Jalisco",
    "short_region": "14",
    "lat": "20.642400",
    "lon": "-103.231400"
  },
  {
    "id": "710270",
    "country": "MX",
    "zipcode": "45404",
    "name": "La Hortaliza",
    "region": "Jalisco",
    "short_region": "14",
    "lat": "20.642400",
    "lon": "-103.231400"
  },
  {
    "id": "710271",
    "country": "MX",
    "zipcode": "45404",
    "name": "20 de Noviembre I",
    "region": "Jalisco",
    "short_region": "14",
    "lat": "20.642400",
    "lon": "-103.231400"
  },
  {
    "id": "710272",
    "country": "MX",
    "zipcode": "45404",
    "name": "Basilio Badillo II",
    "region": "Jalisco",
    "short_region": "14",
    "lat": "20.642400",
    "lon": "-103.231400"
  },
  {
    "id": "710273",
    "country": "MX",
    "zipcode": "45404",
    "name": "Jardines Del Rosario",
    "region": "Jalisco",
    "short_region": "14",
    "lat": "20.642400",
    "lon": "-103.231400"
  },
  {
    "id": "710274",
    "country": "MX",
    "zipcode": "45404",
    "name": "Valle de La Reyna",
    "region": "Jalisco",
    "short_region": "14",
    "lat": "20.642400",
    "lon": "-103.231400"
  },
  {
    "id": "710275",
    "country": "MX",
    "zipcode": "45404",
    "name": "Puerta del Rosario",
    "region": "Jalisco",
    "short_region": "14",
    "lat": "20.642400",
    "lon": "-103.231400"
  },
  {
    "id": "710276",
    "country": "MX",
    "zipcode": "45404",
    "name": "Plan Rosario",
    "region": "Jalisco",
    "short_region": "14",
    "lat": "20.642400",
    "lon": "-103.231400"
  },
  {
    "id": "710277",
    "country": "MX",
    "zipcode": "45404",
    "name": "Plan Pardo",
    "region": "Jalisco",
    "short_region": "14",
    "lat": "20.642400",
    "lon": "-103.231400"
  },
  {
    "id": "710278",
    "country": "MX",
    "zipcode": "45404",
    "name": "Misión Cantera",
    "region": "Jalisco",
    "short_region": "14",
    "lat": "20.642400",
    "lon": "-103.231400"
  },
  {
    "id": "710279",
    "country": "MX",
    "zipcode": "45404",
    "name": "Jardines de Elizabeth",
    "region": "Jalisco",
    "short_region": "14",
    "lat": "20.642400",
    "lon": "-103.231400"
  },
  {
    "id": "710280",
    "country": "MX",
    "zipcode": "45404",
    "name": "Huerta",
    "region": "Jalisco",
    "short_region": "14",
    "lat": "20.642400",
    "lon": "-103.231400"
  },
  {
    "id": "710281",
    "country": "MX",
    "zipcode": "45404",
    "name": "Educadores Jaliscienses",
    "region": "Jalisco",
    "short_region": "14",
    "lat": "20.642400",
    "lon": "-103.231400"
  },
  {
    "id": "710282",
    "country": "MX",
    "zipcode": "45404",
    "name": "Comunidad Indígena El Rosario",
    "region": "Jalisco",
    "short_region": "14",
    "lat": "20.642400",
    "lon": "-103.231400"
  },
  {
    "id": "710283",
    "country": "MX",
    "zipcode": "45404",
    "name": "Buenavista II",
    "region": "Jalisco",
    "short_region": "14",
    "lat": "20.642400",
    "lon": "-103.231400"
  },
  {
    "id": "710284",
    "country": "MX",
    "zipcode": "45404",
    "name": "Buenavista I",
    "region": "Jalisco",
    "short_region": "14",
    "lat": "20.642400",
    "lon": "-103.231400"
  },
  {
    "id": "710285",
    "country": "MX",
    "zipcode": "45404",
    "name": "Bosques de Tonala Sección II",
    "region": "Jalisco",
    "short_region": "14",
    "lat": "20.642400",
    "lon": "-103.231400"
  },
  {
    "id": "710286",
    "country": "MX",
    "zipcode": "45404",
    "name": "Bosques de Tonala Sección I",
    "region": "Jalisco",
    "short_region": "14",
    "lat": "20.642400",
    "lon": "-103.231400"
  },
  {
    "id": "710287",
    "country": "MX",
    "zipcode": "45404",
    "name": "Balcones del Rosario",
    "region": "Jalisco",
    "short_region": "14",
    "lat": "20.642400",
    "lon": "-103.231400"
  },
  {
    "id": "710288",
    "country": "MX",
    "zipcode": "45405",
    "name": "Las Torres",
    "region": "Jalisco",
    "short_region": "14",
    "lat": "20.616800",
    "lon": "-103.213900"
  },
  {
    "id": "710289",
    "country": "MX",
    "zipcode": "45405",
    "name": "Lomas Del Manantial",
    "region": "Jalisco",
    "short_region": "14",
    "lat": "20.616800",
    "lon": "-103.213900"
  },
  {
    "id": "710290",
    "country": "MX",
    "zipcode": "45405",
    "name": "La Pila",
    "region": "Jalisco",
    "short_region": "14",
    "lat": "20.616800",
    "lon": "-103.213900"
  },
  {
    "id": "710291",
    "country": "MX",
    "zipcode": "45405",
    "name": "Loma Bonita 1a Sección",
    "region": "Jalisco",
    "short_region": "14",
    "lat": "20.652500",
    "lon": "-103.256600"
  },
  {
    "id": "710292",
    "country": "MX",
    "zipcode": "45405",
    "name": "Constancio Hernández Alvirde",
    "region": "Jalisco",
    "short_region": "14",
    "lat": "20.652500",
    "lon": "-103.256600"
  },
  {
    "id": "710293",
    "country": "MX",
    "zipcode": "45405",
    "name": "Loma Bonita 2a Sección",
    "region": "Jalisco",
    "short_region": "14",
    "lat": "20.652500",
    "lon": "-103.256600"
  },
  {
    "id": "710294",
    "country": "MX",
    "zipcode": "45405",
    "name": "Los Manguitos",
    "region": "Jalisco",
    "short_region": "14",
    "lat": "20.652500",
    "lon": "-103.256600"
  },
  {
    "id": "710295",
    "country": "MX",
    "zipcode": "45405",
    "name": "Loma Bonita 3a Sección",
    "region": "Jalisco",
    "short_region": "14",
    "lat": "20.652500",
    "lon": "-103.256600"
  },
  {
    "id": "710296",
    "country": "MX",
    "zipcode": "45405",
    "name": "Ahuacate",
    "region": "Jalisco",
    "short_region": "14",
    "lat": "20.652500",
    "lon": "-103.256600"
  },
  {
    "id": "710297",
    "country": "MX",
    "zipcode": "45405",
    "name": "Altamira",
    "region": "Jalisco",
    "short_region": "14",
    "lat": "20.616800",
    "lon": "-103.213900"
  },
  {
    "id": "710298",
    "country": "MX",
    "zipcode": "45405",
    "name": "Zalatitan",
    "region": "Jalisco",
    "short_region": "14",
    "lat": "20.652500",
    "lon": "-103.256600"
  },
  {
    "id": "710299",
    "country": "MX",
    "zipcode": "45406",
    "name": "Los Pinos",
    "region": "Jalisco",
    "short_region": "14",
    "lat": "20.616800",
    "lon": "-103.213900"
  },
  {
    "id": "710300",
    "country": "MX",
    "zipcode": "45406",
    "name": "Paraíso",
    "region": "Jalisco",
    "short_region": "14",
    "lat": "20.616800",
    "lon": "-103.213900"
  },
  {
    "id": "710301",
    "country": "MX",
    "zipcode": "45406",
    "name": "Jacarandas",
    "region": "Jalisco",
    "short_region": "14",
    "lat": "20.616800",
    "lon": "-103.213900"
  },
  {
    "id": "710302",
    "country": "MX",
    "zipcode": "45406",
    "name": "Girasoles",
    "region": "Jalisco",
    "short_region": "14",
    "lat": "20.616800",
    "lon": "-103.213900"
  },
  {
    "id": "710303",
    "country": "MX",
    "zipcode": "45406",
    "name": "Arroyo Seco",
    "region": "Jalisco",
    "short_region": "14",
    "lat": "20.616800",
    "lon": "-103.213900"
  },
  {
    "id": "710304",
    "country": "MX",
    "zipcode": "45406",
    "name": "Potrero San Francisco",
    "region": "Jalisco",
    "short_region": "14",
    "lat": "20.426700",
    "lon": "-103.198900"
  },
  {
    "id": "710305",
    "country": "MX",
    "zipcode": "45406",
    "name": "Geranios",
    "region": "Jalisco",
    "short_region": "14",
    "lat": "20.426700",
    "lon": "-103.198900"
  },
  {
    "id": "710306",
    "country": "MX",
    "zipcode": "45406",
    "name": "Quintas del Paraíso",
    "region": "Jalisco",
    "short_region": "14",
    "lat": "20.426700",
    "lon": "-103.198900"
  },
  {
    "id": "710307",
    "country": "MX",
    "zipcode": "45406",
    "name": "Basilio Badillo",
    "region": "Jalisco",
    "short_region": "14",
    "lat": "20.616800",
    "lon": "-103.213900"
  },
  {
    "id": "710308",
    "country": "MX",
    "zipcode": "45406",
    "name": "Rinconada Paraíso",
    "region": "Jalisco",
    "short_region": "14",
    "lat": "20.426700",
    "lon": "-103.198900"
  },
  {
    "id": "710309",
    "country": "MX",
    "zipcode": "45406",
    "name": "Paseo de Tonala",
    "region": "Jalisco",
    "short_region": "14",
    "lat": "20.426700",
    "lon": "-103.198900"
  },
  {
    "id": "710310",
    "country": "MX",
    "zipcode": "45406",
    "name": "Villas Zalatitán",
    "region": "Jalisco",
    "short_region": "14",
    "lat": "20.426700",
    "lon": "-103.198900"
  },
  {
    "id": "710311",
    "country": "MX",
    "zipcode": "45406",
    "name": "Rincón del Paraíso",
    "region": "Jalisco",
    "short_region": "14",
    "lat": "20.426700",
    "lon": "-103.198900"
  },
  {
    "id": "710312",
    "country": "MX",
    "zipcode": "45406",
    "name": "Arcos de Zalatitan II",
    "region": "Jalisco",
    "short_region": "14",
    "lat": "20.426700",
    "lon": "-103.198900"
  },
  {
    "id": "710313",
    "country": "MX",
    "zipcode": "45406",
    "name": "Pinar de las Palomas I",
    "region": "Jalisco",
    "short_region": "14",
    "lat": "20.426700",
    "lon": "-103.198900"
  },
  {
    "id": "710314",
    "country": "MX",
    "zipcode": "45406",
    "name": "Arcos de Zalatitan",
    "region": "Jalisco",
    "short_region": "14",
    "lat": "20.426700",
    "lon": "-103.198900"
  },
  {
    "id": "710315",
    "country": "MX",
    "zipcode": "45406",
    "name": "Pinar de las Palomas",
    "region": "Jalisco",
    "short_region": "14",
    "lat": "20.426700",
    "lon": "-103.198900"
  },
  {
    "id": "710316",
    "country": "MX",
    "zipcode": "45406",
    "name": "Pinar de las Palomas II",
    "region": "Jalisco",
    "short_region": "14",
    "lat": "20.426700",
    "lon": "-103.198900"
  },
  {
    "id": "710317",
    "country": "MX",
    "zipcode": "45407",
    "name": "Los Manantiales",
    "region": "Jalisco",
    "short_region": "14",
    "lat": "20.639000",
    "lon": "-103.073300"
  },
  {
    "id": "710318",
    "country": "MX",
    "zipcode": "45407",
    "name": "Alamedas de Zalatitán",
    "region": "Jalisco",
    "short_region": "14",
    "lat": "20.639000",
    "lon": "-103.073300"
  },
  {
    "id": "710319",
    "country": "MX",
    "zipcode": "45407",
    "name": "Los Camichines 2",
    "region": "Jalisco",
    "short_region": "14",
    "lat": "20.639000",
    "lon": "-103.073300"
  },
  {
    "id": "710320",
    "country": "MX",
    "zipcode": "45407",
    "name": "La Villa",
    "region": "Jalisco",
    "short_region": "14",
    "lat": "20.616800",
    "lon": "-103.213900"
  },
  {
    "id": "710321",
    "country": "MX",
    "zipcode": "45407",
    "name": "Lomas de Zalatitan",
    "region": "Jalisco",
    "short_region": "14",
    "lat": "20.639000",
    "lon": "-103.073300"
  },
  {
    "id": "710322",
    "country": "MX",
    "zipcode": "45407",
    "name": "Del Laurel",
    "region": "Jalisco",
    "short_region": "14",
    "lat": "20.639000",
    "lon": "-103.073300"
  },
  {
    "id": "710323",
    "country": "MX",
    "zipcode": "45407",
    "name": "Lomas Del Laurel",
    "region": "Jalisco",
    "short_region": "14",
    "lat": "20.639000",
    "lon": "-103.073300"
  },
  {
    "id": "710324",
    "country": "MX",
    "zipcode": "45407",
    "name": "Misión de San Francisco",
    "region": "Jalisco",
    "short_region": "14",
    "lat": "20.639000",
    "lon": "-103.073300"
  },
  {
    "id": "710325",
    "country": "MX",
    "zipcode": "45407",
    "name": "Los Camichines 3",
    "region": "Jalisco",
    "short_region": "14",
    "lat": "20.639000",
    "lon": "-103.073300"
  },
  {
    "id": "710326",
    "country": "MX",
    "zipcode": "45407",
    "name": "La Arena",
    "region": "Jalisco",
    "short_region": "14",
    "lat": "20.616800",
    "lon": "-103.213900"
  },
  {
    "id": "710327",
    "country": "MX",
    "zipcode": "45407",
    "name": "Los Camichines",
    "region": "Jalisco",
    "short_region": "14",
    "lat": "20.616800",
    "lon": "-103.213900"
  },
  {
    "id": "710328",
    "country": "MX",
    "zipcode": "45407",
    "name": "El Molino",
    "region": "Jalisco",
    "short_region": "14",
    "lat": "20.616800",
    "lon": "-103.213900"
  },
  {
    "id": "710329",
    "country": "MX",
    "zipcode": "45407",
    "name": "El Caracol",
    "region": "Jalisco",
    "short_region": "14",
    "lat": "20.616800",
    "lon": "-103.213900"
  },
  {
    "id": "710330",
    "country": "MX",
    "zipcode": "45407",
    "name": "La Cruz",
    "region": "Jalisco",
    "short_region": "14",
    "lat": "20.650000",
    "lon": "-103.200000"
  },
  {
    "id": "710331",
    "country": "MX",
    "zipcode": "45408",
    "name": "La Perseverancia",
    "region": "Jalisco",
    "short_region": "14",
    "lat": "20.649700",
    "lon": "-103.231600"
  },
  {
    "id": "710332",
    "country": "MX",
    "zipcode": "45408",
    "name": "Lomas Gaspar",
    "region": "Jalisco",
    "short_region": "14",
    "lat": "20.649700",
    "lon": "-103.231600"
  },
  {
    "id": "710333",
    "country": "MX",
    "zipcode": "45408",
    "name": "Poder Popular 3a Sección",
    "region": "Jalisco",
    "short_region": "14",
    "lat": "20.649700",
    "lon": "-103.231600"
  },
  {
    "id": "710334",
    "country": "MX",
    "zipcode": "45408",
    "name": "La Pila de San Gaspar",
    "region": "Jalisco",
    "short_region": "14",
    "lat": "20.649700",
    "lon": "-103.231600"
  },
  {
    "id": "710335",
    "country": "MX",
    "zipcode": "45408",
    "name": "Arboledas de San Gaspar",
    "region": "Jalisco",
    "short_region": "14",
    "lat": "20.649700",
    "lon": "-103.231600"
  },
  {
    "id": "710336",
    "country": "MX",
    "zipcode": "45408",
    "name": "Huertas de San Gaspar",
    "region": "Jalisco",
    "short_region": "14",
    "lat": "20.649700",
    "lon": "-103.231600"
  },
  {
    "id": "710337",
    "country": "MX",
    "zipcode": "45408",
    "name": "Huertas del Valle",
    "region": "Jalisco",
    "short_region": "14",
    "lat": "20.649700",
    "lon": "-103.231600"
  },
  {
    "id": "710338",
    "country": "MX",
    "zipcode": "45408",
    "name": "López Cotilla",
    "region": "Jalisco",
    "short_region": "14",
    "lat": "20.649700",
    "lon": "-103.231600"
  },
  {
    "id": "710339",
    "country": "MX",
    "zipcode": "45408",
    "name": "La Cañada",
    "region": "Jalisco",
    "short_region": "14",
    "lat": "20.593300",
    "lon": "-103.207500"
  },
  {
    "id": "710340",
    "country": "MX",
    "zipcode": "45408",
    "name": "Alamedas de San Gaspar",
    "region": "Jalisco",
    "short_region": "14",
    "lat": "20.649700",
    "lon": "-103.231600"
  },
  {
    "id": "710341",
    "country": "MX",
    "zipcode": "45408",
    "name": "Arroyo",
    "region": "Jalisco",
    "short_region": "14",
    "lat": "20.649700",
    "lon": "-103.231600"
  },
  {
    "id": "710342",
    "country": "MX",
    "zipcode": "45408",
    "name": "Bajío San Gaspar",
    "region": "Jalisco",
    "short_region": "14",
    "lat": "20.649700",
    "lon": "-103.231600"
  },
  {
    "id": "710343",
    "country": "MX",
    "zipcode": "45408",
    "name": "San Gaspar de las Flores",
    "region": "Jalisco",
    "short_region": "14",
    "lat": "20.678000",
    "lon": "-103.243600"
  },
  {
    "id": "710344",
    "country": "MX",
    "zipcode": "45408",
    "name": "San Gaspar",
    "region": "Jalisco",
    "short_region": "14",
    "lat": "20.678000",
    "lon": "-103.243600"
  },
  {
    "id": "710345",
    "country": "MX",
    "zipcode": "45408",
    "name": "Jazmín",
    "region": "Jalisco",
    "short_region": "14",
    "lat": "20.616800",
    "lon": "-103.213900"
  },
  {
    "id": "710346",
    "country": "MX",
    "zipcode": "45408",
    "name": "La Mojonera",
    "region": "Jalisco",
    "short_region": "14",
    "lat": "20.616800",
    "lon": "-103.213900"
  },
  {
    "id": "710347",
    "country": "MX",
    "zipcode": "45410",
    "name": "Rinconada",
    "region": "Jalisco",
    "short_region": "14",
    "lat": "20.616800",
    "lon": "-103.213900"
  },
  {
    "id": "710348",
    "country": "MX",
    "zipcode": "45410",
    "name": "Juárez",
    "region": "Jalisco",
    "short_region": "14",
    "lat": "20.616800",
    "lon": "-103.213900"
  },
  {
    "id": "710349",
    "country": "MX",
    "zipcode": "45410",
    "name": "Rancho La Cruz",
    "region": "Jalisco",
    "short_region": "14",
    "lat": "20.616800",
    "lon": "-103.213900"
  },
  {
    "id": "710350",
    "country": "MX",
    "zipcode": "45410",
    "name": "Llano Verde",
    "region": "Jalisco",
    "short_region": "14",
    "lat": "20.616800",
    "lon": "-103.213900"
  },
  {
    "id": "710351",
    "country": "MX",
    "zipcode": "45410",
    "name": "Vergel",
    "region": "Jalisco",
    "short_region": "14",
    "lat": "20.616800",
    "lon": "-103.213900"
  },
  {
    "id": "710352",
    "country": "MX",
    "zipcode": "45410",
    "name": "Puerta Sol",
    "region": "Jalisco",
    "short_region": "14",
    "lat": "20.616800",
    "lon": "-103.213900"
  },
  {
    "id": "710353",
    "country": "MX",
    "zipcode": "45410",
    "name": "Duque",
    "region": "Jalisco",
    "short_region": "14",
    "lat": "20.577400",
    "lon": "-103.233200"
  },
  {
    "id": "710354",
    "country": "MX",
    "zipcode": "45410",
    "name": "San Coyula",
    "region": "Jalisco",
    "short_region": "14",
    "lat": "20.577400",
    "lon": "-103.233200"
  },
  {
    "id": "710355",
    "country": "MX",
    "zipcode": "45410",
    "name": "Rinconada de San Lorenzo",
    "region": "Jalisco",
    "short_region": "14",
    "lat": "20.577400",
    "lon": "-103.233200"
  },
  {
    "id": "710356",
    "country": "MX",
    "zipcode": "45410",
    "name": "Real Cruz",
    "region": "Jalisco",
    "short_region": "14",
    "lat": "20.577400",
    "lon": "-103.233200"
  },
  {
    "id": "710357",
    "country": "MX",
    "zipcode": "45410",
    "name": "Jardines de La Reyna",
    "region": "Jalisco",
    "short_region": "14",
    "lat": "20.577400",
    "lon": "-103.233200"
  },
  {
    "id": "710358",
    "country": "MX",
    "zipcode": "45410",
    "name": "Rinconada de La Cruz",
    "region": "Jalisco",
    "short_region": "14",
    "lat": "20.577400",
    "lon": "-103.233200"
  },
  {
    "id": "710359",
    "country": "MX",
    "zipcode": "45410",
    "name": "Rinconada de Coyula",
    "region": "Jalisco",
    "short_region": "14",
    "lat": "20.577400",
    "lon": "-103.233200"
  },
  {
    "id": "710360",
    "country": "MX",
    "zipcode": "45410",
    "name": "Rancho de los Alvarez",
    "region": "Jalisco",
    "short_region": "14",
    "lat": "20.577400",
    "lon": "-103.233200"
  },
  {
    "id": "710361",
    "country": "MX",
    "zipcode": "45410",
    "name": "Arboleda Tonala",
    "region": "Jalisco",
    "short_region": "14",
    "lat": "20.577400",
    "lon": "-103.233200"
  },
  {
    "id": "710362",
    "country": "MX",
    "zipcode": "45410",
    "name": "Cerrito de La Reyna",
    "region": "Jalisco",
    "short_region": "14",
    "lat": "20.577400",
    "lon": "-103.233200"
  },
  {
    "id": "710363",
    "country": "MX",
    "zipcode": "45410",
    "name": "Urbi Villa del Río",
    "region": "Jalisco",
    "short_region": "14",
    "lat": "20.577400",
    "lon": "-103.233200"
  },
  {
    "id": "710364",
    "country": "MX",
    "zipcode": "45410",
    "name": "Privadas de la Reyna",
    "region": "Jalisco",
    "short_region": "14",
    "lat": "20.577400",
    "lon": "-103.233200"
  },
  {
    "id": "710365",
    "country": "MX",
    "zipcode": "45410",
    "name": "Urbi Quinta Montecarlo",
    "region": "Jalisco",
    "short_region": "14",
    "lat": "20.577400",
    "lon": "-103.233200"
  },
  {
    "id": "710366",
    "country": "MX",
    "zipcode": "45410",
    "name": "Los Vizcarra",
    "region": "Jalisco",
    "short_region": "14",
    "lat": "20.642200",
    "lon": "-103.235800"
  },
  {
    "id": "710367",
    "country": "MX",
    "zipcode": "45410",
    "name": "Coyula",
    "region": "Jalisco",
    "short_region": "14",
    "lat": "20.658800",
    "lon": "-103.226500"
  },
  {
    "id": "710368",
    "country": "MX",
    "zipcode": "45410",
    "name": "El Panorámico",
    "region": "Jalisco",
    "short_region": "14",
    "lat": "20.577400",
    "lon": "-103.233200"
  },
  {
    "id": "710369",
    "country": "MX",
    "zipcode": "45410",
    "name": "Prados de la Cruz",
    "region": "Jalisco",
    "short_region": "14",
    "lat": "20.577400",
    "lon": "-103.233200"
  },
  {
    "id": "710370",
    "country": "MX",
    "zipcode": "45410",
    "name": "Prados de Coyula Sección II",
    "region": "Jalisco",
    "short_region": "14",
    "lat": "20.577400",
    "lon": "-103.233200"
  },
  {
    "id": "710371",
    "country": "MX",
    "zipcode": "45410",
    "name": "Prados de Coyula Sección I",
    "region": "Jalisco",
    "short_region": "14",
    "lat": "20.577400",
    "lon": "-103.233200"
  },
  {
    "id": "710372",
    "country": "MX",
    "zipcode": "45410",
    "name": "Misión de los Viñedos",
    "region": "Jalisco",
    "short_region": "14",
    "lat": "20.577400",
    "lon": "-103.233200"
  },
  {
    "id": "710373",
    "country": "MX",
    "zipcode": "45410",
    "name": "Mesa de las Gamboas",
    "region": "Jalisco",
    "short_region": "14",
    "lat": "20.577400",
    "lon": "-103.233200"
  },
  {
    "id": "710374",
    "country": "MX",
    "zipcode": "45410",
    "name": "Haciendas de la Reina",
    "region": "Jalisco",
    "short_region": "14",
    "lat": "20.577400",
    "lon": "-103.233200"
  },
  {
    "id": "710375",
    "country": "MX",
    "zipcode": "45410",
    "name": "El Panorámico 2",
    "region": "Jalisco",
    "short_region": "14",
    "lat": "20.577400",
    "lon": "-103.233200"
  },
  {
    "id": "710376",
    "country": "MX",
    "zipcode": "45410",
    "name": "Buena Mirada",
    "region": "Jalisco",
    "short_region": "14",
    "lat": "20.577400",
    "lon": "-103.233200"
  },
  {
    "id": "710377",
    "country": "MX",
    "zipcode": "45410",
    "name": "Cruz Loma",
    "region": "Jalisco",
    "short_region": "14",
    "lat": "20.577400",
    "lon": "-103.233200"
  },
  {
    "id": "710378",
    "country": "MX",
    "zipcode": "45410",
    "name": "Villas Cruz",
    "region": "Jalisco",
    "short_region": "14",
    "lat": "20.577400",
    "lon": "-103.233200"
  },
  {
    "id": "710379",
    "country": "MX",
    "zipcode": "45410",
    "name": "Valle Verde",
    "region": "Jalisco",
    "short_region": "14",
    "lat": "20.577400",
    "lon": "-103.233200"
  },
  {
    "id": "710380",
    "country": "MX",
    "zipcode": "45412",
    "name": "La Noria",
    "region": "Jalisco",
    "short_region": "14",
    "lat": "20.616800",
    "lon": "-103.213900"
  },
  {
    "id": "710381",
    "country": "MX",
    "zipcode": "45412",
    "name": "Francisco Villa",
    "region": "Jalisco",
    "short_region": "14",
    "lat": "20.616800",
    "lon": "-103.213900"
  },
  {
    "id": "710382",
    "country": "MX",
    "zipcode": "45412",
    "name": "Emiliano Zapata",
    "region": "Jalisco",
    "short_region": "14",
    "lat": "20.616800",
    "lon": "-103.213900"
  },
  {
    "id": "710383",
    "country": "MX",
    "zipcode": "45412",
    "name": "Colimilla",
    "region": "Jalisco",
    "short_region": "14",
    "lat": "20.616800",
    "lon": "-103.213900"
  },
  {
    "id": "710384",
    "country": "MX",
    "zipcode": "45412",
    "name": "Los Conejos",
    "region": "Jalisco",
    "short_region": "14",
    "lat": "20.616800",
    "lon": "-103.213900"
  },
  {
    "id": "710385",
    "country": "MX",
    "zipcode": "45412",
    "name": "La Resolana",
    "region": "Jalisco",
    "short_region": "14",
    "lat": "20.616800",
    "lon": "-103.213900"
  },
  {
    "id": "710386",
    "country": "MX",
    "zipcode": "45412",
    "name": "Lázaro Cárdenas (Barranquitas)",
    "region": "Jalisco",
    "short_region": "14",
    "lat": "20.631400",
    "lon": "-103.248800"
  },
  {
    "id": "710387",
    "country": "MX",
    "zipcode": "45412",
    "name": "Gallos Viejos",
    "region": "Jalisco",
    "short_region": "14",
    "lat": "20.631400",
    "lon": "-103.248800"
  },
  {
    "id": "710388",
    "country": "MX",
    "zipcode": "45412",
    "name": "Jalisco 1a. Sección",
    "region": "Jalisco",
    "short_region": "14",
    "lat": "20.631400",
    "lon": "-103.248800"
  },
  {
    "id": "710389",
    "country": "MX",
    "zipcode": "45412",
    "name": "Mirador Oriente",
    "region": "Jalisco",
    "short_region": "14",
    "lat": "20.631400",
    "lon": "-103.248800"
  },
  {
    "id": "710390",
    "country": "MX",
    "zipcode": "45412",
    "name": "Jalisco 2a. Sección",
    "region": "Jalisco",
    "short_region": "14",
    "lat": "20.631400",
    "lon": "-103.248800"
  },
  {
    "id": "710391",
    "country": "MX",
    "zipcode": "45412",
    "name": "El Ahuatan",
    "region": "Jalisco",
    "short_region": "14",
    "lat": "20.631400",
    "lon": "-103.248800"
  },
  {
    "id": "710392",
    "country": "MX",
    "zipcode": "45412",
    "name": "Loma de San Gaspar",
    "region": "Jalisco",
    "short_region": "14",
    "lat": "20.631400",
    "lon": "-103.248800"
  },
  {
    "id": "710393",
    "country": "MX",
    "zipcode": "45412",
    "name": "La Presa",
    "region": "Jalisco",
    "short_region": "14",
    "lat": "20.564400",
    "lon": "-103.230800"
  },
  {
    "id": "710394",
    "country": "MX",
    "zipcode": "45412",
    "name": "Nuevo Israel",
    "region": "Jalisco",
    "short_region": "14",
    "lat": "20.698300",
    "lon": "-103.266700"
  },
  {
    "id": "710395",
    "country": "MX",
    "zipcode": "45413",
    "name": "Residencias el Prado (Jardines del Prado)",
    "region": "Jalisco",
    "short_region": "14",
    "lat": "20.684700",
    "lon": "-103.218900"
  },
  {
    "id": "710396",
    "country": "MX",
    "zipcode": "45413",
    "name": "Poder Popular 4a Sección",
    "region": "Jalisco",
    "short_region": "14",
    "lat": "20.628700",
    "lon": "-103.297600"
  },
  {
    "id": "710397",
    "country": "MX",
    "zipcode": "45413",
    "name": "Poder Popular 5a Sección",
    "region": "Jalisco",
    "short_region": "14",
    "lat": "20.628700",
    "lon": "-103.297600"
  },
  {
    "id": "710398",
    "country": "MX",
    "zipcode": "45413",
    "name": "Colosio",
    "region": "Jalisco",
    "short_region": "14",
    "lat": "20.628700",
    "lon": "-103.297600"
  },
  {
    "id": "710399",
    "country": "MX",
    "zipcode": "45413",
    "name": "Lázaro Cárdenas",
    "region": "Jalisco",
    "short_region": "14",
    "lat": "20.616800",
    "lon": "-103.213900"
  },
  {
    "id": "710400",
    "country": "MX",
    "zipcode": "45413",
    "name": "Surcos Largos",
    "region": "Jalisco",
    "short_region": "14",
    "lat": "20.616800",
    "lon": "-103.213900"
  },
  {
    "id": "710401",
    "country": "MX",
    "zipcode": "45413",
    "name": "Potrero de San Jose",
    "region": "Jalisco",
    "short_region": "14",
    "lat": "20.616800",
    "lon": "-103.213900"
  },
  {
    "id": "710402",
    "country": "MX",
    "zipcode": "45413",
    "name": "Tulipanes",
    "region": "Jalisco",
    "short_region": "14",
    "lat": "20.616800",
    "lon": "-103.213900"
  },
  {
    "id": "710403",
    "country": "MX",
    "zipcode": "45414",
    "name": "El Recodo",
    "region": "Jalisco",
    "short_region": "14",
    "lat": "20.616800",
    "lon": "-103.213900"
  },
  {
    "id": "710404",
    "country": "MX",
    "zipcode": "45416",
    "name": "Bosques de Tonala",
    "region": "Jalisco",
    "short_region": "14",
    "lat": "20.599400",
    "lon": "-103.217800"
  },
  {
    "id": "710405",
    "country": "MX",
    "zipcode": "45417",
    "name": "Cerro de La Campana",
    "region": "Jalisco",
    "short_region": "14",
    "lat": "20.616800",
    "lon": "-103.213900"
  },
  {
    "id": "710406",
    "country": "MX",
    "zipcode": "45417",
    "name": "Rancho La Campana",
    "region": "Jalisco",
    "short_region": "14",
    "lat": "20.616800",
    "lon": "-103.213900"
  },
  {
    "id": "710407",
    "country": "MX",
    "zipcode": "45417",
    "name": "El Moral",
    "region": "Jalisco",
    "short_region": "14",
    "lat": "20.625600",
    "lon": "-103.214200"
  },
  {
    "id": "710408",
    "country": "MX",
    "zipcode": "45417",
    "name": "Jardines de La Cruz Oriente",
    "region": "Jalisco",
    "short_region": "14",
    "lat": "20.625600",
    "lon": "-103.214200"
  },
  {
    "id": "710409",
    "country": "MX",
    "zipcode": "45417",
    "name": "Plan del Guaje",
    "region": "Jalisco",
    "short_region": "14",
    "lat": "20.625600",
    "lon": "-103.214200"
  },
  {
    "id": "710410",
    "country": "MX",
    "zipcode": "45417",
    "name": "Hacienda La Loma o El Casco",
    "region": "Jalisco",
    "short_region": "14",
    "lat": "20.625600",
    "lon": "-103.214200"
  },
  {
    "id": "710411",
    "country": "MX",
    "zipcode": "45418",
    "name": "Las Cañadas",
    "region": "Jalisco",
    "short_region": "14",
    "lat": "20.621400",
    "lon": "-103.197800"
  },
  {
    "id": "710412",
    "country": "MX",
    "zipcode": "45419",
    "name": "Rey Xolotl",
    "region": "Jalisco",
    "short_region": "14",
    "lat": "20.609900",
    "lon": "-103.242200"
  },
  {
    "id": "710413",
    "country": "MX",
    "zipcode": "45420",
    "name": "La Gigantera",
    "region": "Jalisco",
    "short_region": "14",
    "lat": "20.634400",
    "lon": "-103.220300"
  },
  {
    "id": "710414",
    "country": "MX",
    "zipcode": "45420",
    "name": "La Liga",
    "region": "Jalisco",
    "short_region": "14",
    "lat": "20.634400",
    "lon": "-103.220300"
  },
  {
    "id": "710415",
    "country": "MX",
    "zipcode": "45420",
    "name": "Los Puestos",
    "region": "Jalisco",
    "short_region": "14",
    "lat": "20.634400",
    "lon": "-103.220300"
  },
  {
    "id": "710416",
    "country": "MX",
    "zipcode": "45420",
    "name": "Poder Popular 2a Sección",
    "region": "Jalisco",
    "short_region": "14",
    "lat": "20.634400",
    "lon": "-103.220300"
  },
  {
    "id": "710417",
    "country": "MX",
    "zipcode": "45420",
    "name": "Residencial Misión de Guadalupe",
    "region": "Jalisco",
    "short_region": "14",
    "lat": "20.634400",
    "lon": "-103.220300"
  },
  {
    "id": "710418",
    "country": "MX",
    "zipcode": "45420",
    "name": "Santa Paula",
    "region": "Jalisco",
    "short_region": "14",
    "lat": "20.634400",
    "lon": "-103.220300"
  },
  {
    "id": "710419",
    "country": "MX",
    "zipcode": "45420",
    "name": "Santa Rosa",
    "region": "Jalisco",
    "short_region": "14",
    "lat": "20.616800",
    "lon": "-103.213900"
  },
  {
    "id": "710420",
    "country": "MX",
    "zipcode": "45420",
    "name": "La Puerta",
    "region": "Jalisco",
    "short_region": "14",
    "lat": "20.616800",
    "lon": "-103.213900"
  },
  {
    "id": "710421",
    "country": "MX",
    "zipcode": "45420",
    "name": "Potrerillo",
    "region": "Jalisco",
    "short_region": "14",
    "lat": "20.616800",
    "lon": "-103.213900"
  },
  {
    "id": "710422",
    "country": "MX",
    "zipcode": "45420",
    "name": "El Rincón",
    "region": "Jalisco",
    "short_region": "14",
    "lat": "20.616800",
    "lon": "-103.213900"
  },
  {
    "id": "710423",
    "country": "MX",
    "zipcode": "45420",
    "name": "El Bordo",
    "region": "Jalisco",
    "short_region": "14",
    "lat": "20.616800",
    "lon": "-103.213900"
  },
  {
    "id": "710424",
    "country": "MX",
    "zipcode": "45420",
    "name": "Santa Isabel",
    "region": "Jalisco",
    "short_region": "14",
    "lat": "20.616800",
    "lon": "-103.213900"
  },
  {
    "id": "710425",
    "country": "MX",
    "zipcode": "45420",
    "name": "La Severiana",
    "region": "Jalisco",
    "short_region": "14",
    "lat": "20.634400",
    "lon": "-103.220300"
  },
  {
    "id": "710426",
    "country": "MX",
    "zipcode": "45420",
    "name": "La Pilita",
    "region": "Jalisco",
    "short_region": "14",
    "lat": "20.634400",
    "lon": "-103.220300"
  },
  {
    "id": "710427",
    "country": "MX",
    "zipcode": "45420",
    "name": "Ojo de Agua",
    "region": "Jalisco",
    "short_region": "14",
    "lat": "20.634400",
    "lon": "-103.220300"
  },
  {
    "id": "710428",
    "country": "MX",
    "zipcode": "45422",
    "name": "Mismaloya (Pedregal de Santa Martha)",
    "region": "Jalisco",
    "short_region": "14",
    "lat": "20.606900",
    "lon": "-103.171400"
  },
  {
    "id": "710429",
    "country": "MX",
    "zipcode": "45422",
    "name": "Encinos",
    "region": "Jalisco",
    "short_region": "14",
    "lat": "20.616800",
    "lon": "-103.213900"
  },
  {
    "id": "710430",
    "country": "MX",
    "zipcode": "45422",
    "name": "El Arenal",
    "region": "Jalisco",
    "short_region": "14",
    "lat": "20.616800",
    "lon": "-103.213900"
  },
  {
    "id": "710431",
    "country": "MX",
    "zipcode": "45422",
    "name": "Gallo Colorado",
    "region": "Jalisco",
    "short_region": "14",
    "lat": "20.618100",
    "lon": "-103.218100"
  },
  {
    "id": "710432",
    "country": "MX",
    "zipcode": "45422",
    "name": "Colinas Tonalá",
    "region": "Jalisco",
    "short_region": "14",
    "lat": "20.618900",
    "lon": "-103.191500"
  },
  {
    "id": "710433",
    "country": "MX",
    "zipcode": "45422",
    "name": "Vistas del Pedregal",
    "region": "Jalisco",
    "short_region": "14",
    "lat": "20.618900",
    "lon": "-103.191500"
  },
  {
    "id": "710434",
    "country": "MX",
    "zipcode": "45422",
    "name": "Potrero de Jauja",
    "region": "Jalisco",
    "short_region": "14",
    "lat": "20.618900",
    "lon": "-103.191500"
  },
  {
    "id": "710435",
    "country": "MX",
    "zipcode": "45422",
    "name": "Lomas de San Miguel",
    "region": "Jalisco",
    "short_region": "14",
    "lat": "20.618900",
    "lon": "-103.191500"
  },
  {
    "id": "710436",
    "country": "MX",
    "zipcode": "45422",
    "name": "Rancho Sánchez",
    "region": "Jalisco",
    "short_region": "14",
    "lat": "20.618900",
    "lon": "-103.191500"
  },
  {
    "id": "710437",
    "country": "MX",
    "zipcode": "45422",
    "name": "La Loma",
    "region": "Jalisco",
    "short_region": "14",
    "lat": "20.650600",
    "lon": "-103.211700"
  },
  {
    "id": "710438",
    "country": "MX",
    "zipcode": "45422",
    "name": "Ocotillo",
    "region": "Jalisco",
    "short_region": "14",
    "lat": "20.603100",
    "lon": "-103.207200"
  },
  {
    "id": "710439",
    "country": "MX",
    "zipcode": "45422",
    "name": "Los Amiales",
    "region": "Jalisco",
    "short_region": "14",
    "lat": "20.614200",
    "lon": "-103.230600"
  },
  {
    "id": "710440",
    "country": "MX",
    "zipcode": "45424",
    "name": "Puente Viejo",
    "region": "Jalisco",
    "short_region": "14",
    "lat": "20.569200",
    "lon": "-103.190600"
  },
  {
    "id": "710441",
    "country": "MX",
    "zipcode": "45424",
    "name": "Fuerte",
    "region": "Jalisco",
    "short_region": "14",
    "lat": "20.537600",
    "lon": "-103.217800"
  },
  {
    "id": "710442",
    "country": "MX",
    "zipcode": "45424",
    "name": "Lomas del Salto",
    "region": "Jalisco",
    "short_region": "14",
    "lat": "20.616800",
    "lon": "-103.213900"
  },
  {
    "id": "710443",
    "country": "MX",
    "zipcode": "45424",
    "name": "Pinar Paz",
    "region": "Jalisco",
    "short_region": "14",
    "lat": "20.537600",
    "lon": "-103.217800"
  },
  {
    "id": "710444",
    "country": "MX",
    "zipcode": "45424",
    "name": "San Francisco de La Soledad",
    "region": "Jalisco",
    "short_region": "14",
    "lat": "20.537600",
    "lon": "-103.217800"
  },
  {
    "id": "710445",
    "country": "MX",
    "zipcode": "45425",
    "name": "La Guadalupana",
    "region": "Jalisco",
    "short_region": "14",
    "lat": "20.593500",
    "lon": "-103.193700"
  },
  {
    "id": "710446",
    "country": "MX",
    "zipcode": "45425",
    "name": "Lomas de San Miguel II",
    "region": "Jalisco",
    "short_region": "14",
    "lat": "20.593500",
    "lon": "-103.193700"
  },
  {
    "id": "710447",
    "country": "MX",
    "zipcode": "45425",
    "name": "Luis Alonso González",
    "region": "Jalisco",
    "short_region": "14",
    "lat": "20.593500",
    "lon": "-103.193700"
  },
  {
    "id": "710448",
    "country": "MX",
    "zipcode": "45425",
    "name": "Vasconcelos",
    "region": "Jalisco",
    "short_region": "14",
    "lat": "20.593500",
    "lon": "-103.193700"
  },
  {
    "id": "710449",
    "country": "MX",
    "zipcode": "45425",
    "name": "San Miguel de La Punta",
    "region": "Jalisco",
    "short_region": "14",
    "lat": "20.593500",
    "lon": "-103.193700"
  },
  {
    "id": "710450",
    "country": "MX",
    "zipcode": "45425",
    "name": "Lomas de San Miguel",
    "region": "Jalisco",
    "short_region": "14",
    "lat": "20.593500",
    "lon": "-103.193700"
  },
  {
    "id": "710451",
    "country": "MX",
    "zipcode": "45426",
    "name": "Arroyo de Enmedio",
    "region": "Jalisco",
    "short_region": "14",
    "lat": "20.593500",
    "lon": "-103.193700"
  },
  {
    "id": "710452",
    "country": "MX",
    "zipcode": "45427",
    "name": "Ejidal del Sol",
    "region": "Jalisco",
    "short_region": "14",
    "lat": "20.559700",
    "lon": "-103.167300"
  },
  {
    "id": "710453",
    "country": "MX",
    "zipcode": "45427",
    "name": "El Jordan",
    "region": "Jalisco",
    "short_region": "14",
    "lat": "20.559700",
    "lon": "-103.167300"
  },
  {
    "id": "710454",
    "country": "MX",
    "zipcode": "45427",
    "name": "Hipódromo",
    "region": "Jalisco",
    "short_region": "14",
    "lat": "20.559700",
    "lon": "-103.167300"
  },
  {
    "id": "710455",
    "country": "MX",
    "zipcode": "45427",
    "name": "Real Fresno",
    "region": "Jalisco",
    "short_region": "14",
    "lat": "20.559700",
    "lon": "-103.167300"
  },
  {
    "id": "710456",
    "country": "MX",
    "zipcode": "45427",
    "name": "Tololotlan",
    "region": "Jalisco",
    "short_region": "14",
    "lat": "20.556100",
    "lon": "-103.164600"
  },
  {
    "id": "710457",
    "country": "MX",
    "zipcode": "45427",
    "name": "Puente Grande",
    "region": "Jalisco",
    "short_region": "14",
    "lat": "20.569800",
    "lon": "-103.153800"
  },
  {
    "id": "710458",
    "country": "MX",
    "zipcode": "45427",
    "name": "Agua Blanca",
    "region": "Jalisco",
    "short_region": "14",
    "lat": "20.553100",
    "lon": "-103.183500"
  },
  {
    "id": "710459",
    "country": "MX",
    "zipcode": "45428",
    "name": "La Ladrillera",
    "region": "Jalisco",
    "short_region": "14",
    "lat": "20.597700",
    "lon": "-103.249700"
  },
  {
    "id": "710460",
    "country": "MX",
    "zipcode": "45428",
    "name": "Puerta de Jauja",
    "region": "Jalisco",
    "short_region": "14",
    "lat": "20.597700",
    "lon": "-103.249700"
  },
  {
    "id": "710461",
    "country": "MX",
    "zipcode": "45428",
    "name": "Hacienda Del Real",
    "region": "Jalisco",
    "short_region": "14",
    "lat": "20.597700",
    "lon": "-103.249700"
  },
  {
    "id": "710462",
    "country": "MX",
    "zipcode": "45428",
    "name": "Jardines Mirador",
    "region": "Jalisco",
    "short_region": "14",
    "lat": "20.597700",
    "lon": "-103.249700"
  },
  {
    "id": "710463",
    "country": "MX",
    "zipcode": "45428",
    "name": "Jauja",
    "region": "Jalisco",
    "short_region": "14",
    "lat": "20.597700",
    "lon": "-103.249700"
  },
  {
    "id": "710464",
    "country": "MX",
    "zipcode": "45428",
    "name": "La Calma",
    "region": "Jalisco",
    "short_region": "14",
    "lat": "20.597700",
    "lon": "-103.249700"
  },
  {
    "id": "710465",
    "country": "MX",
    "zipcode": "45428",
    "name": "Jardines de La Hacienda",
    "region": "Jalisco",
    "short_region": "14",
    "lat": "20.597700",
    "lon": "-103.249700"
  },
  {
    "id": "710466",
    "country": "MX",
    "zipcode": "45428",
    "name": "Los Pajaritos",
    "region": "Jalisco",
    "short_region": "14",
    "lat": "20.616800",
    "lon": "-103.213900"
  },
  {
    "id": "710467",
    "country": "MX",
    "zipcode": "45428",
    "name": "La Esperanza",
    "region": "Jalisco",
    "short_region": "14",
    "lat": "20.616800",
    "lon": "-103.213900"
  },
  {
    "id": "710468",
    "country": "MX",
    "zipcode": "45428",
    "name": "La Llave",
    "region": "Jalisco",
    "short_region": "14",
    "lat": "20.616800",
    "lon": "-103.213900"
  },
  {
    "id": "710469",
    "country": "MX",
    "zipcode": "45428",
    "name": "El Paraíso",
    "region": "Jalisco",
    "short_region": "14",
    "lat": "20.616800",
    "lon": "-103.213900"
  },
  {
    "id": "710470",
    "country": "MX",
    "zipcode": "45429",
    "name": "El Vado",
    "region": "Jalisco",
    "short_region": "14",
    "lat": "20.609000",
    "lon": "-103.156400"
  },
  {
    "id": "710471",
    "country": "MX",
    "zipcode": "45429",
    "name": "Praderas de Tonallan",
    "region": "Jalisco",
    "short_region": "14",
    "lat": "20.609000",
    "lon": "-103.156400"
  },
  {
    "id": "710472",
    "country": "MX",
    "zipcode": "45429",
    "name": "Paseo de la Cañada",
    "region": "Jalisco",
    "short_region": "14",
    "lat": "20.609000",
    "lon": "-103.156400"
  },
  {
    "id": "710473",
    "country": "MX",
    "zipcode": "45429",
    "name": "Puerta Sol Autopista",
    "region": "Jalisco",
    "short_region": "14",
    "lat": "20.609000",
    "lon": "-103.156400"
  },
  {
    "id": "710474",
    "country": "MX",
    "zipcode": "45429",
    "name": "Haciendas Tonalá",
    "region": "Jalisco",
    "short_region": "14",
    "lat": "20.609000",
    "lon": "-103.156400"
  },
  {
    "id": "710475",
    "country": "MX",
    "zipcode": "45429",
    "name": "Lagunitas Tonallan",
    "region": "Jalisco",
    "short_region": "14",
    "lat": "20.609000",
    "lon": "-103.156400"
  },
  {
    "id": "710476",
    "country": "MX",
    "zipcode": "48760",
    "name": "Guadalupana",
    "region": "Jalisco",
    "short_region": "14",
    "lat": "19.847800",
    "lon": "-103.950200"
  },
  {
    "id": "710477",
    "country": "MX",
    "zipcode": "48760",
    "name": "Tonaya",
    "region": "Jalisco",
    "short_region": "14",
    "lat": "19.786300",
    "lon": "-103.971200"
  },
  {
    "id": "710478",
    "country": "MX",
    "zipcode": "48760",
    "name": "Tenango",
    "region": "Jalisco",
    "short_region": "14",
    "lat": "19.814000",
    "lon": "-103.960100"
  },
  {
    "id": "710479",
    "country": "MX",
    "zipcode": "48763",
    "name": "Los Gonzalez",
    "region": "Jalisco",
    "short_region": "14",
    "lat": "19.847800",
    "lon": "-103.950200"
  },
  {
    "id": "710480",
    "country": "MX",
    "zipcode": "48763",
    "name": "Las Liebres",
    "region": "Jalisco",
    "short_region": "14",
    "lat": "19.739100",
    "lon": "-103.992500"
  },
  {
    "id": "710481",
    "country": "MX",
    "zipcode": "48764",
    "name": "Amacuatitlán",
    "region": "Jalisco",
    "short_region": "14",
    "lat": "19.838500",
    "lon": "-103.946800"
  },
  {
    "id": "710482",
    "country": "MX",
    "zipcode": "48765",
    "name": "Coatlancillo",
    "region": "Jalisco",
    "short_region": "14",
    "lat": "19.893500",
    "lon": "-103.964800"
  },
  {
    "id": "710483",
    "country": "MX",
    "zipcode": "48766",
    "name": "Las Higueras",
    "region": "Jalisco",
    "short_region": "14",
    "lat": "19.827900",
    "lon": "-103.923900"
  },
  {
    "id": "710484",
    "country": "MX",
    "zipcode": "48766",
    "name": "Paso de San Francisco",
    "region": "Jalisco",
    "short_region": "14",
    "lat": "19.824700",
    "lon": "-103.946000"
  },
  {
    "id": "710485",
    "country": "MX",
    "zipcode": "48767",
    "name": "El Cerrito",
    "region": "Jalisco",
    "short_region": "14",
    "lat": "19.854100",
    "lon": "-103.932000"
  },
  {
    "id": "710486",
    "country": "MX",
    "zipcode": "48768",
    "name": "Los Amoles",
    "region": "Jalisco",
    "short_region": "14",
    "lat": "19.885700",
    "lon": "-103.886200"
  },
  {
    "id": "710487",
    "country": "MX",
    "zipcode": "48769",
    "name": "Las Atarjeas de Covarrubias",
    "region": "Jalisco",
    "short_region": "14",
    "lat": "19.920700",
    "lon": "-103.944900"
  },
  {
    "id": "710488",
    "country": "MX",
    "zipcode": "49840",
    "name": "Tonila",
    "region": "Jalisco",
    "short_region": "14",
    "lat": "19.433700",
    "lon": "-103.516600"
  },