[
  {
    "id": "370001",
    "country": "IN",
    "zipcode": "74115",
    "name": "Senpara",
    "region": "West Bengal",
    "short_region": "28",
    "lat": "23.678300",
    "lon": "88.190900"
  },
  {
    "id": "370002",
    "country": "IN",
    "zipcode": "74115",
    "name": "Charmuktarpur",
    "region": "West Bengal",
    "short_region": "28",
    "lat": "23.678300",
    "lon": "88.190900"
  },
  {
    "id": "370003",
    "country": "IN",
    "zipcode": "74115",
    "name": "Dighalkandi",
    "region": "West Bengal",
    "short_region": "28",
    "lat": "23.678300",
    "lon": "88.190900"
  },
  {
    "id": "370004",
    "country": "IN",
    "zipcode": "74115",
    "name": "Dhoradaha",
    "region": "West Bengal",
    "short_region": "28",
    "lat": "23.678300",
    "lon": "88.190900"
  },
  {
    "id": "370005",
    "country": "IN",
    "zipcode": "74115",
    "name": "Pipulberia",
    "region": "West Bengal",
    "short_region": "28",
    "lat": "23.678300",
    "lon": "88.190900"
  },
  {
    "id": "370006",
    "country": "IN",
    "zipcode": "74115",
    "name": "Pashim Dogachi",
    "region": "West Bengal",
    "short_region": "28",
    "lat": "23.678300",
    "lon": "88.190900"
  },
  {
    "id": "370007",
    "country": "IN",
    "zipcode": "74115",
    "name": "Karimpur",
    "region": "West Bengal",
    "short_region": "28",
    "lat": "23.975900",
    "lon": "88.619200"
  },
  {
    "id": "370008",
    "country": "IN",
    "zipcode": "74115",
    "name": "Khanpur",
    "region": "West Bengal",
    "short_region": "28",
    "lat": "23.482700",
    "lon": "88.521500"
  },
  {
    "id": "370009",
    "country": "IN",
    "zipcode": "74115",
    "name": "Bajitpur",
    "region": "West Bengal",
    "short_region": "28",
    "lat": "23.482700",
    "lon": "88.521500"
  },
  {
    "id": "370010",
    "country": "IN",
    "zipcode": "74115",
    "name": "Baliadanga Faridpur",
    "region": "West Bengal",
    "short_region": "28",
    "lat": "25.360100",
    "lon": "87.888200"
  },
  {
    "id": "370011",
    "country": "IN",
    "zipcode": "74115",
    "name": "Charchua Danga",
    "region": "West Bengal",
    "short_region": "28",
    "lat": "25.360100",
    "lon": "87.888200"
  },
  {
    "id": "370012",
    "country": "IN",
    "zipcode": "74115",
    "name": "Matiari",
    "region": "West Bengal",
    "short_region": "28",
    "lat": "23.482700",
    "lon": "88.521500"
  },
  {
    "id": "370013",
    "country": "IN",
    "zipcode": "74115",
    "name": "Rukunpur",
    "region": "West Bengal",
    "short_region": "28",
    "lat": "23.482700",
    "lon": "88.521500"
  },
  {
    "id": "370014",
    "country": "IN",
    "zipcode": "74115",
    "name": "Digha",
    "region": "West Bengal",
    "short_region": "28",
    "lat": "23.482700",
    "lon": "88.521500"
  },
  {
    "id": "370015",
    "country": "IN",
    "zipcode": "74115",
    "name": "Ghateswar",
    "region": "West Bengal",
    "short_region": "28",
    "lat": "23.482700",
    "lon": "88.521500"
  },
  {
    "id": "370016",
    "country": "IN",
    "zipcode": "74115",
    "name": "Kamarhati",
    "region": "West Bengal",
    "short_region": "28",
    "lat": "23.482700",
    "lon": "88.521500"
  },
  {
    "id": "370017",
    "country": "IN",
    "zipcode": "74115",
    "name": "Gachha",
    "region": "West Bengal",
    "short_region": "28",
    "lat": "23.310100",
    "lon": "88.160700"
  },
  {
    "id": "370018",
    "country": "IN",
    "zipcode": "74115",
    "name": "Suksagar",
    "region": "West Bengal",
    "short_region": "28",
    "lat": "23.310100",
    "lon": "88.160700"
  },
  {
    "id": "370019",
    "country": "IN",
    "zipcode": "74115",
    "name": "Saligram",
    "region": "West Bengal",
    "short_region": "28",
    "lat": "23.310100",
    "lon": "88.160700"
  },
  {
    "id": "370020",
    "country": "IN",
    "zipcode": "74115",
    "name": "Bahirgachhi",
    "region": "West Bengal",
    "short_region": "28",
    "lat": "23.310100",
    "lon": "88.160700"
  },
  {
    "id": "370021",
    "country": "IN",
    "zipcode": "74115",
    "name": "Muragachha",
    "region": "West Bengal",
    "short_region": "28",
    "lat": "23.536300",
    "lon": "88.394200"
  },
  {
    "id": "370022",
    "country": "IN",
    "zipcode": "74115",
    "name": "Bhawanipur",
    "region": "West Bengal",
    "short_region": "28",
    "lat": "23.482700",
    "lon": "88.521500"
  },
  {
    "id": "370023",
    "country": "IN",
    "zipcode": "74115",
    "name": "Baur",
    "region": "West Bengal",
    "short_region": "28",
    "lat": "23.725300",
    "lon": "88.101600"
  },
  {
    "id": "370024",
    "country": "IN",
    "zipcode": "74115",
    "name": "Palashipara",
    "region": "West Bengal",
    "short_region": "28",
    "lat": "23.725300",
    "lon": "88.101600"
  },
  {
    "id": "370025",
    "country": "IN",
    "zipcode": "74115",
    "name": "Bakshipur",
    "region": "West Bengal",
    "short_region": "28",
    "lat": "23.725300",
    "lon": "88.101600"
  },
  {
    "id": "370026",
    "country": "IN",
    "zipcode": "74115",
    "name": "Binod Nagar",
    "region": "West Bengal",
    "short_region": "28",
    "lat": "23.725300",
    "lon": "88.101600"
  },
  {
    "id": "370027",
    "country": "IN",
    "zipcode": "74115",
    "name": "Gopinathpur",
    "region": "West Bengal",
    "short_region": "28",
    "lat": "23.482700",
    "lon": "88.521500"
  },
  {
    "id": "370028",
    "country": "IN",
    "zipcode": "74115",
    "name": "Shyamnagar",
    "region": "West Bengal",
    "short_region": "28",
    "lat": "23.482700",
    "lon": "88.521500"
  },
  {
    "id": "370029",
    "country": "IN",
    "zipcode": "74115",
    "name": "Palsunda",
    "region": "West Bengal",
    "short_region": "28",
    "lat": "23.482700",
    "lon": "88.521500"
  },
  {
    "id": "370030",
    "country": "IN",
    "zipcode": "74115",
    "name": "Sahebnagar",
    "region": "West Bengal",
    "short_region": "28",
    "lat": "23.482700",
    "lon": "88.521500"
  },
  {
    "id": "370031",
    "country": "IN",
    "zipcode": "74115",
    "name": "Dhawapara",
    "region": "West Bengal",
    "short_region": "28",
    "lat": "23.692000",
    "lon": "88.188600"
  },
  {
    "id": "370032",
    "country": "IN",
    "zipcode": "74115",
    "name": "Plassey",
    "region": "West Bengal",
    "short_region": "28",
    "lat": "23.780100",
    "lon": "88.247000"
  },
  {
    "id": "370033",
    "country": "IN",
    "zipcode": "74115",
    "name": "Chhotonalda",
    "region": "West Bengal",
    "short_region": "28",
    "lat": "23.692000",
    "lon": "88.188600"
  },
  {
    "id": "370034",
    "country": "IN",
    "zipcode": "74115",
    "name": "Molandi",
    "region": "West Bengal",
    "short_region": "28",
    "lat": "23.692000",
    "lon": "88.188600"
  },
  {
    "id": "370035",
    "country": "IN",
    "zipcode": "74115",
    "name": "Bareya",
    "region": "West Bengal",
    "short_region": "28",
    "lat": "23.692000",
    "lon": "88.188600"
  },
  {
    "id": "370036",
    "country": "IN",
    "zipcode": "74115",
    "name": "Barachand Ghar",
    "region": "West Bengal",
    "short_region": "28",
    "lat": "23.692000",
    "lon": "88.188600"
  },
  {
    "id": "370037",
    "country": "IN",
    "zipcode": "74115",
    "name": "Panchdara Abhaynagar",
    "region": "West Bengal",
    "short_region": "28",
    "lat": "23.692000",
    "lon": "88.188600"
  },
  {
    "id": "370038",
    "country": "IN",
    "zipcode": "74115",
    "name": "Tungi",
    "region": "West Bengal",
    "short_region": "28",
    "lat": "23.692000",
    "lon": "88.188600"
  },
  {
    "id": "370039",
    "country": "IN",
    "zipcode": "74115",
    "name": "Shyamnagar (Murshidabad)",
    "region": "West Bengal",
    "short_region": "28",
    "lat": "23.692000",
    "lon": "88.188600"
  },
  {
    "id": "370040",
    "country": "IN",
    "zipcode": "74115",
    "name": "Barui Para",
    "region": "West Bengal",
    "short_region": "28",
    "lat": "23.692000",
    "lon": "88.188600"
  },
  {
    "id": "370041",
    "country": "IN",
    "zipcode": "74115",
    "name": "Bali",
    "region": "West Bengal",
    "short_region": "28",
    "lat": "23.482700",
    "lon": "88.521500"
  },
  {
    "id": "370042",
    "country": "IN",
    "zipcode": "74115",
    "name": "Barnia",
    "region": "West Bengal",
    "short_region": "28",
    "lat": "23.724500",
    "lon": "88.421300"
  },
  {
    "id": "370043",
    "country": "IN",
    "zipcode": "74115",
    "name": "Bhurulia",
    "region": "West Bengal",
    "short_region": "28",
    "lat": "23.699400",
    "lon": "88.182300"
  },
  {
    "id": "370044",
    "country": "IN",
    "zipcode": "74115",
    "name": "Plassey Sugar Mill",
    "region": "West Bengal",
    "short_region": "28",
    "lat": "23.699400",
    "lon": "88.182300"
  },
  {
    "id": "370045",
    "country": "IN",
    "zipcode": "74115",
    "name": "Shikarpur (Nadia)",
    "region": "West Bengal",
    "short_region": "28",
    "lat": "23.980800",
    "lon": "88.719700"
  },
  {
    "id": "370046",
    "country": "IN",
    "zipcode": "74115",
    "name": "Raghunthpur-ramnagar",
    "region": "West Bengal",
    "short_region": "28",
    "lat": "23.980800",
    "lon": "88.719700"
  },
  {
    "id": "370047",
    "country": "IN",
    "zipcode": "74115",
    "name": "Darermath",
    "region": "West Bengal",
    "short_region": "28",
    "lat": "23.980800",
    "lon": "88.719700"
  },
  {
    "id": "370048",
    "country": "IN",
    "zipcode": "74115",
    "name": "Kechuadanga",
    "region": "West Bengal",
    "short_region": "28",
    "lat": "23.980800",
    "lon": "88.719700"
  },
  {
    "id": "370049",
    "country": "IN",
    "zipcode": "74115",
    "name": "Taherpur",
    "region": "West Bengal",
    "short_region": "28",
    "lat": "23.699400",
    "lon": "88.182300"
  },
  {
    "id": "370050",
    "country": "IN",
    "zipcode": "74116",
    "name": "Chanderghat",
    "region": "West Bengal",
    "short_region": "28",
    "lat": "23.923200",
    "lon": "88.216200"
  },
  {
    "id": "370051",
    "country": "IN",
    "zipcode": "74116",
    "name": "Notiapota",
    "region": "West Bengal",
    "short_region": "28",
    "lat": "23.923200",
    "lon": "88.216200"
  },
  {
    "id": "370052",
    "country": "IN",
    "zipcode": "74116",
    "name": "Chhatina",
    "region": "West Bengal",
    "short_region": "28",
    "lat": "23.923200",
    "lon": "88.216200"
  },
  {
    "id": "370053",
    "country": "IN",
    "zipcode": "74116",
    "name": "Krishna  Chandrapur",
    "region": "West Bengal",
    "short_region": "28",
    "lat": "23.923200",
    "lon": "88.216200"
  },
  {
    "id": "370054",
    "country": "IN",
    "zipcode": "74116",
    "name": "Hanspukuria",
    "region": "West Bengal",
    "short_region": "28",
    "lat": "23.923200",
    "lon": "88.216200"
  },
  {
    "id": "370055",
    "country": "IN",
    "zipcode": "74116",
    "name": "Iswarchandrapur",
    "region": "West Bengal",
    "short_region": "28",
    "lat": "23.923200",
    "lon": "88.216200"
  },
  {
    "id": "370056",
    "country": "IN",
    "zipcode": "74116",
    "name": "Nischantapur",
    "region": "West Bengal",
    "short_region": "28",
    "lat": "23.923200",
    "lon": "88.216200"
  },
  {
    "id": "370057",
    "country": "IN",
    "zipcode": "74116",
    "name": "Tehatta",
    "region": "West Bengal",
    "short_region": "28",
    "lat": "23.731200",
    "lon": "88.529200"
  },
  {
    "id": "370058",
    "country": "IN",
    "zipcode": "74116",
    "name": "Jitpur",
    "region": "West Bengal",
    "short_region": "28",
    "lat": "23.482700",
    "lon": "88.521500"
  },
  {
    "id": "370059",
    "country": "IN",
    "zipcode": "74116",
    "name": "Natna",
    "region": "West Bengal",
    "short_region": "28",
    "lat": "23.735000",
    "lon": "88.550800"
  },
  {
    "id": "370060",
    "country": "IN",
    "zipcode": "74116",
    "name": "Raghunathpur",
    "region": "West Bengal",
    "short_region": "28",
    "lat": "23.482700",
    "lon": "88.521500"
  },
  {
    "id": "370061",
    "country": "IN",
    "zipcode": "74116",
    "name": "Khaspur",
    "region": "West Bengal",
    "short_region": "28",
    "lat": "23.482700",
    "lon": "88.521500"
  },
  {
    "id": "370062",
    "country": "IN",
    "zipcode": "74116",
    "name": "Kulgachi",
    "region": "West Bengal",
    "short_region": "28",
    "lat": "23.482700",
    "lon": "88.521500"
  },
  {
    "id": "370063",
    "country": "IN",
    "zipcode": "74116",
    "name": "Rampur",
    "region": "West Bengal",
    "short_region": "28",
    "lat": "23.482700",
    "lon": "88.521500"
  },
  {
    "id": "370064",
    "country": "IN",
    "zipcode": "74116",
    "name": "Assannagar",
    "region": "West Bengal",
    "short_region": "28",
    "lat": "24.356200",
    "lon": "87.884800"
  },
  {
    "id": "370065",
    "country": "IN",
    "zipcode": "74116",
    "name": "Dadupur Nadia",
    "region": "West Bengal",
    "short_region": "28",
    "lat": "24.516300",
    "lon": "87.809300"
  },
  {
    "id": "370066",
    "country": "IN",
    "zipcode": "74116",
    "name": "Udaychandrapur",
    "region": "West Bengal",
    "short_region": "28",
    "lat": "24.516300",
    "lon": "87.809300"
  },
  {
    "id": "370067",
    "country": "IN",
    "zipcode": "74116",
    "name": "Kasiadanga",
    "region": "West Bengal",
    "short_region": "28",
    "lat": "24.516300",
    "lon": "87.809300"
  },
  {
    "id": "370068",
    "country": "IN",
    "zipcode": "74116",
    "name": "Chandanpur",
    "region": "West Bengal",
    "short_region": "28",
    "lat": "23.482700",
    "lon": "88.521500"
  },
  {
    "id": "370069",
    "country": "IN",
    "zipcode": "74116",
    "name": "Karuigachi",
    "region": "West Bengal",
    "short_region": "28",
    "lat": "24.022400",
    "lon": "87.655500"
  },
  {
    "id": "370070",
    "country": "IN",
    "zipcode": "74116",
    "name": "Chhitkadaspara",
    "region": "West Bengal",
    "short_region": "28",
    "lat": "24.022400",
    "lon": "87.655500"
  },
  {
    "id": "370071",
    "country": "IN",
    "zipcode": "74116",
    "name": "Haripur Chhitka",
    "region": "West Bengal",
    "short_region": "28",
    "lat": "24.022400",
    "lon": "87.655500"
  },
  {
    "id": "370072",
    "country": "IN",
    "zipcode": "74116",
    "name": "Betai",
    "region": "West Bengal",
    "short_region": "28",
    "lat": "24.022400",
    "lon": "87.655500"
  },
  {
    "id": "370073",
    "country": "IN",
    "zipcode": "74116",
    "name": "Lalbazar",
    "region": "West Bengal",
    "short_region": "28",
    "lat": "23.482700",
    "lon": "88.521500"
  },
  {
    "id": "370074",
    "country": "IN",
    "zipcode": "74116",
    "name": "Ichhapur",
    "region": "West Bengal",
    "short_region": "28",
    "lat": "23.482700",
    "lon": "88.521500"
  },
  {
    "id": "370075",
    "country": "IN",
    "zipcode": "74116",
    "name": "Madhabpur",
    "region": "West Bengal",
    "short_region": "28",
    "lat": "23.482700",
    "lon": "88.521500"
  },
  {
    "id": "370076",
    "country": "IN",
    "zipcode": "74116",
    "name": "Mahatpur",
    "region": "West Bengal",
    "short_region": "28",
    "lat": "22.570900",
    "lon": "88.342700"
  },
  {
    "id": "370077",
    "country": "IN",
    "zipcode": "74116",
    "name": "Tilakpur",
    "region": "West Bengal",
    "short_region": "28",
    "lat": "22.570900",
    "lon": "88.342700"
  },
  {
    "id": "370078",
    "country": "IN",
    "zipcode": "74116",
    "name": "Dayer Bazar",
    "region": "West Bengal",
    "short_region": "28",
    "lat": "22.570900",
    "lon": "88.342700"
  },
  {
    "id": "370079",
    "country": "IN",
    "zipcode": "74116",
    "name": "Goas",
    "region": "West Bengal",
    "short_region": "28",
    "lat": "23.125300",
    "lon": "88.546900"
  },
  {
    "id": "370080",
    "country": "IN",
    "zipcode": "74116",
    "name": "Topla",
    "region": "West Bengal",
    "short_region": "28",
    "lat": "23.125300",
    "lon": "88.546900"
  },
  {
    "id": "370081",
    "country": "IN",
    "zipcode": "74116",
    "name": "Barbakpur",
    "region": "West Bengal",
    "short_region": "28",
    "lat": "23.125300",
    "lon": "88.546900"
  },
  {
    "id": "370082",
    "country": "IN",
    "zipcode": "74116",
    "name": "Nazirpur (Nadia)",
    "region": "West Bengal",
    "short_region": "28",
    "lat": "23.125300",
    "lon": "88.546900"
  },
  {
    "id": "370083",
    "country": "IN",
    "zipcode": "74116",
    "name": "Tarakganj",
    "region": "West Bengal",
    "short_region": "28",
    "lat": "23.125300",
    "lon": "88.546900"
  },
  {
    "id": "370084",
    "country": "IN",
    "zipcode": "74116",
    "name": "Nandanpur",
    "region": "West Bengal",
    "short_region": "28",
    "lat": "23.125300",
    "lon": "88.546900"
  },
  {
    "id": "370085",
    "country": "IN",
    "zipcode": "74116",
    "name": "Kishorepur",
    "region": "West Bengal",
    "short_region": "28",
    "lat": "23.125300",
    "lon": "88.546900"
  },
  {
    "id": "370086",
    "country": "IN",
    "zipcode": "74116",
    "name": "Fajil Nagar",
    "region": "West Bengal",
    "short_region": "28",
    "lat": "23.125300",
    "lon": "88.546900"
  },
  {
    "id": "370087",
    "country": "IN",
    "zipcode": "74116",
    "name": "Mrigi",
    "region": "West Bengal",
    "short_region": "28",
    "lat": "23.125300",
    "lon": "88.546900"
  },
  {
    "id": "370088",
    "country": "IN",
    "zipcode": "74116",
    "name": "Amiya Narayanpur",
    "region": "West Bengal",
    "short_region": "28",
    "lat": "23.125300",
    "lon": "88.546900"
  },
  {
    "id": "370089",
    "country": "IN",
    "zipcode": "74116",
    "name": "Rahamatpur",
    "region": "West Bengal",
    "short_region": "28",
    "lat": "23.125300",
    "lon": "88.546900"
  },
  {
    "id": "370090",
    "country": "IN",
    "zipcode": "74116",
    "name": "Gopalpur",
    "region": "West Bengal",
    "short_region": "28",
    "lat": "23.125300",
    "lon": "88.546900"
  },
  {
    "id": "370091",
    "country": "IN",
    "zipcode": "74116",
    "name": "Kalinga",
    "region": "West Bengal",
    "short_region": "28",
    "lat": "23.810100",
    "lon": "88.104700"
  },
  {
    "id": "370092",
    "country": "IN",
    "zipcode": "74116",
    "name": "Seemanagar",
    "region": "West Bengal",
    "short_region": "28",
    "lat": "23.810100",
    "lon": "88.104700"
  },
  {
    "id": "370093",
    "country": "IN",
    "zipcode": "74116",
    "name": "Bhimpur",
    "region": "West Bengal",
    "short_region": "28",
    "lat": "23.482700",
    "lon": "88.521500"
  },
  {
    "id": "370094",
    "country": "IN",
    "zipcode": "74116",
    "name": "Sakdaha",
    "region": "West Bengal",
    "short_region": "28",
    "lat": "24.509900",
    "lon": "87.925400"
  },
  {
    "id": "370095",
    "country": "IN",
    "zipcode": "74118",
    "name": "Bharatpur",
    "region": "West Bengal",
    "short_region": "28",
    "lat": "22.092800",
    "lon": "88.360300"
  },
  {
    "id": "370096",
    "country": "IN",
    "zipcode": "74118",
    "name": "Paglachandi",
    "region": "West Bengal",
    "short_region": "28",
    "lat": "22.092800",
    "lon": "88.360300"
  },
  {
    "id": "370097",
    "country": "IN",
    "zipcode": "74118",
    "name": "Radhakantapur",
    "region": "West Bengal",
    "short_region": "28",
    "lat": "23.482700",
    "lon": "88.521500"
  },
  {
    "id": "370098",
    "country": "IN",
    "zipcode": "74120",
    "name": "Ramnagar",
    "region": "West Bengal",
    "short_region": "28",
    "lat": "23.482700",
    "lon": "88.521500"
  },
  {
    "id": "370099",
    "country": "IN",
    "zipcode": "74120",
    "name": "Chotobazar",
    "region": "West Bengal",
    "short_region": "28",
    "lat": "24.489100",
    "lon": "87.830600"
  },
  {
    "id": "370100",
    "country": "IN",
    "zipcode": "74120",
    "name": "Ranaghat College",
    "region": "West Bengal",
    "short_region": "28",
    "lat": "24.489100",
    "lon": "87.830600"
  },
  {
    "id": "370101",
    "country": "IN",
    "zipcode": "74120",
    "name": "Ranaghat RS",
    "region": "West Bengal",
    "short_region": "28",
    "lat": "24.489100",
    "lon": "87.830600"
  },
  {
    "id": "370102",
    "country": "IN",
    "zipcode": "74120",
    "name": "Biswaspara",
    "region": "West Bengal",
    "short_region": "28",
    "lat": "24.489100",
    "lon": "87.830600"
  },
  {
    "id": "370103",
    "country": "IN",
    "zipcode": "74120",
    "name": "Ranaghat H.O",
    "region": "West Bengal",
    "short_region": "28",
    "lat": "24.489100",
    "lon": "87.830600"
  },
  {
    "id": "370104",
    "country": "IN",
    "zipcode": "74120",
    "name": "Ranaghat Rupashreepally",
    "region": "West Bengal",
    "short_region": "28",
    "lat": "24.489100",
    "lon": "87.830600"
  },
  {
    "id": "370105",
    "country": "IN",
    "zipcode": "74120",
    "name": "Ranaghat Bazar",
    "region": "West Bengal",
    "short_region": "28",
    "lat": "24.489100",
    "lon": "87.830600"
  },
  {
    "id": "370106",
    "country": "IN",
    "zipcode": "74120",
    "name": "Mahaprabhupara",
    "region": "West Bengal",
    "short_region": "28",
    "lat": "24.489100",
    "lon": "87.830600"
  },
  {
    "id": "370107",
    "country": "IN",
    "zipcode": "74120",
    "name": "Chunaripara",
    "region": "West Bengal",
    "short_region": "28",
    "lat": "24.489100",
    "lon": "87.830600"
  },
  {
    "id": "370108",
    "country": "IN",
    "zipcode": "74120",
    "name": "Siddheswaritala",
    "region": "West Bengal",
    "short_region": "28",
    "lat": "24.489100",
    "lon": "87.830600"
  },
  {
    "id": "370109",
    "country": "IN",
    "zipcode": "74120",
    "name": "Ranaghat Court",
    "region": "West Bengal",
    "short_region": "28",
    "lat": "24.489100",
    "lon": "87.830600"
  },
  {
    "id": "370110",
    "country": "IN",
    "zipcode": "74120",
    "name": "Jm Nokari",
    "region": "West Bengal",
    "short_region": "28",
    "lat": "23.527900",
    "lon": "88.554300"
  },
  {
    "id": "370111",
    "country": "IN",
    "zipcode": "74120",
    "name": "Hijuli",
    "region": "West Bengal",
    "short_region": "28",
    "lat": "23.527900",
    "lon": "88.554300"
  },
  {
    "id": "370112",
    "country": "IN",
    "zipcode": "74120",
    "name": "Nasra",
    "region": "West Bengal",
    "short_region": "28",
    "lat": "23.527900",
    "lon": "88.554300"
  },
  {
    "id": "370113",
    "country": "IN",
    "zipcode": "74120",
    "name": "Dhantala",
    "region": "West Bengal",
    "short_region": "28",
    "lat": "23.527900",
    "lon": "88.554300"
  },
  {
    "id": "370114",
    "country": "IN",
    "zipcode": "74120",
    "name": "Matikumra Kutirpara",
    "region": "West Bengal",
    "short_region": "28",
    "lat": "23.527900",
    "lon": "88.554300"
  },
  {
    "id": "370115",
    "country": "IN",
    "zipcode": "74120",
    "name": "Halalpur-krishnapur",
    "region": "West Bengal",
    "short_region": "28",
    "lat": "23.527900",
    "lon": "88.554300"
  },
  {
    "id": "370116",
    "country": "IN",
    "zipcode": "74120",
    "name": "Chapra",
    "region": "West Bengal",
    "short_region": "28",
    "lat": "23.527900",
    "lon": "88.554300"
  },
  {
    "id": "370117",
    "country": "IN",
    "zipcode": "74122",
    "name": "Barajaguli",
    "region": "West Bengal",
    "short_region": "28",
    "lat": "23.684500",
    "lon": "87.444100"
  },
  {
    "id": "370118",
    "country": "IN",
    "zipcode": "74122",
    "name": "Khosbasmahalla",
    "region": "West Bengal",
    "short_region": "28",
    "lat": "23.656000",
    "lon": "86.955700"
  },
  {
    "id": "370119",
    "country": "IN",
    "zipcode": "74122",
    "name": "Tatla",
    "region": "West Bengal",
    "short_region": "28",
    "lat": "23.656000",
    "lon": "86.955700"
  },
  {
    "id": "370120",
    "country": "IN",
    "zipcode": "74122",
    "name": "Chakdah",
    "region": "West Bengal",
    "short_region": "28",
    "lat": "23.656000",
    "lon": "86.955700"
  },
  {
    "id": "370121",
    "country": "IN",
    "zipcode": "74122",
    "name": "Lalpur (Nadia)",
    "region": "West Bengal",
    "short_region": "28",
    "lat": "23.656000",
    "lon": "86.955700"
  },
  {
    "id": "370122",
    "country": "IN",
    "zipcode": "74122",
    "name": "Jasra",
    "region": "West Bengal",
    "short_region": "28",
    "lat": "23.656000",
    "lon": "86.955700"
  },
  {
    "id": "370123",
    "country": "IN",
    "zipcode": "74122",
    "name": "Kamalpuredso",
    "region": "West Bengal",
    "short_region": "28",
    "lat": "23.656000",
    "lon": "86.955700"
  },
  {
    "id": "370124",
    "country": "IN",
    "zipcode": "74122",
    "name": "Sanyalchar",
    "region": "West Bengal",
    "short_region": "28",
    "lat": "23.656000",
    "lon": "86.955700"
  },
  {
    "id": "370125",
    "country": "IN",
    "zipcode": "74122",
    "name": "Chowgacha",
    "region": "West Bengal",
    "short_region": "28",
    "lat": "23.656000",
    "lon": "86.955700"
  },
  {
    "id": "370126",
    "country": "IN",
    "zipcode": "74122",
    "name": "Deuli",
    "region": "West Bengal",
    "short_region": "28",
    "lat": "23.482700",
    "lon": "88.521500"
  },
  {
    "id": "370127",
    "country": "IN",
    "zipcode": "74122",
    "name": "Dighra",
    "region": "West Bengal",
    "short_region": "28",
    "lat": "23.482700",
    "lon": "88.521500"
  },
  {
    "id": "370128",
    "country": "IN",
    "zipcode": "74122",
    "name": "Poradanga",
    "region": "West Bengal",
    "short_region": "28",
    "lat": "23.656000",
    "lon": "86.955700"
  },
  {
    "id": "370129",
    "country": "IN",
    "zipcode": "74122",
    "name": "Kadambagachi",
    "region": "West Bengal",
    "short_region": "28",
    "lat": "23.656000",
    "lon": "86.955700"
  },
  {
    "id": "370130",
    "country": "IN",
    "zipcode": "74122",
    "name": "Ghetugachi",
    "region": "West Bengal",
    "short_region": "28",
    "lat": "23.656000",
    "lon": "86.955700"
  },
  {
    "id": "370131",
    "country": "IN",
    "zipcode": "74122",
    "name": "Balia",
    "region": "West Bengal",
    "short_region": "28",
    "lat": "23.482700",
    "lon": "88.521500"
  },
  {
    "id": "370132",
    "country": "IN",
    "zipcode": "74122",
    "name": "Rajarmath",
    "region": "West Bengal",
    "short_region": "28",
    "lat": "23.712900",
    "lon": "87.932600"
  },
  {
    "id": "370133",
    "country": "IN",
    "zipcode": "74122",
    "name": "Silinda",
    "region": "West Bengal",
    "short_region": "28",
    "lat": "23.712900",
    "lon": "87.932600"
  },
  {
    "id": "370134",
    "country": "IN",
    "zipcode": "74122",
    "name": "Hinghnara",
    "region": "West Bengal",
    "short_region": "28",
    "lat": "23.712900",
    "lon": "87.932600"
  },
  {
    "id": "370135",
    "country": "IN",
    "zipcode": "74122",
    "name": "Purbabishnupur",
    "region": "West Bengal",
    "short_region": "28",
    "lat": "23.712900",
    "lon": "87.932600"
  },
  {
    "id": "370136",
    "country": "IN",
    "zipcode": "74122",
    "name": "Darappur",
    "region": "West Bengal",
    "short_region": "28",
    "lat": "23.712900",
    "lon": "87.932600"
  },
  {
    "id": "370137",
    "country": "IN",
    "zipcode": "74122",
    "name": "Gouripur",
    "region": "West Bengal",
    "short_region": "28",
    "lat": "23.482700",
    "lon": "88.521500"
  },
  {
    "id": "370138",
    "country": "IN",
    "zipcode": "74123",
    "name": "Cooper's Camp",
    "region": "West Bengal",
    "short_region": "28",
    "lat": "23.073200",
    "lon": "88.276900"
  },
  {
    "id": "370139",
    "country": "IN",
    "zipcode": "74123",
    "name": "Gayeshpur",
    "region": "West Bengal",
    "short_region": "28",
    "lat": "23.073200",
    "lon": "88.276900"
  },
  {
    "id": "370140",
    "country": "IN",
    "zipcode": "74123",
    "name": "Buddhapark",
    "region": "West Bengal",
    "short_region": "28",
    "lat": "23.073200",
    "lon": "88.276900"
  },
  {
    "id": "370141",
    "country": "IN",
    "zipcode": "74123",
    "name": "Kalyani University",
    "region": "West Bengal",
    "short_region": "28",
    "lat": "23.073200",
    "lon": "88.276900"
  },
  {
    "id": "370142",
    "country": "IN",
    "zipcode": "74123",
    "name": "Kalyani Simanta",
    "region": "West Bengal",
    "short_region": "28",
    "lat": "23.073200",
    "lon": "88.276900"
  },
  {
    "id": "370143",
    "country": "IN",
    "zipcode": "74123",
    "name": "Kalyani RS",
    "region": "West Bengal",
    "short_region": "28",
    "lat": "23.073200",
    "lon": "88.276900"
  },
  {
    "id": "370144",
    "country": "IN",
    "zipcode": "74123",
    "name": "Kalyani Hospital",
    "region": "West Bengal",
    "short_region": "28",
    "lat": "23.073200",
    "lon": "88.276900"
  },
  {
    "id": "370145",
    "country": "IN",
    "zipcode": "74123",
    "name": "Ghoshpara (Nadia)",
    "region": "West Bengal",
    "short_region": "28",
    "lat": "23.073200",
    "lon": "88.276900"
  },
  {
    "id": "370146",
    "country": "IN",
    "zipcode": "74123",
    "name": "Gandhi Memorial Hospital",
    "region": "West Bengal",
    "short_region": "28",
    "lat": "23.073200",
    "lon": "88.276900"
  },
  {
    "id": "370147",
    "country": "IN",
    "zipcode": "74123",
    "name": "Bidhanpark",
    "region": "West Bengal",
    "short_region": "28",
    "lat": "23.073200",
    "lon": "88.276900"
  },
  {
    "id": "370148",
    "country": "IN",
    "zipcode": "74123",
    "name": "Kalyani H.O",
    "region": "West Bengal",
    "short_region": "28",
    "lat": "23.073200",
    "lon": "88.276900"
  },
  {
    "id": "370149",
    "country": "IN",
    "zipcode": "74123",
    "name": "Uzirpukuria",
    "region": "West Bengal",
    "short_region": "28",
    "lat": "23.073200",
    "lon": "88.276900"
  },
  {
    "id": "370150",
    "country": "IN",
    "zipcode": "74123",
    "name": "Gangsara Majhergram",
    "region": "West Bengal",
    "short_region": "28",
    "lat": "23.073200",
    "lon": "88.276900"
  },
  {
    "id": "370151",
    "country": "IN",
    "zipcode": "74123",
    "name": "Naserkuli",
    "region": "West Bengal",
    "short_region": "28",
    "lat": "23.073200",
    "lon": "88.276900"
  },
  {
    "id": "370152",
    "country": "IN",
    "zipcode": "74123",
    "name": "Humaniapota",
    "region": "West Bengal",
    "short_region": "28",
    "lat": "23.073200",
    "lon": "88.276900"
  },
  {
    "id": "370153",
    "country": "IN",
    "zipcode": "74123",
    "name": "Gangnapur",
    "region": "West Bengal",
    "short_region": "28",
    "lat": "23.073200",
    "lon": "88.276900"
  },
  {
    "id": "370154",
    "country": "IN",
    "zipcode": "74123",
    "name": "Debagram",
    "region": "West Bengal",
    "short_region": "28",
    "lat": "23.688300",
    "lon": "88.300800"
  },
  {
    "id": "370155",
    "country": "IN",
    "zipcode": "74123",
    "name": "Gopinagar",
    "region": "West Bengal",
    "short_region": "28",
    "lat": "23.482700",
    "lon": "88.521500"
  },
  {
    "id": "370156",
    "country": "IN",
    "zipcode": "74123",
    "name": "Ghola",
    "region": "West Bengal",
    "short_region": "28",
    "lat": "23.482700",
    "lon": "88.521500"
  },
  {
    "id": "370157",
    "country": "IN",
    "zipcode": "74124",
    "name": "Alaipur",
    "region": "West Bengal",
    "short_region": "28",
    "lat": "23.482700",
    "lon": "88.521500"
  },
  {
    "id": "370158",
    "country": "IN",
    "zipcode": "74124",
    "name": "Kalipur",
    "region": "West Bengal",
    "short_region": "28",
    "lat": "23.482700",
    "lon": "88.521500"
  },
  {
    "id": "370159",
    "country": "IN",
    "zipcode": "74124",
    "name": "Madanpur (Nadia)",
    "region": "West Bengal",
    "short_region": "28",
    "lat": "23.005900",
    "lon": "88.491700"
  },
  {
    "id": "370160",
    "country": "IN",
    "zipcode": "74124",
    "name": "Birohiedso",
    "region": "West Bengal",
    "short_region": "28",
    "lat": "23.710700",
    "lon": "87.962700"
  },
  {
    "id": "370161",
    "country": "IN",
    "zipcode": "74124",
    "name": "Ananda Nagar",
    "region": "West Bengal",
    "short_region": "28",
    "lat": "23.710700",
    "lon": "87.962700"
  },
  {
    "id": "370162",
    "country": "IN",
    "zipcode": "74124",
    "name": "Saguna",
    "region": "West Bengal",
    "short_region": "28",
    "lat": "23.710700",
    "lon": "87.962700"
  },
  {
    "id": "370163",
    "country": "IN",
    "zipcode": "74124",
    "name": "Ghoragacha",
    "region": "West Bengal",
    "short_region": "28",
    "lat": "23.710700",
    "lon": "87.962700"
  },
  {
    "id": "370164",
    "country": "IN",
    "zipcode": "74124",
    "name": "Chandamari",
    "region": "West Bengal",
    "short_region": "28",
    "lat": "23.710700",
    "lon": "87.962700"
  },
  {
    "id": "370165",
    "country": "IN",
    "zipcode": "74124",
    "name": "Haringhat River Research Insti",
    "region": "West Bengal",
    "short_region": "28",
    "lat": "23.473300",
    "lon": "88.162400"
  },
  {
    "id": "370166",
    "country": "IN",
    "zipcode": "74124",
    "name": "Mohanpur (Nadia)",
    "region": "West Bengal",
    "short_region": "28",
    "lat": "23.473300",
    "lon": "88.162400"
  },
  {
    "id": "370167",
    "country": "IN",
    "zipcode": "74124",
    "name": "Pritinagar",
    "region": "West Bengal",
    "short_region": "28",
    "lat": "23.473300",
    "lon": "88.162400"
  },
  {
    "id": "370168",
    "country": "IN",
    "zipcode": "74124",
    "name": "Chanduria",
    "region": "West Bengal",
    "short_region": "28",
    "lat": "23.473300",
    "lon": "88.162400"
  },
  {
    "id": "370169",
    "country": "IN",
    "zipcode": "74124",
    "name": "Rautari",
    "region": "West Bengal",
    "short_region": "28",
    "lat": "23.473300",
    "lon": "88.162400"
  },
  {
    "id": "370170",
    "country": "IN",
    "zipcode": "74124",
    "name": "Narapatipara",
    "region": "West Bengal",
    "short_region": "28",
    "lat": "23.473300",
    "lon": "88.162400"
  },
  {
    "id": "370171",
    "country": "IN",
    "zipcode": "74124",
    "name": "Bhagirathisilpaashram",
    "region": "West Bengal",
    "short_region": "28",
    "lat": "23.473300",
    "lon": "88.162400"
  },
  {
    "id": "370172",
    "country": "IN",
    "zipcode": "74124",
    "name": "Simurali",
    "region": "West Bengal",
    "short_region": "28",
    "lat": "23.473300",
    "lon": "88.162400"
  },
  {
    "id": "370173",
    "country": "IN",
    "zipcode": "74124",
    "name": "Narayanpur",
    "region": "West Bengal",
    "short_region": "28",
    "lat": "23.482700",
    "lon": "88.521500"
  },
  {
    "id": "370174",
    "country": "IN",
    "zipcode": "74124",
    "name": "Simhat",
    "region": "West Bengal",
    "short_region": "28",
    "lat": "22.761100",
    "lon": "88.761500"
  },
  {
    "id": "370175",
    "country": "IN",
    "zipcode": "74124",
    "name": "Panpur",
    "region": "West Bengal",
    "short_region": "28",
    "lat": "22.761100",
    "lon": "88.761500"
  },
  {
    "id": "370176",
    "country": "IN",
    "zipcode": "74124",
    "name": "Mollabelia",
    "region": "West Bengal",
    "short_region": "28",
    "lat": "22.761100",
    "lon": "88.761500"
  },
  {
    "id": "370177",
    "country": "IN",
    "zipcode": "74124",
    "name": "Fatepur",
    "region": "West Bengal",
    "short_region": "28",
    "lat": "22.761100",
    "lon": "88.761500"
  },
  {
    "id": "370178",
    "country": "IN",
    "zipcode": "74124",
    "name": "Subarnapur",
    "region": "West Bengal",
    "short_region": "28",
    "lat": "22.761100",
    "lon": "88.761500"
  },
  {
    "id": "370179",
    "country": "IN",
    "zipcode": "74125",
    "name": "Bedibhavan",
    "region": "West Bengal",
    "short_region": "28",
    "lat": "22.941000",
    "lon": "88.637000"
  },
  {
    "id": "370180",
    "country": "IN",
    "zipcode": "74125",
    "name": "Kataganj",
    "region": "West Bengal",
    "short_region": "28",
    "lat": "22.941000",
    "lon": "88.637000"
  },
  {
    "id": "370181",
    "country": "IN",
    "zipcode": "74125",
    "name": "Netajisubhas Sanatorium",
    "region": "West Bengal",
    "short_region": "28",
    "lat": "22.941000",
    "lon": "88.637000"
  },
  {
    "id": "370182",
    "country": "IN",
    "zipcode": "74125",
    "name": "Majerchar",
    "region": "West Bengal",
    "short_region": "28",
    "lat": "22.941000",
    "lon": "88.637000"
  },
  {
    "id": "370183",
    "country": "IN",
    "zipcode": "74125",
    "name": "Charsarhati",
    "region": "West Bengal",
    "short_region": "28",
    "lat": "22.941000",
    "lon": "88.637000"
  },
  {
    "id": "370184",
    "country": "IN",
    "zipcode": "74125",
    "name": "Krishivisyavidyalaya",
    "region": "West Bengal",
    "short_region": "28",
    "lat": "22.941000",
    "lon": "88.637000"
  },
  {
    "id": "370185",
    "country": "IN",
    "zipcode": "74125",
    "name": "Eruli",
    "region": "West Bengal",
    "short_region": "28",
    "lat": "22.941000",
    "lon": "88.637000"
  },
  {
    "id": "370186",
    "country": "IN",
    "zipcode": "74125",
    "name": "Anishmali",
    "region": "West Bengal",
    "short_region": "28",
    "lat": "22.941000",
    "lon": "88.637000"
  },
  {
    "id": "370187",
    "country": "IN",
    "zipcode": "74125",
    "name": "Kamgachi",
    "region": "West Bengal",
    "short_region": "28",
    "lat": "22.941000",
    "lon": "88.637000"
  },
  {
    "id": "370188",
    "country": "IN",
    "zipcode": "74125",
    "name": "Kalinarayanpur",
    "region": "West Bengal",
    "short_region": "28",
    "lat": "22.941000",
    "lon": "88.637000"
  },
  {
    "id": "370189",
    "country": "IN",
    "zipcode": "74125",
    "name": "Noapara",
    "region": "West Bengal",
    "short_region": "28",
    "lat": "22.941000",
    "lon": "88.637000"
  },
  {
    "id": "370190",
    "country": "IN",
    "zipcode": "74125",
    "name": "Anulia",
    "region": "West Bengal",
    "short_region": "28",
    "lat": "22.941000",
    "lon": "88.637000"
  },
  {
    "id": "370191",
    "country": "IN",
    "zipcode": "74125",
    "name": "Nandighat",
    "region": "West Bengal",
    "short_region": "28",
    "lat": "22.941000",
    "lon": "88.637000"
  },
  {
    "id": "370192",
    "country": "IN",
    "zipcode": "74125",
    "name": "Haradham",
    "region": "West Bengal",
    "short_region": "28",
    "lat": "22.941000",
    "lon": "88.637000"
  },
  {
    "id": "370193",
    "country": "IN",
    "zipcode": "74125",
    "name": "Ranaghat Baidyapur",
    "region": "West Bengal",
    "short_region": "28",
    "lat": "22.941000",
    "lon": "88.637000"
  },
  {
    "id": "370194",
    "country": "IN",
    "zipcode": "74125",
    "name": "Dayabari",
    "region": "West Bengal",
    "short_region": "28",
    "lat": "22.941000",
    "lon": "88.637000"
  },
  {
    "id": "370195",
    "country": "IN",
    "zipcode": "74125",
    "name": "Begopara",
    "region": "West Bengal",
    "short_region": "28",
    "lat": "22.941000",
    "lon": "88.637000"
  },
  {
    "id": "370196",
    "country": "IN",
    "zipcode": "74125",
    "name": "Dighalgram",
    "region": "West Bengal",
    "short_region": "28",
    "lat": "22.941000",
    "lon": "88.637000"
  },
  {
    "id": "370197",
    "country": "IN",
    "zipcode": "74125",
    "name": "Mahadevpur",
    "region": "West Bengal",
    "short_region": "28",
    "lat": "22.941000",
    "lon": "88.637000"
  },
  {
    "id": "370198",
    "country": "IN",
    "zipcode": "74125",
    "name": "Kasthadanga",
    "region": "West Bengal",
    "short_region": "28",
    "lat": "22.941000",
    "lon": "88.637000"
  },
  {
    "id": "370199",
    "country": "IN",
    "zipcode": "74125",
    "name": "Haripukuria",
    "region": "West Bengal",
    "short_region": "28",
    "lat": "22.941000",
    "lon": "88.637000"
  },
  {
    "id": "370200",
    "country": "IN",
    "zipcode": "74125",
    "name": "Nimtala Bazar",
    "region": "West Bengal",
    "short_region": "28",
    "lat": "22.941000",
    "lon": "88.637000"
  },
  {
    "id": "370201",
    "country": "IN",
    "zipcode": "74125",
    "name": "Nagarukhra",
    "region": "West Bengal",
    "short_region": "28",
    "lat": "22.941000",
    "lon": "88.637000"
  },
  {
    "id": "370202",
    "country": "IN",
    "zipcode": "74130",
    "name": "Ushidpur",
    "region": "West Bengal",
    "short_region": "28",
    "lat": "23.601000",
    "lon": "88.127300"
  },
  {
    "id": "370203",
    "country": "IN",
    "zipcode": "74130",
    "name": "Char Brahmanagar",
    "region": "West Bengal",
    "short_region": "28",
    "lat": "23.601000",
    "lon": "88.127300"
  },
  {
    "id": "370204",
    "country": "IN",
    "zipcode": "74130",
    "name": "Nabadwip Dham RS",
    "region": "West Bengal",
    "short_region": "28",
    "lat": "23.601000",
    "lon": "88.127300"
  },
  {
    "id": "370205",
    "country": "IN",
    "zipcode": "74130",
    "name": "Nabadwip H.O",
    "region": "West Bengal",
    "short_region": "28",
    "lat": "23.601000",
    "lon": "88.127300"
  },
  {
    "id": "370206",
    "country": "IN",
    "zipcode": "74130",
    "name": "Moti Roy Bnadh",
    "region": "West Bengal",
    "short_region": "28",
    "lat": "23.601000",
    "lon": "88.127300"
  },
  {
    "id": "370207",
    "country": "IN",
    "zipcode": "74130",
    "name": "Rudrapara",
    "region": "West Bengal",
    "short_region": "28",
    "lat": "23.601000",
    "lon": "88.127300"
  },
  {
    "id": "370208",
    "country": "IN",
    "zipcode": "74130",
    "name": "Buroshibtala (Nadia)",
    "region": "West Bengal",
    "short_region": "28",
    "lat": "23.601000",
    "lon": "88.127300"
  },
  {
    "id": "370209",
    "country": "IN",
    "zipcode": "74130",
    "name": "Dearapara",
    "region": "West Bengal",
    "short_region": "28",
    "lat": "23.601000",
    "lon": "88.127300"
  },
  {
    "id": "370210",
    "country": "IN",
    "zipcode": "74130",
    "name": "Kolerdanga",
    "region": "West Bengal",
    "short_region": "28",
    "lat": "23.601000",
    "lon": "88.127300"
  },
  {
    "id": "370211",
    "country": "IN",
    "zipcode": "74130",
    "name": "Moti Roy Bandh",
    "region": "West Bengal",
    "short_region": "28",
    "lat": "23.601000",
    "lon": "88.127300"
  },
  {
    "id": "370212",
    "country": "IN",
    "zipcode": "74130",
    "name": "Tegharipara",
    "region": "West Bengal",
    "short_region": "28",
    "lat": "23.601000",
    "lon": "88.127300"
  },
  {
    "id": "370213",
    "country": "IN",
    "zipcode": "74130",
    "name": "Poramatala Road",
    "region": "West Bengal",
    "short_region": "28",
    "lat": "23.601000",
    "lon": "88.127300"
  },
  {
    "id": "370214",
    "country": "IN",
    "zipcode": "74130",
    "name": "Nabadwip Bazar",
    "region": "West Bengal",
    "short_region": "28",
    "lat": "23.601000",
    "lon": "88.127300"
  },
  {
    "id": "370215",
    "country": "IN",
    "zipcode": "74130",
    "name": "Pratapnagar (Nadia)",
    "region": "West Bengal",
    "short_region": "28",
    "lat": "23.601000",
    "lon": "88.127300"
  },
  {
    "id": "370216",
    "country": "IN",
    "zipcode": "74131",
    "name": "Sreemayapur",
    "region": "West Bengal",
    "short_region": "28",
    "lat": "23.601000",
    "lon": "88.127300"
  },
  {
    "id": "370217",
    "country": "IN",
    "zipcode": "74131",
    "name": "Nidaya",
    "region": "West Bengal",
    "short_region": "28",
    "lat": "23.601000",
    "lon": "88.127300"
  },
  {
    "id": "370218",
    "country": "IN",
    "zipcode": "74131",
    "name": "Bamunpukur",
    "region": "West Bengal",
    "short_region": "28",
    "lat": "23.601000",
    "lon": "88.127300"
  },
  {
    "id": "370219",
    "country": "IN",
    "zipcode": "74131",
    "name": "Ganja Danga",
    "region": "West Bengal",
    "short_region": "28",
    "lat": "23.601000",
    "lon": "88.127300"
  },
  {
    "id": "370220",
    "country": "IN",
    "zipcode": "74131",
    "name": "Gadigachha",
    "region": "West Bengal",
    "short_region": "28",
    "lat": "23.601000",
    "lon": "88.127300"
  },
  {
    "id": "370221",
    "country": "IN",
    "zipcode": "74131",
    "name": "Swarupganj",
    "region": "West Bengal",
    "short_region": "28",
    "lat": "23.601000",
    "lon": "88.127300"
  },
  {
    "id": "370222",
    "country": "IN",
    "zipcode": "74131",
    "name": "Mahesganj",
    "region": "West Bengal",
    "short_region": "28",
    "lat": "23.601000",
    "lon": "88.127300"
  },
  {
    "id": "370223",
    "country": "IN",
    "zipcode": "74131",
    "name": "Amghata",
    "region": "West Bengal",
    "short_region": "28",
    "lat": "23.601000",
    "lon": "88.127300"
  },
  {
    "id": "370224",
    "country": "IN",
    "zipcode": "74131",
    "name": "Bahirchara",
    "region": "West Bengal",
    "short_region": "28",
    "lat": "23.601000",
    "lon": "88.127300"
  },
  {
    "id": "370225",
    "country": "IN",
    "zipcode": "74131",
    "name": "Srirampur (Nadia)",
    "region": "West Bengal",
    "short_region": "28",
    "lat": "23.601000",
    "lon": "88.127300"
  },
  {
    "id": "370226",
    "country": "IN",
    "zipcode": "74131",
    "name": "Bablari",
    "region": "West Bengal",
    "short_region": "28",
    "lat": "23.601000",
    "lon": "88.127300"
  },
  {
    "id": "370227",
    "country": "IN",
    "zipcode": "74131",
    "name": "Mahisura",
    "region": "West Bengal",
    "short_region": "28",
    "lat": "23.601000",
    "lon": "88.127300"
  },
  {
    "id": "370228",
    "country": "IN",
    "zipcode": "74131",
    "name": "Idrakpur",
    "region": "West Bengal",
    "short_region": "28",
    "lat": "23.601000",
    "lon": "88.127300"
  },
  {
    "id": "370229",
    "country": "IN",
    "zipcode": "74131",
    "name": "Fakirdanga",
    "region": "West Bengal",
    "short_region": "28",
    "lat": "23.601000",
    "lon": "88.127300"
  },
  {
    "id": "370230",
    "country": "IN",
    "zipcode": "74131",
    "name": "Joania",
    "region": "West Bengal",
    "short_region": "28",
    "lat": "23.601000",
    "lon": "88.127300"
  },
  {
    "id": "370231",
    "country": "IN",
    "zipcode": "74131",
    "name": "Joania Bhaluka",
    "region": "West Bengal",
    "short_region": "28",
    "lat": "23.601000",
    "lon": "88.127300"
  },
  {
    "id": "370232",
    "country": "IN",
    "zipcode": "74131",
    "name": "Aluipara",
    "region": "West Bengal",
    "short_region": "28",
    "lat": "23.601000",
    "lon": "88.127300"
  },
  {
    "id": "370233",
    "country": "IN",
    "zipcode": "74131",
    "name": "Bidyanagar",
    "region": "West Bengal",
    "short_region": "28",
    "lat": "23.601000",
    "lon": "88.127300"
  },
  {
    "id": "370234",
    "country": "IN",
    "zipcode": "74140",
    "name": "Dignagar",
    "region": "West Bengal",
    "short_region": "28",
    "lat": "23.323800",
    "lon": "88.452000"
  },
  {
    "id": "370235",
    "country": "IN",
    "zipcode": "74140",
    "name": "Fulia Colony",
    "region": "West Bengal",
    "short_region": "28",
    "lat": "23.620200",
    "lon": "88.289000"
  },
  {
    "id": "370236",
    "country": "IN",
    "zipcode": "74140",
    "name": "2no.Natunfulia",
    "region": "West Bengal",
    "short_region": "28",
    "lat": "23.620200",
    "lon": "88.289000"
  },
  {
    "id": "370237",
    "country": "IN",
    "zipcode": "74140",
    "name": "Buincha",
    "region": "West Bengal",
    "short_region": "28",
    "lat": "23.620200",
    "lon": "88.289000"
  },
  {
    "id": "370238",
    "country": "IN",
    "zipcode": "74140",
    "name": "Belemath",
    "region": "West Bengal",
    "short_region": "28",
    "lat": "23.620200",
    "lon": "88.289000"
  },
  {
    "id": "370239",
    "country": "IN",
    "zipcode": "74140",
    "name": "Panpara",
    "region": "West Bengal",
    "short_region": "28",
    "lat": "23.620200",
    "lon": "88.289000"
  },
  {
    "id": "370240",
    "country": "IN",
    "zipcode": "74140",
    "name": "Habibpur",
    "region": "West Bengal",
    "short_region": "28",
    "lat": "23.620200",
    "lon": "88.289000"
  },
  {
    "id": "370241",
    "country": "IN",
    "zipcode": "74140",
    "name": "Fulia Boyra",
    "region": "West Bengal",
    "short_region": "28",
    "lat": "23.620200",
    "lon": "88.289000"
  },
  {
    "id": "370242",
    "country": "IN",
    "zipcode": "74140",
    "name": "Gazipur",
    "region": "West Bengal",
    "short_region": "28",
    "lat": "23.482700",
    "lon": "88.521500"
  },
  {
    "id": "370243",
    "country": "IN",
    "zipcode": "74140",
    "name": "Tarapur",
    "region": "West Bengal",
    "short_region": "28",
    "lat": "23.482700",
    "lon": "88.521500"
  },
  {
    "id": "370244",
    "country": "IN",
    "zipcode": "74140",
    "name": "Santipur",
    "region": "West Bengal",
    "short_region": "28",
    "lat": "23.250000",
    "lon": "88.433300"
  },
  {
    "id": "370245",
    "country": "IN",
    "zipcode": "74140",
    "name": "Barabazar",
    "region": "West Bengal",
    "short_region": "28",
    "lat": "23.482700",
    "lon": "88.521500"
  },
  {
    "id": "370246",
    "country": "IN",
    "zipcode": "74140",
    "name": "Nrisinghapur",
    "region": "West Bengal",
    "short_region": "28",
    "lat": "22.908300",
    "lon": "88.391700"
  },
  {
    "id": "370247",
    "country": "IN",
    "zipcode": "74140",
    "name": "Kutirpara",
    "region": "West Bengal",
    "short_region": "28",
    "lat": "22.908300",
    "lon": "88.391700"
  },
  {
    "id": "370248",
    "country": "IN",
    "zipcode": "74140",
    "name": "Santipur College",
    "region": "West Bengal",
    "short_region": "28",
    "lat": "22.908300",
    "lon": "88.391700"
  },
  {
    "id": "370249",
    "country": "IN",
    "zipcode": "74140",
    "name": "Khandakhola",
    "region": "West Bengal",
    "short_region": "28",
    "lat": "22.908300",
    "lon": "88.391700"
  },
  {
    "id": "370250",
    "country": "IN",
    "zipcode": "74140",
    "name": "Haripurnadia",
    "region": "West Bengal",
    "short_region": "28",
    "lat": "22.908300",
    "lon": "88.391700"
  },
  {
    "id": "370251",
    "country": "IN",
    "zipcode": "74140",
    "name": "Gayeshpur Hazratala",
    "region": "West Bengal",
    "short_region": "28",
    "lat": "22.908300",
    "lon": "88.391700"
  },
  {
    "id": "370252",
    "country": "IN",
    "zipcode": "74140",
    "name": "Ghoralia",
    "region": "West Bengal",
    "short_region": "28",
    "lat": "22.908300",
    "lon": "88.391700"
  },
  {
    "id": "370253",
    "country": "IN",
    "zipcode": "74140",
    "name": "Barajiakur",
    "region": "West Bengal",
    "short_region": "28",
    "lat": "22.908300",
    "lon": "88.391700"
  },
  {
    "id": "370254",
    "country": "IN",
    "zipcode": "74140",
    "name": "Bagachra",
    "region": "West Bengal",
    "short_region": "28",
    "lat": "22.908300",
    "lon": "88.391700"
  },
  {
    "id": "370255",
    "country": "IN",
    "zipcode": "74140",
    "name": "Bablagobindapur",
    "region": "West Bengal",
    "short_region": "28",
    "lat": "22.908300",
    "lon": "88.391700"
  },
  {
    "id": "370256",
    "country": "IN",
    "zipcode": "74140",
    "name": "Ramnagarchar",
    "region": "West Bengal",
    "short_region": "28",
    "lat": "22.908300",
    "lon": "88.391700"
  },
  {
    "id": "370257",
    "country": "IN",
    "zipcode": "74140",
    "name": "Sutragarh",
    "region": "West Bengal",
    "short_region": "28",
    "lat": "22.908300",
    "lon": "88.391700"
  },
  {
    "id": "370258",
    "country": "IN",
    "zipcode": "74140",
    "name": "Shyamchandpara",
    "region": "West Bengal",
    "short_region": "28",
    "lat": "22.908300",
    "lon": "88.391700"
  },
  {
    "id": "370259",
    "country": "IN",
    "zipcode": "74140",
    "name": "Santipur RS",
    "region": "West Bengal",
    "short_region": "28",
    "lat": "22.908300",
    "lon": "88.391700"
  },
  {
    "id": "370260",
    "country": "IN",
    "zipcode": "74140",
    "name": "Krishnakalitala",
    "region": "West Bengal",
    "short_region": "28",
    "lat": "22.908300",
    "lon": "88.391700"
  },
  {
    "id": "370261",
    "country": "IN",
    "zipcode": "74140",
    "name": "Ashanandapara Street",
    "region": "West Bengal",
    "short_region": "28",
    "lat": "22.908300",
    "lon": "88.391700"
  },
  {
    "id": "370262",
    "country": "IN",
    "zipcode": "74150",
    "name": "Churni Raghunathpur",
    "region": "West Bengal",
    "short_region": "28",
    "lat": "23.554400",
    "lon": "88.350600"
  },
  {
    "id": "370263",
    "country": "IN",
    "zipcode": "74150",
    "name": "Barbaria",
    "region": "West Bengal",
    "short_region": "28",
    "lat": "23.554400",
    "lon": "88.350600"
  },
  {
    "id": "370264",
    "country": "IN",
    "zipcode": "74150",
    "name": "Panchberia",
    "region": "West Bengal",
    "short_region": "28",
    "lat": "23.554400",
    "lon": "88.350600"
  },
  {
    "id": "370265",
    "country": "IN",
    "zipcode": "74150",
    "name": "Purbanowpara",
    "region": "West Bengal",
    "short_region": "28",
    "lat": "23.554400",
    "lon": "88.350600"
  },
  {
    "id": "370266",
    "country": "IN",
    "zipcode": "74150",
    "name": "Shibnarayanpur",
    "region": "West Bengal",
    "short_region": "28",
    "lat": "23.554400",
    "lon": "88.350600"
  },
  {
    "id": "370267",
    "country": "IN",
    "zipcode": "74150",
    "name": "Hatbahirgachi",
    "region": "West Bengal",
    "short_region": "28",
    "lat": "23.554400",
    "lon": "88.350600"
  },
  {
    "id": "370268",
    "country": "IN",
    "zipcode": "74150",
    "name": "Arangahta",
    "region": "West Bengal",
    "short_region": "28",
    "lat": "23.554400",
    "lon": "88.350600"
  },
  {
    "id": "370269",
    "country": "IN",
    "zipcode": "74150",
    "name": "Mayurhat",
    "region": "West Bengal",
    "short_region": "28",
    "lat": "23.361700",
    "lon": "88.664500"
  },
  {
    "id": "370270",
    "country": "IN",
    "zipcode": "74150",
    "name": "Haldipara",
    "region": "West Bengal",
    "short_region": "28",
    "lat": "23.359100",
    "lon": "88.662500"
  },
  {
    "id": "370271",
    "country": "IN",
    "zipcode": "74150",
    "name": "Ulashi",
    "region": "West Bengal",
    "short_region": "28",
    "lat": "23.359100",
    "lon": "88.662500"
  },
  {
    "id": "370272",
    "country": "IN",
    "zipcode": "74150",
    "name": "Santinagar",
    "region": "West Bengal",
    "short_region": "28",
    "lat": "23.359100",
    "lon": "88.662500"
  },
  {
    "id": "370273",
    "country": "IN",
    "zipcode": "74150",
    "name": "Patikabari",
    "region": "West Bengal",
    "short_region": "28",
    "lat": "23.359100",
    "lon": "88.662500"
  },
  {
    "id": "370274",
    "country": "IN",
    "zipcode": "74150",
    "name": "Nabarupdaha",
    "region": "West Bengal",
    "short_region": "28",
    "lat": "23.359100",
    "lon": "88.662500"
  },
  {
    "id": "370275",
    "country": "IN",
    "zipcode": "74150",
    "name": "Muraghachacolony",
    "region": "West Bengal",
    "short_region": "28",
    "lat": "23.359100",
    "lon": "88.662500"
  },
  {
    "id": "370276",
    "country": "IN",
    "zipcode": "74150",
    "name": "Kumari Ramnagar",
    "region": "West Bengal",
    "short_region": "28",
    "lat": "23.359100",
    "lon": "88.662500"
  },
  {
    "id": "370277",
    "country": "IN",
    "zipcode": "74150",
    "name": "Haritala",
    "region": "West Bengal",
    "short_region": "28",
    "lat": "23.359100",
    "lon": "88.662500"
  },
  {
    "id": "370278",
    "country": "IN",
    "zipcode": "74150",
    "name": "Bhairabchandrapur",
    "region": "West Bengal",
    "short_region": "28",
    "lat": "23.359100",
    "lon": "88.662500"
  },
  {
    "id": "370279",
    "country": "IN",
    "zipcode": "74150",
    "name": "Bhayna",
    "region": "West Bengal",
    "short_region": "28",
    "lat": "23.359100",
    "lon": "88.662500"
  },
  {
    "id": "370280",
    "country": "IN",
    "zipcode": "74150",
    "name": "Garapota-nadia",
    "region": "West Bengal",
    "short_region": "28",
    "lat": "23.359100",
    "lon": "88.662500"
  },
  {
    "id": "370281",
    "country": "IN",
    "zipcode": "74150",
    "name": "Benali",
    "region": "West Bengal",
    "short_region": "28",
    "lat": "23.359100",
    "lon": "88.662500"
  },
  {
    "id": "370282",
    "country": "IN",
    "zipcode": "74150",
    "name": "Chupria",
    "region": "West Bengal",
    "short_region": "28",
    "lat": "23.359100",
    "lon": "88.662500"
  },
  {
    "id": "370283",
    "country": "IN",
    "zipcode": "74150",
    "name": "Bagula",
    "region": "West Bengal",
    "short_region": "28",
    "lat": "23.336600",
    "lon": "88.641100"
  },
  {
    "id": "370284",
    "country": "IN",
    "zipcode": "74150",
    "name": "Taraknagar",
    "region": "West Bengal",
    "short_region": "28",
    "lat": "23.379000",
    "lon": "88.681900"
  },
  {
    "id": "370285",
    "country": "IN",
    "zipcode": "74150",
    "name": "Banpur (Nadia)",
    "region": "West Bengal",
    "short_region": "28",
    "lat": "23.448900",
    "lon": "88.763700"
  },
  {
    "id": "370286",
    "country": "IN",
    "zipcode": "74150",
    "name": "Raghu Nandan Pur",
    "region": "West Bengal",
    "short_region": "28",
    "lat": "23.448900",
    "lon": "88.763700"
  },
  {
    "id": "370287",
    "country": "IN",
    "zipcode": "74150",
    "name": "Gede",
    "region": "West Bengal",
    "short_region": "28",
    "lat": "23.448900",
    "lon": "88.763700"
  },
  {
    "id": "370288",
    "country": "IN",
    "zipcode": "74150",
    "name": "Bijoypur",
    "region": "West Bengal",
    "short_region": "28",
    "lat": "23.448900",
    "lon": "88.763700"
  },
  {
    "id": "370289",
    "country": "IN",
    "zipcode": "74150",
    "name": "Duttapulia",
    "region": "West Bengal",
    "short_region": "28",
    "lat": "23.554400",
    "lon": "88.350600"
  },
  {
    "id": "370290",
    "country": "IN",
    "zipcode": "74150",
    "name": "Baranberia",
    "region": "West Bengal",
    "short_region": "28",
    "lat": "23.554400",
    "lon": "88.350600"
  },
  {
    "id": "370291",
    "country": "IN",
    "zipcode": "74150",
    "name": "Daluabari",
    "region": "West Bengal",
    "short_region": "28",
    "lat": "23.554400",
    "lon": "88.350600"
  },
  {
    "id": "370292",
    "country": "IN",
    "zipcode": "74150",
    "name": "Gobindapur",
    "region": "West Bengal",
    "short_region": "28",
    "lat": "23.482700",
    "lon": "88.521500"
  },
  {
    "id": "370293",
    "country": "IN",
    "zipcode": "74150",
    "name": "Betna",
    "region": "West Bengal",
    "short_region": "28",
    "lat": "23.459700",
    "lon": "88.251600"
  },
  {
    "id": "370294",
    "country": "IN",
    "zipcode": "74150",
    "name": "Hanskhali",
    "region": "West Bengal",
    "short_region": "28",
    "lat": "23.459700",
    "lon": "88.251600"
  },
  {
    "id": "370295",
    "country": "IN",
    "zipcode": "74150",
    "name": "Daharbuincha",
    "region": "West Bengal",
    "short_region": "28",
    "lat": "23.459700",
    "lon": "88.251600"
  },
  {
    "id": "370296",
    "country": "IN",
    "zipcode": "74150",
    "name": "Krishnaganj",
    "region": "West Bengal",
    "short_region": "28",
    "lat": "23.290000",
    "lon": "88.185300"
  },
  {
    "id": "370297",
    "country": "IN",
    "zipcode": "74150",
    "name": "Swarnakhali",
    "region": "West Bengal",
    "short_region": "28",
    "lat": "23.290000",
    "lon": "88.185300"
  },
  {
    "id": "370298",
    "country": "IN",
    "zipcode": "74150",
    "name": "Durgapur",
    "region": "West Bengal",
    "short_region": "28",
    "lat": "23.482700",
    "lon": "88.521500"
  },
  {
    "id": "370299",
    "country": "IN",
    "zipcode": "74150",
    "name": "Tangra",
    "region": "West Bengal",
    "short_region": "28",
    "lat": "23.482700",
    "lon": "88.521500"
  },
  {
    "id": "370300",
    "country": "IN",
    "zipcode": "74150",
    "name": "Taldaha",
    "region": "West Bengal",
    "short_region": "28",
    "lat": "24.139200",
    "lon": "87.854200"
  },
  {
    "id": "370301",
    "country": "IN",
    "zipcode": "74150",
    "name": "Putikhali",
    "region": "West Bengal",
    "short_region": "28",
    "lat": "24.139200",
    "lon": "87.854200"
  },
  {
    "id": "370302",
    "country": "IN",
    "zipcode": "74150",
    "name": "Gazna",
    "region": "West Bengal",
    "short_region": "28",
    "lat": "24.139200",
    "lon": "87.854200"
  },
  {
    "id": "370303",
    "country": "IN",
    "zipcode": "74150",
    "name": "Fatepur Majdia",
    "region": "West Bengal",
    "short_region": "28",
    "lat": "24.139200",
    "lon": "87.854200"
  },
  {
    "id": "370304",
    "country": "IN",
    "zipcode": "74150",
    "name": "Bathangachi",
    "region": "West Bengal",
    "short_region": "28",
    "lat": "24.139200",
    "lon": "87.854200"
  },
  {
    "id": "370305",
    "country": "IN",
    "zipcode": "74150",
    "name": "Bhajanghat",
    "region": "West Bengal",
    "short_region": "28",
    "lat": "24.139200",
    "lon": "87.854200"
  },
  {
    "id": "370306",
    "country": "IN",
    "zipcode": "74150",
    "name": "Majdia",
    "region": "West Bengal",
    "short_region": "28",
    "lat": "24.139200",
    "lon": "87.854200"
  },
  {
    "id": "370307",
    "country": "IN",
    "zipcode": "74150",
    "name": "Mathurapur",
    "region": "West Bengal",
    "short_region": "28",
    "lat": "23.482700",
    "lon": "88.521500"
  },
  {
    "id": "370308",
    "country": "IN",
    "zipcode": "74150",
    "name": "Maheshpur",
    "region": "West Bengal",
    "short_region": "28",
    "lat": "23.482700",
    "lon": "88.521500"
  },
  {
    "id": "370309",
    "country": "IN",
    "zipcode": "74150",
    "name": "Khalboalia",
    "region": "West Bengal",
    "short_region": "28",
    "lat": "24.284300",
    "lon": "87.927700"
  },
  {
    "id": "370310",
    "country": "IN",
    "zipcode": "74150",
    "name": "Nadiasumalia",
    "region": "West Bengal",
    "short_region": "28",
    "lat": "24.284300",
    "lon": "87.927700"
  },
  {
    "id": "370311",
    "country": "IN",
    "zipcode": "74150",
    "name": "Joyghata",
    "region": "West Bengal",
    "short_region": "28",
    "lat": "24.284300",
    "lon": "87.927700"
  },
  {
    "id": "370312",
    "country": "IN",
    "zipcode": "74150",
    "name": "Digambarpur",
    "region": "West Bengal",
    "short_region": "28",
    "lat": "23.482700",
    "lon": "88.521500"
  },
  {
    "id": "370313",
    "country": "IN",
    "zipcode": "74150",
    "name": "Shibnibas",
    "region": "West Bengal",
    "short_region": "28",
    "lat": "23.554400",
    "lon": "88.350600"
  },
  {
    "id": "370314",
    "country": "IN",
    "zipcode": "74150",
    "name": "Chowgacha",
    "region": "West Bengal",
    "short_region": "28",
    "lat": "23.554400",
    "lon": "88.350600"
  },
  {
    "id": "370315",
    "country": "IN",
    "zipcode": "74150",
    "name": "Chandannagar (Nadia)",
    "region": "West Bengal",
    "short_region": "28",
    "lat": "23.554400",
    "lon": "88.350600"
  },
  {
    "id": "370316",
    "country": "IN",
    "zipcode": "70004",
    "name": "Patipukur",
    "region": "West Bengal",
    "short_region": "28",
    "lat": "22.600000",
    "lon": "88.400000"
  },
  {
    "id": "370317",
    "country": "IN",
    "zipcode": "70004",
    "name": "Sreebhumi",
    "region": "West Bengal",
    "short_region": "28",
    "lat": "22.600000",
    "lon": "88.400000"
  },
  {
    "id": "370318",
    "country": "IN",
    "zipcode": "70004",
    "name": "Sadhana Ausudhalaya Road",
    "region": "West Bengal",
    "short_region": "28",
    "lat": "22.600000",
    "lon": "88.400000"
  },
  {
    "id": "370319",
    "country": "IN",
    "zipcode": "70004",
    "name": "Nimta",
    "region": "West Bengal",
    "short_region": "28",
    "lat": "22.533300",
    "lon": "88.391700"
  },
  {
    "id": "370320",
    "country": "IN",
    "zipcode": "70004",
    "name": "Udaipur",
    "region": "West Bengal",
    "short_region": "28",
    "lat": "22.533300",
    "lon": "88.391700"
  },
  {
    "id": "370321",
    "country": "IN",
    "zipcode": "70005",
    "name": "Birati",
    "region": "West Bengal",
    "short_region": "28",
    "lat": "24.375000",
    "lon": "87.803300"
  },
  {
    "id": "370322",
    "country": "IN",
    "zipcode": "70005",
    "name": "Sultanpur",
    "region": "West Bengal",
    "short_region": "28",
    "lat": "22.465300",
    "lon": "88.780300"
  },
  {
    "id": "370323",
    "country": "IN",
    "zipcode": "70005",
    "name": "Shyam Nagar Dum Dum",
    "region": "West Bengal",
    "short_region": "28",
    "lat": "23.394500",
    "lon": "88.255900"
  },
  {
    "id": "370324",
    "country": "IN",
    "zipcode": "70005",
    "name": "Dum Dum Park",
    "region": "West Bengal",
    "short_region": "28",
    "lat": "23.394500",
    "lon": "88.255900"
  },
  {
    "id": "370325",
    "country": "IN",
    "zipcode": "70005",
    "name": "Bangur Avenue",
    "region": "West Bengal",
    "short_region": "28",
    "lat": "23.394500",
    "lon": "88.255900"
  },
  {
    "id": "370326",
    "country": "IN",
    "zipcode": "70005",
    "name": "Rani Park",
    "region": "West Bengal",
    "short_region": "28",
    "lat": "23.394500",
    "lon": "88.255900"
  },
  {
    "id": "370327",
    "country": "IN",
    "zipcode": "70005",
    "name": "Texmaco",
    "region": "West Bengal",
    "short_region": "28",
    "lat": "23.394500",
    "lon": "88.255900"
  },
  {
    "id": "370328",
    "country": "IN",
    "zipcode": "70005",
    "name": "Belgharia Mohini Mills",
    "region": "West Bengal",
    "short_region": "28",
    "lat": "23.394500",
    "lon": "88.255900"
  },
  {
    "id": "370329",
    "country": "IN",
    "zipcode": "70005",
    "name": "Belgharia H.O",
    "region": "West Bengal",
    "short_region": "28",
    "lat": "23.394500",
    "lon": "88.255900"
  },
  {
    "id": "370330",
    "country": "IN",
    "zipcode": "70005",
    "name": "South Belgharia",
    "region": "West Bengal",
    "short_region": "28",
    "lat": "23.394500",
    "lon": "88.255900"
  },
  {
    "id": "370331",
    "country": "IN",
    "zipcode": "70005",
    "name": "Rathtala",
    "region": "West Bengal",
    "short_region": "28",
    "lat": "23.394500",
    "lon": "88.255900"
  },
  {
    "id": "370332",
    "country": "IN",
    "zipcode": "70005",
    "name": "Nowdapara",
    "region": "West Bengal",
    "short_region": "28",
    "lat": "23.394500",
    "lon": "88.255900"
  },
  {
    "id": "370333",
    "country": "IN",
    "zipcode": "70005",
    "name": "Ariadaha",
    "region": "West Bengal",
    "short_region": "28",
    "lat": "23.394500",
    "lon": "88.255900"
  },
  {
    "id": "370334",
    "country": "IN",
    "zipcode": "70005",
    "name": "Elias Road",
    "region": "West Bengal",
    "short_region": "28",
    "lat": "22.671100",
    "lon": "88.374700"
  },
  {
    "id": "370335",
    "country": "IN",
    "zipcode": "70005",
    "name": "Kamarhati",
    "region": "West Bengal",
    "short_region": "28",
    "lat": "22.671100",
    "lon": "88.374700"
  },
  {
    "id": "370336",
    "country": "IN",
    "zipcode": "70005",
    "name": "Desh Bandhu Nagar",
    "region": "West Bengal",
    "short_region": "28",
    "lat": "22.569700",
    "lon": "88.369700"
  },
  {
    "id": "370337",
    "country": "IN",
    "zipcode": "70005",
    "name": "Gouranganagar",
    "region": "West Bengal",
    "short_region": "28",
    "lat": "22.569700",
    "lon": "88.369700"
  },
  {
    "id": "370338",
    "country": "IN",
    "zipcode": "70005",
    "name": "Baguiati Super Market",
    "region": "West Bengal",
    "short_region": "28",
    "lat": "22.569700",
    "lon": "88.369700"
  },
  {
    "id": "370339",
    "country": "IN",
    "zipcode": "70005",
    "name": "Arjunpur",
    "region": "West Bengal",
    "short_region": "28",
    "lat": "22.569700",
    "lon": "88.369700"
  },
  {
    "id": "370340",
    "country": "IN",
    "zipcode": "70005",
    "name": "Raghunathpur",
    "region": "West Bengal",
    "short_region": "28",
    "lat": "22.569700",
    "lon": "88.369700"
  },
  {
    "id": "370341",
    "country": "IN",
    "zipcode": "70006",
    "name": "Labony Estate",
    "region": "West Bengal",
    "short_region": "28",
    "lat": "22.483900",
    "lon": "88.303800"
  },
  {
    "id": "370342",
    "country": "IN",
    "zipcode": "70006",
    "name": "Bidhannagr CC Block",
    "region": "West Bengal",
    "short_region": "28",
    "lat": "22.483900",
    "lon": "88.303800"
  },
  {
    "id": "370343",
    "country": "IN",
    "zipcode": "70006",
    "name": "Bidhan Nagar",
    "region": "West Bengal",
    "short_region": "28",
    "lat": "22.483900",
    "lon": "88.303800"
  },
  {
    "id": "370344",
    "country": "IN",
    "zipcode": "70006",
    "name": "Bidhan Nagar AE Market",
    "region": "West Bengal",
    "short_region": "28",
    "lat": "22.483900",
    "lon": "88.303800"
  },
  {
    "id": "370345",
    "country": "IN",
    "zipcode": "70007",
    "name": "Dakshineswar",
    "region": "West Bengal",
    "short_region": "28",
    "lat": "22.655700",
    "lon": "88.367200"
  },
  {
    "id": "370346",
    "country": "IN",
    "zipcode": "70007",
    "name": "Italghacha",
    "region": "West Bengal",
    "short_region": "28",
    "lat": "22.588000",
    "lon": "88.318500"
  },
  {
    "id": "370347",
    "country": "IN",
    "zipcode": "70008",
    "name": "Rajbari Colony",
    "region": "West Bengal",
    "short_region": "28",
    "lat": "22.334100",
    "lon": "88.306500"
  },
  {
    "id": "370348",
    "country": "IN",
    "zipcode": "70008",
    "name": "East Belghoria",
    "region": "West Bengal",
    "short_region": "28",
    "lat": "22.080800",
    "lon": "88.146100"
  },
  {
    "id": "370349",
    "country": "IN",
    "zipcode": "70008",
    "name": "Deshopriya Nagar",
    "region": "West Bengal",
    "short_region": "28",
    "lat": "22.080800",
    "lon": "88.146100"
  },
  {
    "id": "370350",
    "country": "IN",
    "zipcode": "70008",
    "name": "Nandan Nagar",
    "region": "West Bengal",
    "short_region": "28",
    "lat": "22.080800",
    "lon": "88.146100"
  },
  {
    "id": "370351",
    "country": "IN",
    "zipcode": "70008",
    "name": "Basudebpur",
    "region": "West Bengal",
    "short_region": "28",
    "lat": "22.465300",
    "lon": "88.780300"
  },
  {
    "id": "370352",
    "country": "IN",
    "zipcode": "70008",
    "name": "Lake Town (North 24 Parganas)",
    "region": "West Bengal",
    "short_region": "28",
    "lat": "22.334100",
    "lon": "88.306500"
  },
  {
    "id": "370353",
    "country": "IN",
    "zipcode": "70009",
    "name": "Sech Bhawan",
    "region": "West Bengal",
    "short_region": "28",
    "lat": "22.448500",
    "lon": "88.388300"
  },
  {
    "id": "370354",
    "country": "IN",
    "zipcode": "70009",
    "name": "Bidhan Nagar CK Market",
    "region": "West Bengal",
    "short_region": "28",
    "lat": "22.448500",
    "lon": "88.388300"
  },
  {
    "id": "370355",
    "country": "IN",
    "zipcode": "70009",
    "name": "Temporary P.O. (W.B.B.S.E)",
    "region": "West Bengal",
    "short_region": "28",
    "lat": "22.448500",
    "lon": "88.388300"
  },
  {
    "id": "370356",
    "country": "IN",
    "zipcode": "70009",
    "name": "Nabadiganta IT",
    "region": "West Bengal",
    "short_region": "28",
    "lat": "22.448500",
    "lon": "88.388300"
  },
  {
    "id": "370357",
    "country": "IN",
    "zipcode": "70009",
    "name": "Purbachal",
    "region": "West Bengal",
    "short_region": "28",
    "lat": "22.448500",
    "lon": "88.388300"
  },
  {
    "id": "370358",
    "country": "IN",
    "zipcode": "70010",
    "name": "Prafulla Kanan",
    "region": "West Bengal",
    "short_region": "28",
    "lat": "22.966000",
    "lon": "88.203600"
  },
  {
    "id": "370359",
    "country": "IN",
    "zipcode": "70010",
    "name": "Krishnapur (North 24 Parganas)",
    "region": "West Bengal",
    "short_region": "28",
    "lat": "22.966000",
    "lon": "88.203600"
  },
  {
    "id": "370360",
    "country": "IN",
    "zipcode": "70010",
    "name": "Nowbhanga",
    "region": "West Bengal",
    "short_region": "28",
    "lat": "22.966000",
    "lon": "88.203600"
  },
  {
    "id": "370361",
    "country": "IN",
    "zipcode": "70010",
    "name": "Bidhan Nagar IB Market",
    "region": "West Bengal",
    "short_region": "28",
    "lat": "22.966000",
    "lon": "88.203600"
  },
  {
    "id": "370362",
    "country": "IN",
    "zipcode": "70010",
    "name": "Agarpara",
    "region": "West Bengal",
    "short_region": "28",
    "lat": "22.683300",
    "lon": "88.366700"
  },
  {
    "id": "370363",
    "country": "IN",
    "zipcode": "70011",
    "name": "Jugberia",
    "region": "West Bengal",
    "short_region": "28",
    "lat": "22.737900",
    "lon": "88.342700"
  },
  {
    "id": "370364",
    "country": "IN",
    "zipcode": "70011",
    "name": "Bijoypur",
    "region": "West Bengal",
    "short_region": "28",
    "lat": "22.737900",
    "lon": "88.342700"
  },
  {
    "id": "370365",
    "country": "IN",
    "zipcode": "70011",
    "name": "Ramchandra Pur",
    "region": "West Bengal",
    "short_region": "28",
    "lat": "22.737900",
    "lon": "88.342700"
  },
  {
    "id": "370366",
    "country": "IN",
    "zipcode": "70011",
    "name": "Sodepur GHE",
    "region": "West Bengal",
    "short_region": "28",
    "lat": "22.737900",
    "lon": "88.342700"
  },
  {
    "id": "370367",
    "country": "IN",
    "zipcode": "70011",
    "name": "Tirtha Bharati",
    "region": "West Bengal",
    "short_region": "28",
    "lat": "22.737900",
    "lon": "88.342700"
  },
  {
    "id": "370368",
    "country": "IN",
    "zipcode": "70011",
    "name": "Sodepur",
    "region": "West Bengal",
    "short_region": "28",
    "lat": "22.737900",
    "lon": "88.342700"
  },
  {
    "id": "370369",
    "country": "IN",
    "zipcode": "70011",
    "name": "Chandpur Leningarh",
    "region": "West Bengal",
    "short_region": "28",
    "lat": "22.737900",
    "lon": "88.342700"
  },
  {
    "id": "370370",
    "country": "IN",
    "zipcode": "70011",
    "name": "Ghola",
    "region": "West Bengal",
    "short_region": "28",
    "lat": "22.690900",
    "lon": "88.407700"
  },
  {
    "id": "370371",
    "country": "IN",
    "zipcode": "70011",
    "name": "Ghola Bazar",
    "region": "West Bengal",
    "short_region": "28",
    "lat": "22.690900",
    "lon": "88.407700"
  },
  {
    "id": "370372",
    "country": "IN",
    "zipcode": "70011",
    "name": "Kalyan Nagar Cooperative Society B.",
    "region": "West Bengal",
    "short_region": "28",
    "lat": "22.737900",
    "lon": "88.342700"
  },
  {
    "id": "370373",
    "country": "IN",
    "zipcode": "70011",
    "name": "Pansila",
    "region": "West Bengal",
    "short_region": "28",
    "lat": "22.737900",
    "lon": "88.342700"
  },
  {
    "id": "370374",
    "country": "IN",
    "zipcode": "70011",
    "name": "Karnamadhabpur",
    "region": "West Bengal",
    "short_region": "28",
    "lat": "22.737900",
    "lon": "88.342700"
  },
  {
    "id": "370375",
    "country": "IN",
    "zipcode": "70011",
    "name": "Panchanantala",
    "region": "West Bengal",
    "short_region": "28",
    "lat": "22.737900",
    "lon": "88.342700"
  },
  {
    "id": "370376",
    "country": "IN",
    "zipcode": "70011",
    "name": "Natagarh",
    "region": "West Bengal",
    "short_region": "28",
    "lat": "22.737900",
    "lon": "88.342700"
  },
  {
    "id": "370377",
    "country": "IN",
    "zipcode": "70011",
    "name": "Bangodaya",
    "region": "West Bengal",
    "short_region": "28",
    "lat": "22.690900",
    "lon": "88.374000"
  },
  {
    "id": "370378",
    "country": "IN",
    "zipcode": "70011",
    "name": "Panihati",
    "region": "West Bengal",
    "short_region": "28",
    "lat": "22.690900",
    "lon": "88.374000"
  },
  {
    "id": "370379",
    "country": "IN",
    "zipcode": "70011",
    "name": "Sukchar (North 24 Parganas)",
    "region": "West Bengal",
    "short_region": "28",
    "lat": "22.737900",
    "lon": "88.342700"
  },
  {
    "id": "370380",
    "country": "IN",
    "zipcode": "70011",
    "name": "B.D.Sopan",
    "region": "West Bengal",
    "short_region": "28",
    "lat": "22.737900",
    "lon": "88.342700"
  },
  {
    "id": "370381",
    "country": "IN",
    "zipcode": "70011",
    "name": "Surya Sen Nagar",
    "region": "West Bengal",
    "short_region": "28",
    "lat": "22.718600",
    "lon": "88.378100"
  },
  {
    "id": "370382",
    "country": "IN",
    "zipcode": "70011",
    "name": "Jeliapara",
    "region": "West Bengal",
    "short_region": "28",
    "lat": "22.718600",
    "lon": "88.378100"
  },
  {
    "id": "370383",
    "country": "IN",
    "zipcode": "70011",
    "name": "Khardah",
    "region": "West Bengal",
    "short_region": "28",
    "lat": "22.718600",
    "lon": "88.378100"
  },
  {
    "id": "370384",
    "country": "IN",
    "zipcode": "70011",
    "name": "Rahara",
    "region": "West Bengal",
    "short_region": "28",
    "lat": "22.737900",
    "lon": "88.342700"
  },
  {
    "id": "370385",
    "country": "IN",
    "zipcode": "70011",
    "name": "Patulia",
    "region": "West Bengal",
    "short_region": "28",
    "lat": "22.794500",
    "lon": "88.276900"
  },
  {
    "id": "370386",
    "country": "IN",
    "zipcode": "70011",
    "name": "Bramhasthan",
    "region": "West Bengal",
    "short_region": "28",
    "lat": "22.794500",
    "lon": "88.276900"
  },
  {
    "id": "370387",
    "country": "IN",
    "zipcode": "70011",
    "name": "Titagarh",
    "region": "West Bengal",
    "short_region": "28",
    "lat": "22.742500",
    "lon": "88.373300"
  },
  {
    "id": "370388",
    "country": "IN",
    "zipcode": "70011",
    "name": "Bishalakshi Ghat",
    "region": "West Bengal",
    "short_region": "28",
    "lat": "22.794500",
    "lon": "88.276900"
  },
  {
    "id": "370389",
    "country": "IN",
    "zipcode": "70011",
    "name": "Bandipur",
    "region": "West Bengal",
    "short_region": "28",
    "lat": "22.465300",
    "lon": "88.780300"
  },
  {
    "id": "370390",
    "country": "IN",
    "zipcode": "70012",
    "name": "Barrackpore Bazar",
    "region": "West Bengal",
    "short_region": "28",
    "lat": "22.884800",
    "lon": "88.346900"
  },
  {
    "id": "370391",
    "country": "IN",
    "zipcode": "70012",
    "name": "Barrackpore Govt.Housing",
    "region": "West Bengal",
    "short_region": "28",
    "lat": "22.884800",
    "lon": "88.346900"
  },
  {
    "id": "370392",
    "country": "IN",
    "zipcode": "70012",
    "name": "Monirampore",
    "region": "West Bengal",
    "short_region": "28",
    "lat": "22.884800",
    "lon": "88.346900"
  },
  {
    "id": "370393",
    "country": "IN",
    "zipcode": "70012",
    "name": "Orderly Bazar",
    "region": "West Bengal",
    "short_region": "28",
    "lat": "22.884800",
    "lon": "88.346900"
  },
  {
    "id": "370394",
    "country": "IN",
    "zipcode": "70012",
    "name": "Ghosh Para Road",
    "region": "West Bengal",
    "short_region": "28",
    "lat": "22.884800",
    "lon": "88.346900"
  },
  {
    "id": "370395",
    "country": "IN",
    "zipcode": "70012",
    "name": "Vivekananda Math",
    "region": "West Bengal",
    "short_region": "28",
    "lat": "22.884800",
    "lon": "88.346900"
  },
  {
    "id": "370396",
    "country": "IN",
    "zipcode": "70012",
    "name": "Nayapally",
    "region": "West Bengal",
    "short_region": "28",
    "lat": "22.884800",
    "lon": "88.346900"
  },
  {
    "id": "370397",
    "country": "IN",
    "zipcode": "70012",
    "name": "Barrackpore H.O",
    "region": "West Bengal",
    "short_region": "28",
    "lat": "22.884800",
    "lon": "88.346900"
  },
  {
    "id": "370398",
    "country": "IN",
    "zipcode": "70012",
    "name": "Nilganj Bazaar",
    "region": "West Bengal",
    "short_region": "28",
    "lat": "22.884800",
    "lon": "88.346900"
  },
  {
    "id": "370399",
    "country": "IN",
    "zipcode": "70012",
    "name": "Beraberia",
    "region": "West Bengal",
    "short_region": "28",
    "lat": "22.884800",
    "lon": "88.346900"
  },
  {
    "id": "370400",
    "country": "IN",
    "zipcode": "70012",
    "name": "Suryapur",
    "region": "West Bengal",
    "short_region": "28",
    "lat": "22.884800",
    "lon": "88.346900"
  },
  {
    "id": "370401",
    "country": "IN",
    "zipcode": "70012",
    "name": "Sewli Telinipara",
    "region": "West Bengal",
    "short_region": "28",
    "lat": "22.884800",
    "lon": "88.346900"
  },
  {
    "id": "370402",
    "country": "IN",
    "zipcode": "70012",
    "name": "Nonachandanpukur",
    "region": "West Bengal",
    "short_region": "28",
    "lat": "22.884800",
    "lon": "88.346900"
  },
  {
    "id": "370403",
    "country": "IN",
    "zipcode": "70012",
    "name": "Jaffarpur",
    "region": "West Bengal",
    "short_region": "28",
    "lat": "22.884800",
    "lon": "88.346900"
  },
  {
    "id": "370404",
    "country": "IN",
    "zipcode": "70012",
    "name": "Anandapuri",
    "region": "West Bengal",
    "short_region": "28",
    "lat": "22.884800",
    "lon": "88.346900"
  },
  {
    "id": "370405",
    "country": "IN",
    "zipcode": "70012",
    "name": "Panpara (North 24 Parganas)",
    "region": "West Bengal",
    "short_region": "28",
    "lat": "22.884800",
    "lon": "88.346900"
  },
  {
    "id": "370406",
    "country": "IN",
    "zipcode": "70012",
    "name": "Barrackpore RS",
    "region": "West Bengal",
    "short_region": "28",
    "lat": "22.884800",
    "lon": "88.346900"
  },
  {
    "id": "370407",
    "country": "IN",
    "zipcode": "70012",
    "name": "Talpukur",
    "region": "West Bengal",
    "short_region": "28",
    "lat": "22.884800",
    "lon": "88.346900"
  },
  {
    "id": "370408",
    "country": "IN",
    "zipcode": "70012",
    "name": "Sethpukur",
    "region": "West Bengal",
    "short_region": "28",
    "lat": "22.884800",
    "lon": "88.346900"
  },
  {
    "id": "370409",
    "country": "IN",
    "zipcode": "70012",
    "name": "Barasat Bazar",
    "region": "West Bengal",
    "short_region": "28",
    "lat": "22.884800",
    "lon": "88.346900"
  },
  {
    "id": "370410",
    "country": "IN",
    "zipcode": "70012",
    "name": "Barasat H.O",
    "region": "West Bengal",
    "short_region": "28",
    "lat": "22.884800",
    "lon": "88.346900"
  },
  {
    "id": "370411",
    "country": "IN",
    "zipcode": "70012",
    "name": "Noapara Madhavpur",
    "region": "West Bengal",
    "short_region": "28",
    "lat": "22.757200",
    "lon": "88.455600"
  },
  {
    "id": "370412",
    "country": "IN",
    "zipcode": "70012",
    "name": "Kadambagachi",
    "region": "West Bengal",
    "short_region": "28",
    "lat": "22.757200",
    "lon": "88.455600"
  },
  {
    "id": "370413",
    "country": "IN",
    "zipcode": "70012",
    "name": "Mirhati",
    "region": "West Bengal",
    "short_region": "28",
    "lat": "22.757200",
    "lon": "88.455600"
  },
  {
    "id": "370414",
    "country": "IN",
    "zipcode": "70012",
    "name": "Noapara (North 24 Parganas)",
    "region": "West Bengal",
    "short_region": "28",
    "lat": "22.757200",
    "lon": "88.455600"
  },
  {
    "id": "370415",
    "country": "IN",
    "zipcode": "70012",
    "name": "Kamdevpur",
    "region": "West Bengal",
    "short_region": "28",
    "lat": "22.757200",
    "lon": "88.455600"
  },
  {
    "id": "370416",
    "country": "IN",
    "zipcode": "70012",
    "name": "Kazipara",
    "region": "West Bengal",
    "short_region": "28",
    "lat": "22.757200",
    "lon": "88.455600"
  },
  {
    "id": "370417",
    "country": "IN",
    "zipcode": "70012",
    "name": "Khilkapur",
    "region": "West Bengal",
    "short_region": "28",
    "lat": "22.757200",
    "lon": "88.455600"
  },
  {
    "id": "370418",
    "country": "IN",
    "zipcode": "70012",
    "name": "Malikapur",
    "region": "West Bengal",
    "short_region": "28",
    "lat": "22.649400",
    "lon": "88.289700"
  },
  {
    "id": "370419",
    "country": "IN",
    "zipcode": "70012",
    "name": "Nabapally",
    "region": "West Bengal",
    "short_region": "28",
    "lat": "22.649400",
    "lon": "88.289700"
  },
  {
    "id": "370420",
    "country": "IN",
    "zipcode": "70012",
    "name": "Bodai",
    "region": "West Bengal",
    "short_region": "28",
    "lat": "22.800400",
    "lon": "88.486400"
  },
  {
    "id": "370421",
    "country": "IN",
    "zipcode": "70012",
    "name": "Jagannathpur",
    "region": "West Bengal",
    "short_region": "28",
    "lat": "22.465300",
    "lon": "88.780300"
  },
  {
    "id": "370422",
    "country": "IN",
    "zipcode": "70012",
    "name": "Hridaypur",
    "region": "West Bengal",
    "short_region": "28",
    "lat": "22.701700",
    "lon": "88.469500"
  },
  {
    "id": "370423",
    "country": "IN",
    "zipcode": "70012",
    "name": "Badu (North 24 Parganas)",
    "region": "West Bengal",
    "short_region": "28",
    "lat": "22.688000",
    "lon": "88.506300"
  },
  {
    "id": "370424",
    "country": "IN",
    "zipcode": "70012",
    "name": "Kirtipur",
    "region": "West Bengal",
    "short_region": "28",
    "lat": "22.465300",
    "lon": "88.780300"
  },
  {
    "id": "370425",
    "country": "IN",
    "zipcode": "70012",
    "name": "Mudiahat",
    "region": "West Bengal",
    "short_region": "28",
    "lat": "23.373300",
    "lon": "88.239100"
  },
  {
    "id": "370426",
    "country": "IN",
    "zipcode": "70012",
    "name": "Bhagyamantapur",
    "region": "West Bengal",
    "short_region": "28",
    "lat": "23.373300",
    "lon": "88.239100"
  },
  {
    "id": "370427",
    "country": "IN",
    "zipcode": "70012",
    "name": "Madanpur Krishnapur",
    "region": "West Bengal",
    "short_region": "28",
    "lat": "23.373300",
    "lon": "88.239100"
  },
  {
    "id": "370428",
    "country": "IN",
    "zipcode": "70012",
    "name": "East Udayrajpur",
    "region": "West Bengal",
    "short_region": "28",
    "lat": "22.689400",
    "lon": "88.445900"
  },
  {
    "id": "370429",
    "country": "IN",
    "zipcode": "70012",
    "name": "Udayrajpur",
    "region": "West Bengal",
    "short_region": "28",
    "lat": "22.689400",
    "lon": "88.445900"
  },
  {
    "id": "370430",
    "country": "IN",
    "zipcode": "70012",
    "name": "Madhyamgram",
    "region": "West Bengal",
    "short_region": "28",
    "lat": "22.689400",
    "lon": "88.445900"
  },
  {
    "id": "370431",
    "country": "IN",
    "zipcode": "70013",
    "name": "Korachandigarh",
    "region": "West Bengal",
    "short_region": "28",
    "lat": "22.571900",
    "lon": "88.394000"
  },
  {
    "id": "370432",
    "country": "IN",
    "zipcode": "70013",
    "name": "Madhyamgram Bazar",
    "region": "West Bengal",
    "short_region": "28",
    "lat": "22.571900",
    "lon": "88.394000"
  },
  {
    "id": "370433",
    "country": "IN",
    "zipcode": "70013",
    "name": "Taldharia Kapasia",
    "region": "West Bengal",
    "short_region": "28",
    "lat": "22.571900",
    "lon": "88.394000"
  },
  {
    "id": "370434",
    "country": "IN",
    "zipcode": "70013",
    "name": "Kodalia Agapur",
    "region": "West Bengal",
    "short_region": "28",
    "lat": "22.571900",
    "lon": "88.394000"
  },
  {
    "id": "370435",
    "country": "IN",
    "zipcode": "70013",
    "name": "Newbarackpur",
    "region": "West Bengal",
    "short_region": "28",
    "lat": "22.571900",
    "lon": "88.394000"
  },
  {
    "id": "370436",
    "country": "IN",
    "zipcode": "70013",
    "name": "Sajirhat",
    "region": "West Bengal",
    "short_region": "28",
    "lat": "22.571900",
    "lon": "88.394000"
  },
  {
    "id": "370437",
    "country": "IN",
    "zipcode": "70013",
    "name": "Aharampur",
    "region": "West Bengal",
    "short_region": "28",
    "lat": "22.571900",
    "lon": "88.394000"
  },
  {
    "id": "370438",
    "country": "IN",
    "zipcode": "70013",
    "name": "Ganti",
    "region": "West Bengal",
    "short_region": "28",
    "lat": "22.571900",
    "lon": "88.394000"
  },
  {
    "id": "370439",
    "country": "IN",
    "zipcode": "70013",
    "name": "Ganganagar (North 24 Parganas)",
    "region": "West Bengal",
    "short_region": "28",
    "lat": "22.571900",
    "lon": "88.394000"
  },
  {
    "id": "370440",
    "country": "IN",
    "zipcode": "70013",
    "name": "Michealnagar",
    "region": "West Bengal",
    "short_region": "28",
    "lat": "22.571900",
    "lon": "88.394000"
  },
  {
    "id": "370441",
    "country": "IN",
    "zipcode": "70013",
    "name": "Nilachal",
    "region": "West Bengal",
    "short_region": "28",
    "lat": "22.571900",
    "lon": "88.394000"
  },
  {
    "id": "370442",
    "country": "IN",
    "zipcode": "70013",
    "name": "Matiaghata",
    "region": "West Bengal",
    "short_region": "28",
    "lat": "22.586400",
    "lon": "88.414500"
  },
  {
    "id": "370443",
    "country": "IN",
    "zipcode": "70013",
    "name": "Rajarhat Deara",
    "region": "West Bengal",
    "short_region": "28",
    "lat": "22.586400",
    "lon": "88.414500"
  },
  {
    "id": "370444",
    "country": "IN",
    "zipcode": "70013",
    "name": "Sikharpur",
    "region": "West Bengal",
    "short_region": "28",
    "lat": "22.586400",
    "lon": "88.414500"
  },
  {
    "id": "370445",
    "country": "IN",
    "zipcode": "70013",
    "name": "Kamduni",
    "region": "West Bengal",
    "short_region": "28",
    "lat": "22.586400",
    "lon": "88.414500"
  },
  {
    "id": "370446",
    "country": "IN",
    "zipcode": "70013",
    "name": "Kashinathpur",
    "region": "West Bengal",
    "short_region": "28",
    "lat": "22.586400",
    "lon": "88.414500"
  },
  {
    "id": "370447",
    "country": "IN",
    "zipcode": "70013",
    "name": "Satbhaya",
    "region": "West Bengal",
    "short_region": "28",
    "lat": "22.586400",
    "lon": "88.414500"
  },
  {
    "id": "370448",
    "country": "IN",
    "zipcode": "70013",
    "name": "Rajarhat Bishnupur",
    "region": "West Bengal",
    "short_region": "28",
    "lat": "22.586400",
    "lon": "88.414500"
  },
  {
    "id": "370449",
    "country": "IN",
    "zipcode": "70013",
    "name": "Lauhati",
    "region": "West Bengal",
    "short_region": "28",
    "lat": "22.586400",
    "lon": "88.414500"
  },
  {
    "id": "370450",
    "country": "IN",
    "zipcode": "70013",
    "name": "Bagu",
    "region": "West Bengal",
    "short_region": "28",
    "lat": "22.586400",
    "lon": "88.414500"
  },
  {
    "id": "370451",
    "country": "IN",
    "zipcode": "70013",
    "name": "Rohanda",
    "region": "West Bengal",
    "short_region": "28",
    "lat": "22.586400",
    "lon": "88.414500"
  },
  {
    "id": "370452",
    "country": "IN",
    "zipcode": "70013",
    "name": "Machibhanga",
    "region": "West Bengal",
    "short_region": "28",
    "lat": "22.586400",
    "lon": "88.414500"
  },
  {
    "id": "370453",
    "country": "IN",
    "zipcode": "70013",
    "name": "Pithapukuria",
    "region": "West Bengal",
    "short_region": "28",
    "lat": "22.586400",
    "lon": "88.414500"
  },
  {
    "id": "370454",
    "country": "IN",
    "zipcode": "70013",
    "name": "Rajarhat",
    "region": "West Bengal",
    "short_region": "28",
    "lat": "22.586400",
    "lon": "88.414500"
  },
  {
    "id": "370455",
    "country": "IN",
    "zipcode": "70013",
    "name": "Akandakeshari",
    "region": "West Bengal",
    "short_region": "28",
    "lat": "22.586400",
    "lon": "88.414500"
  },
  {
    "id": "370456",
    "country": "IN",
    "zipcode": "70013",
    "name": "Kadampukur",
    "region": "West Bengal",
    "short_region": "28",
    "lat": "22.586400",
    "lon": "88.414500"
  },
  {
    "id": "370457",
    "country": "IN",
    "zipcode": "70013",
    "name": "Hatisala",
    "region": "West Bengal",
    "short_region": "28",
    "lat": "22.465300",
    "lon": "88.780300"
  },
  {
    "id": "370458",
    "country": "IN",
    "zipcode": "70013",
    "name": "Chandpur",
    "region": "West Bengal",
    "short_region": "28",
    "lat": "22.465300",
    "lon": "88.780300"
  },
  {
    "id": "370459",
    "country": "IN",
    "zipcode": "70013",
    "name": "Shyamnagar",
    "region": "West Bengal",
    "short_region": "28",
    "lat": "22.465300",
    "lon": "88.780300"
  },
  {
    "id": "370460",
    "country": "IN",
    "zipcode": "70013",
    "name": "Patharghata",
    "region": "West Bengal",
    "short_region": "28",
    "lat": "22.568500",
    "lon": "88.524800"
  },
  {
    "id": "370461",
    "country": "IN",
    "zipcode": "70013",
    "name": "Rajarhat Gopalpur",
    "region": "West Bengal",
    "short_region": "28",
    "lat": "22.761100",
    "lon": "88.761500"
  },
  {
    "id": "370462",
    "country": "IN",
    "zipcode": "70013",
    "name": "Narayanpur",
    "region": "West Bengal",
    "short_region": "28",
    "lat": "22.761100",
    "lon": "88.761500"
  },
  {
    "id": "370463",
    "country": "IN",
    "zipcode": "70015",
    "name": "Abdalpur",
    "region": "West Bengal",
    "short_region": "28",
    "lat": "22.780700",
    "lon": "88.300100"
  },
  {
    "id": "370464",
    "country": "IN",
    "zipcode": "70015",
    "name": "New Town",
    "region": "West Bengal",
    "short_region": "28",
    "lat": "24.104800",
    "lon": "87.598900"
  },
  {
    "id": "370465",
    "country": "IN",
    "zipcode": "70015",
    "name": "Chakpanchuria",
    "region": "West Bengal",
    "short_region": "28",
    "lat": "24.104800",
    "lon": "87.598900"
  },
  {
    "id": "370466",
    "country": "IN",
    "zipcode": "70015",
    "name": "Mahishbathan",
    "region": "West Bengal",
    "short_region": "28",
    "lat": "24.104800",
    "lon": "87.598900"
  },
  {
    "id": "370467",
    "country": "IN",
    "zipcode": "70015",
    "name": "Hatgacha",
    "region": "West Bengal",
    "short_region": "28",
    "lat": "22.465300",
    "lon": "88.780300"
  },
  {
    "id": "370468",
    "country": "IN",
    "zipcode": "70015",
    "name": "Hatiara",
    "region": "West Bengal",
    "short_region": "28",
    "lat": "22.602800",
    "lon": "88.449300"
  },
  {
    "id": "370469",
    "country": "IN",
    "zipcode": "70015",
    "name": "Ghuni",
    "region": "West Bengal",
    "short_region": "28",
    "lat": "22.602800",
    "lon": "88.449300"
  },
  {
    "id": "370470",
    "country": "IN",
    "zipcode": "70015",
    "name": "Bisharpara",
    "region": "West Bengal",
    "short_region": "28",
    "lat": "22.780700",
    "lon": "88.300100"
  },
  {
    "id": "370471",
    "country": "IN",
    "zipcode": "70015",
    "name": "Ashwini Nagar",
    "region": "West Bengal",
    "short_region": "28",
    "lat": "22.780700",
    "lon": "88.300100"
  },
  {
    "id": "370472",
    "country": "IN",
    "zipcode": "70015",
    "name": "Jyangra",
    "region": "West Bengal",
    "short_region": "28",
    "lat": "22.780700",
    "lon": "88.300100"
  },
  {
    "id": "370473",
    "country": "IN",
    "zipcode": "70016",
    "name": "New Town Action Area III",
    "region": "West Bengal",
    "short_region": "28",
    "lat": "22.739800",
    "lon": "88.328200"
  },
  {
    "id": "370474",
    "country": "IN",
    "zipcode": "70016",
    "name": "New Town Action Area II",
    "region": "West Bengal",
    "short_region": "28",
    "lat": "22.739800",
    "lon": "88.328200"
  },
  {
    "id": "370475",
    "country": "IN",
    "zipcode": "70016",
    "name": "Gouranganagar",
    "region": "West Bengal",
    "short_region": "28",
    "lat": "22.739800",
    "lon": "88.328200"
  },
  {
    "id": "370476",
    "country": "IN",
    "zipcode": "74312",
    "name": "Bengal Enamel",
    "region": "West Bengal",
    "short_region": "28",
    "lat": "22.834700",
    "lon": "88.465500"
  },
  {
    "id": "370477",
    "country": "IN",
    "zipcode": "74312",
    "name": "Muktarpur",
    "region": "West Bengal",
    "short_region": "28",
    "lat": "22.866400",
    "lon": "88.401100"
  },
  {
    "id": "370478",
    "country": "IN",
    "zipcode": "74312",
    "name": "Bhatpara",
    "region": "West Bengal",
    "short_region": "28",
    "lat": "22.866400",
    "lon": "88.401100"
  },
  {
    "id": "370479",
    "country": "IN",
    "zipcode": "74312",
    "name": "ESD (M)",
    "region": "West Bengal",
    "short_region": "28",
    "lat": "22.834700",
    "lon": "88.465500"
  },
  {
    "id": "370480",
    "country": "IN",
    "zipcode": "74312",
    "name": "Jagatdal",
    "region": "West Bengal",
    "short_region": "28",
    "lat": "22.850000",
    "lon": "88.383300"
  },
  {
    "id": "370481",
    "country": "IN",
    "zipcode": "74312",
    "name": "Gupter Bagan",
    "region": "West Bengal",
    "short_region": "28",
    "lat": "22.850000",
    "lon": "88.383300"
  },
  {
    "id": "370482",
    "country": "IN",
    "zipcode": "74312",
    "name": "Golghar",
    "region": "West Bengal",
    "short_region": "28",
    "lat": "22.850000",
    "lon": "88.383300"
  },
  {
    "id": "370483",
    "country": "IN",
    "zipcode": "74312",
    "name": "Kushdanga",
    "region": "West Bengal",
    "short_region": "28",
    "lat": "22.811900",
    "lon": "88.579800"
  },
  {
    "id": "370484",
    "country": "IN",
    "zipcode": "74312",
    "name": "Madral",
    "region": "West Bengal",
    "short_region": "28",
    "lat": "22.811900",
    "lon": "88.579800"
  },
  {
    "id": "370485",
    "country": "IN",
    "zipcode": "74312",
    "name": "Padmalavpur",
    "region": "West Bengal",
    "short_region": "28",
    "lat": "22.811900",
    "lon": "88.579800"
  },
  {
    "id": "370486",
    "country": "IN",
    "zipcode": "74312",
    "name": "Kankinara",
    "region": "West Bengal",
    "short_region": "28",
    "lat": "22.862800",
    "lon": "88.398100"
  },
  {
    "id": "370487",
    "country": "IN",
    "zipcode": "74312",
    "name": "Narayanpur",
    "region": "West Bengal",
    "short_region": "28",
    "lat": "22.761100",
    "lon": "88.761500"
  },
  {
    "id": "370488",
    "country": "IN",
    "zipcode": "74312",
    "name": "Keotia",
    "region": "West Bengal",
    "short_region": "28",
    "lat": "22.811900",
    "lon": "88.579800"
  },
  {
    "id": "370489",
    "country": "IN",
    "zipcode": "74312",
    "name": "Kowgachi",
    "region": "West Bengal",
    "short_region": "28",
    "lat": "22.833300",
    "lon": "88.383300"
  },
  {
    "id": "370490",
    "country": "IN",
    "zipcode": "74312",
    "name": "Paltapara",
    "region": "West Bengal",
    "short_region": "28",
    "lat": "22.833300",
    "lon": "88.383300"
  },
  {
    "id": "370491",
    "country": "IN",
    "zipcode": "74312",
    "name": "Purbabidyadharpur",
    "region": "West Bengal",
    "short_region": "28",
    "lat": "22.833300",
    "lon": "88.383300"
  },
  {
    "id": "370492",
    "country": "IN",
    "zipcode": "74312",
    "name": "Mondalpara",
    "region": "West Bengal",
    "short_region": "28",
    "lat": "22.833300",
    "lon": "88.383300"
  },