[
  {
    "id": "750001",
    "country": "MX",
    "zipcode": "76876",
    "name": "El Juvilete",
    "region": "Querétaro",
    "short_region": "22",
    "lat": "20.239200",
    "lon": "-100.072500"
  },
  {
    "id": "750002",
    "country": "MX",
    "zipcode": "76876",
    "name": "Mal Paso (La Laguna)",
    "region": "Querétaro",
    "short_region": "22",
    "lat": "20.231700",
    "lon": "-100.124400"
  },
  {
    "id": "750003",
    "country": "MX",
    "zipcode": "76876",
    "name": "Bordos Cuates",
    "region": "Querétaro",
    "short_region": "22",
    "lat": "20.242500",
    "lon": "-100.108900"
  },
  {
    "id": "750004",
    "country": "MX",
    "zipcode": "76877",
    "name": "El Rincón (La Botija)",
    "region": "Querétaro",
    "short_region": "22",
    "lat": "20.254900",
    "lon": "-100.164900"
  },
  {
    "id": "750005",
    "country": "MX",
    "zipcode": "76877",
    "name": "Mesa de San Martín",
    "region": "Querétaro",
    "short_region": "22",
    "lat": "20.254900",
    "lon": "-100.164900"
  },
  {
    "id": "750006",
    "country": "MX",
    "zipcode": "76877",
    "name": "San Martín",
    "region": "Querétaro",
    "short_region": "22",
    "lat": "20.254900",
    "lon": "-100.164900"
  },
  {
    "id": "750007",
    "country": "MX",
    "zipcode": "76878",
    "name": "Parques de San Miguel",
    "region": "Querétaro",
    "short_region": "22",
    "lat": "20.271500",
    "lon": "-100.205000"
  },
  {
    "id": "750008",
    "country": "MX",
    "zipcode": "76878",
    "name": "Llano Largo",
    "region": "Querétaro",
    "short_region": "22",
    "lat": "20.215000",
    "lon": "-100.155300"
  },
  {
    "id": "750009",
    "country": "MX",
    "zipcode": "76878",
    "name": "Arroyo Hondo",
    "region": "Querétaro",
    "short_region": "22",
    "lat": "20.203100",
    "lon": "-100.171100"
  },
  {
    "id": "750010",
    "country": "MX",
    "zipcode": "76878",
    "name": "La Isla",
    "region": "Querétaro",
    "short_region": "22",
    "lat": "20.214200",
    "lon": "-100.179800"
  },
  {
    "id": "750011",
    "country": "MX",
    "zipcode": "76878",
    "name": "El Fresno",
    "region": "Querétaro",
    "short_region": "22",
    "lat": "20.174800",
    "lon": "-100.098500"
  },
  {
    "id": "750012",
    "country": "MX",
    "zipcode": "76879",
    "name": "El Aserrín (Ojo de Agua del Hornito)",
    "region": "Querétaro",
    "short_region": "22",
    "lat": "20.303100",
    "lon": "-100.219200"
  },
  {
    "id": "750013",
    "country": "MX",
    "zipcode": "76879",
    "name": "El Rayo",
    "region": "Querétaro",
    "short_region": "22",
    "lat": "20.290600",
    "lon": "-100.159700"
  },
  {
    "id": "750014",
    "country": "MX",
    "zipcode": "76879",
    "name": "El Salvador",
    "region": "Querétaro",
    "short_region": "22",
    "lat": "20.298900",
    "lon": "-100.230600"
  },
  {
    "id": "750015",
    "country": "MX",
    "zipcode": "76879",
    "name": "El Batán",
    "region": "Querétaro",
    "short_region": "22",
    "lat": "20.300800",
    "lon": "-100.181800"
  },
  {
    "id": "750016",
    "country": "MX",
    "zipcode": "76879",
    "name": "La Beata",
    "region": "Querétaro",
    "short_region": "22",
    "lat": "20.313600",
    "lon": "-100.236400"
  },
  {
    "id": "750017",
    "country": "MX",
    "zipcode": "76880",
    "name": "Tenasdá (Barrio de San Ildefonso)",
    "region": "Querétaro",
    "short_region": "22",
    "lat": "20.114200",
    "lon": "-99.967800"
  },
  {
    "id": "750018",
    "country": "MX",
    "zipcode": "76883",
    "name": "Veinte de Noviembre",
    "region": "Querétaro",
    "short_region": "22",
    "lat": "20.155000",
    "lon": "-100.015300"
  },
  {
    "id": "750019",
    "country": "MX",
    "zipcode": "76883",
    "name": "La Muralla",
    "region": "Querétaro",
    "short_region": "22",
    "lat": "20.202700",
    "lon": "-100.006600"
  },
  {
    "id": "750020",
    "country": "MX",
    "zipcode": "76883",
    "name": "El Bothé",
    "region": "Querétaro",
    "short_region": "22",
    "lat": "20.154100",
    "lon": "-100.010900"
  },
  {
    "id": "750021",
    "country": "MX",
    "zipcode": "76883",
    "name": "La Cruz del Apartadero (La Garita)",
    "region": "Querétaro",
    "short_region": "22",
    "lat": "20.157500",
    "lon": "-100.046400"
  },
  {
    "id": "750022",
    "country": "MX",
    "zipcode": "76883",
    "name": "El Saucito Sección la Muralla",
    "region": "Querétaro",
    "short_region": "22",
    "lat": "20.167300",
    "lon": "-100.019800"
  },
  {
    "id": "750023",
    "country": "MX",
    "zipcode": "76883",
    "name": "El Tepozán (Barrio de San Ildefonso)",
    "region": "Querétaro",
    "short_region": "22",
    "lat": "20.167300",
    "lon": "-100.019800"
  },
  {
    "id": "750024",
    "country": "MX",
    "zipcode": "76884",
    "name": "La Cruz (San Bartolo)",
    "region": "Querétaro",
    "short_region": "22",
    "lat": "20.189100",
    "lon": "-100.047700"
  },
  {
    "id": "750025",
    "country": "MX",
    "zipcode": "76884",
    "name": "San Bartolomé del Pino (San Bartolo)",
    "region": "Querétaro",
    "short_region": "22",
    "lat": "20.181300",
    "lon": "-100.074000"
  },
  {
    "id": "750026",
    "country": "MX",
    "zipcode": "76884",
    "name": "La Esperanza (San Bartolo)",
    "region": "Querétaro",
    "short_region": "22",
    "lat": "20.194700",
    "lon": "-100.061700"
  },
  {
    "id": "750027",
    "country": "MX",
    "zipcode": "76884",
    "name": "San Antonio (San Bartolo)",
    "region": "Querétaro",
    "short_region": "22",
    "lat": "20.189100",
    "lon": "-100.047700"
  },
  {
    "id": "750028",
    "country": "MX",
    "zipcode": "76884",
    "name": "La Paloma (San Bartolo)",
    "region": "Querétaro",
    "short_region": "22",
    "lat": "20.189100",
    "lon": "-100.047700"
  },
  {
    "id": "750029",
    "country": "MX",
    "zipcode": "76884",
    "name": "El Atorón",
    "region": "Querétaro",
    "short_region": "22",
    "lat": "20.183700",
    "lon": "-100.029900"
  },
  {
    "id": "750030",
    "country": "MX",
    "zipcode": "76884",
    "name": "San José (San Bartolo)",
    "region": "Querétaro",
    "short_region": "22",
    "lat": "20.196900",
    "lon": "-100.025300"
  },
  {
    "id": "750031",
    "country": "MX",
    "zipcode": "76885",
    "name": "Nuevo Amanecer",
    "region": "Querétaro",
    "short_region": "22",
    "lat": "20.185800",
    "lon": "-100.119400"
  },
  {
    "id": "750032",
    "country": "MX",
    "zipcode": "76885",
    "name": "Agua Blanca",
    "region": "Querétaro",
    "short_region": "22",
    "lat": "20.188400",
    "lon": "-100.110000"
  },
  {
    "id": "750033",
    "country": "MX",
    "zipcode": "76886",
    "name": "Mesillas",
    "region": "Querétaro",
    "short_region": "22",
    "lat": "20.136500",
    "lon": "-100.001600"
  },
  {
    "id": "750034",
    "country": "MX",
    "zipcode": "76887",
    "name": "Tesquedó (Puerto del Chivato)",
    "region": "Querétaro",
    "short_region": "22",
    "lat": "20.115600",
    "lon": "-99.943600"
  },
  {
    "id": "750035",
    "country": "MX",
    "zipcode": "76887",
    "name": "Loma de los Blases",
    "region": "Querétaro",
    "short_region": "22",
    "lat": "20.147500",
    "lon": "-99.947200"
  },
  {
    "id": "750036",
    "country": "MX",
    "zipcode": "76887",
    "name": "Yosphí",
    "region": "Querétaro",
    "short_region": "22",
    "lat": "20.170800",
    "lon": "-99.952200"
  },
  {
    "id": "750037",
    "country": "MX",
    "zipcode": "76887",
    "name": "Xajay",
    "region": "Querétaro",
    "short_region": "22",
    "lat": "20.119700",
    "lon": "-99.958100"
  },
  {
    "id": "750038",
    "country": "MX",
    "zipcode": "76887",
    "name": "San Ildefonso Tultepec (Centro)",
    "region": "Querétaro",
    "short_region": "22",
    "lat": "20.138400",
    "lon": "-99.950300"
  },
  {
    "id": "750039",
    "country": "MX",
    "zipcode": "76887",
    "name": "El Rincón de San Ildefonso",
    "region": "Querétaro",
    "short_region": "22",
    "lat": "20.138400",
    "lon": "-99.950300"
  },
  {
    "id": "750040",
    "country": "MX",
    "zipcode": "76887",
    "name": "Cuicillo (Barrio de San Ildefonso)",
    "region": "Querétaro",
    "short_region": "22",
    "lat": "20.138400",
    "lon": "-99.950300"
  },
  {
    "id": "750041",
    "country": "MX",
    "zipcode": "76888",
    "name": "El Saucito",
    "region": "Querétaro",
    "short_region": "22",
    "lat": "20.201000",
    "lon": "-99.992500"
  },
  {
    "id": "750042",
    "country": "MX",
    "zipcode": "76889",
    "name": "San Pablo",
    "region": "Querétaro",
    "short_region": "22",
    "lat": "20.088600",
    "lon": "-99.977900"
  },
  {
    "id": "750043",
    "country": "MX",
    "zipcode": "76889",
    "name": "La Piní",
    "region": "Querétaro",
    "short_region": "22",
    "lat": "20.108100",
    "lon": "-99.987200"
  },
  {
    "id": "750044",
    "country": "MX",
    "zipcode": "76890",
    "name": "Las Lajas",
    "region": "Querétaro",
    "short_region": "22",
    "lat": "20.076400",
    "lon": "-100.086800"
  },
  {
    "id": "750045",
    "country": "MX",
    "zipcode": "76890",
    "name": "San Felipe (Santiago Mexquititlán Barrio 6o.)",
    "region": "Querétaro",
    "short_region": "22",
    "lat": "20.086500",
    "lon": "-100.106100"
  },
  {
    "id": "750046",
    "country": "MX",
    "zipcode": "76890",
    "name": "Santiago Mexquititlán Barrio 5o. (El Pastoreo)",
    "region": "Querétaro",
    "short_region": "22",
    "lat": "20.086500",
    "lon": "-100.106100"
  },
  {
    "id": "750047",
    "country": "MX",
    "zipcode": "76890",
    "name": "Santiago Mexquititlán Barrio 1o.",
    "region": "Querétaro",
    "short_region": "22",
    "lat": "20.086500",
    "lon": "-100.106100"
  },
  {
    "id": "750048",
    "country": "MX",
    "zipcode": "76890",
    "name": "Santiago Mexquititlán Barrio 2o.",
    "region": "Querétaro",
    "short_region": "22",
    "lat": "20.086500",
    "lon": "-100.106100"
  },
  {
    "id": "750049",
    "country": "MX",
    "zipcode": "76890",
    "name": "Santiago Mexquititlán Barrio 3o.",
    "region": "Querétaro",
    "short_region": "22",
    "lat": "20.086500",
    "lon": "-100.106100"
  },
  {
    "id": "750050",
    "country": "MX",
    "zipcode": "76890",
    "name": "Donicá",
    "region": "Querétaro",
    "short_region": "22",
    "lat": "20.030600",
    "lon": "-100.075000"
  },
  {
    "id": "750051",
    "country": "MX",
    "zipcode": "76890",
    "name": "Chitejé de la Cruz",
    "region": "Querétaro",
    "short_region": "22",
    "lat": "20.152400",
    "lon": "-100.156500"
  },
  {
    "id": "750052",
    "country": "MX",
    "zipcode": "76890",
    "name": "Santiago Mexquititlán Barrio 4o.",
    "region": "Querétaro",
    "short_region": "22",
    "lat": "20.086500",
    "lon": "-100.106100"
  },
  {
    "id": "750053",
    "country": "MX",
    "zipcode": "76893",
    "name": "San Nicolás de la Torre",
    "region": "Querétaro",
    "short_region": "22",
    "lat": "20.078100",
    "lon": "-100.101400"
  },
  {
    "id": "750054",
    "country": "MX",
    "zipcode": "76893",
    "name": "Las Grullas",
    "region": "Querétaro",
    "short_region": "22",
    "lat": "20.064700",
    "lon": "-100.147200"
  },
  {
    "id": "750055",
    "country": "MX",
    "zipcode": "76893",
    "name": "Tierra Negra",
    "region": "Querétaro",
    "short_region": "22",
    "lat": "20.064200",
    "lon": "-100.143900"
  },
  {
    "id": "750056",
    "country": "MX",
    "zipcode": "76893",
    "name": "Los Arcos",
    "region": "Querétaro",
    "short_region": "22",
    "lat": "20.076500",
    "lon": "-100.126300"
  },
  {
    "id": "750057",
    "country": "MX",
    "zipcode": "76893",
    "name": "La Isla (Stgo. Mexquititlán B. 6o.)",
    "region": "Querétaro",
    "short_region": "22",
    "lat": "20.066900",
    "lon": "-100.128100"
  },
  {
    "id": "750058",
    "country": "MX",
    "zipcode": "76893",
    "name": "Tierras Negras (Stgo. Mexquititlán B. 6o.)",
    "region": "Querétaro",
    "short_region": "22",
    "lat": "20.066900",
    "lon": "-100.128100"
  },
  {
    "id": "750059",
    "country": "MX",
    "zipcode": "76893",
    "name": "La Concepción (La Concha)",
    "region": "Querétaro",
    "short_region": "22",
    "lat": "20.066900",
    "lon": "-100.128100"
  },
  {
    "id": "750060",
    "country": "MX",
    "zipcode": "76893",
    "name": "El Río (Santiago Mexquititlán Barrio 6o.)",
    "region": "Querétaro",
    "short_region": "22",
    "lat": "20.066900",
    "lon": "-100.128100"
  },
  {
    "id": "750061",
    "country": "MX",
    "zipcode": "76893",
    "name": "El Jaral (Santiago Mexquititlán Barrio 6o.)",
    "region": "Querétaro",
    "short_region": "22",
    "lat": "20.066900",
    "lon": "-100.128100"
  },
  {
    "id": "750062",
    "country": "MX",
    "zipcode": "76893",
    "name": "El Carmen (Santiago Mexquititlán Barrio 6o.)",
    "region": "Querétaro",
    "short_region": "22",
    "lat": "20.066900",
    "lon": "-100.128100"
  },
  {
    "id": "750063",
    "country": "MX",
    "zipcode": "76893",
    "name": "El Cacahuate (Stgo. Mexquititlán Barrio 6o.)",
    "region": "Querétaro",
    "short_region": "22",
    "lat": "20.066900",
    "lon": "-100.128100"
  },
  {
    "id": "750064",
    "country": "MX",
    "zipcode": "76893",
    "name": "De Sta. Teresa (S. Mexquititlan B. 6o.)",
    "region": "Querétaro",
    "short_region": "22",
    "lat": "20.066900",
    "lon": "-100.128100"
  },
  {
    "id": "750065",
    "country": "MX",
    "zipcode": "76893",
    "name": "La Venta (Santiago Mexquititlán Barrio 6o.)",
    "region": "Querétaro",
    "short_region": "22",
    "lat": "20.066900",
    "lon": "-100.128100"
  },
  {
    "id": "750066",
    "country": "MX",
    "zipcode": "76893",
    "name": "Loma de las Víboras (S. Mexquititlán B. 6o.)",
    "region": "Querétaro",
    "short_region": "22",
    "lat": "20.066900",
    "lon": "-100.128100"
  },
  {
    "id": "750067",
    "country": "MX",
    "zipcode": "76893",
    "name": "Los Árboles",
    "region": "Querétaro",
    "short_region": "22",
    "lat": "20.052800",
    "lon": "-100.126400"
  },
  {
    "id": "750068",
    "country": "MX",
    "zipcode": "76893",
    "name": "Amárcigo (San Luis)",
    "region": "Querétaro",
    "short_region": "22",
    "lat": "20.064400",
    "lon": "-100.125300"
  },
  {
    "id": "750069",
    "country": "MX",
    "zipcode": "76893",
    "name": "Presa del Tecolote (El Lindero)",
    "region": "Querétaro",
    "short_region": "22",
    "lat": "20.087500",
    "lon": "-100.125600"
  },
  {
    "id": "750070",
    "country": "MX",
    "zipcode": "76893",
    "name": "Loma las Liebres (Los Árboles)",
    "region": "Querétaro",
    "short_region": "22",
    "lat": "20.046700",
    "lon": "-100.128900"
  },
  {
    "id": "750071",
    "country": "MX",
    "zipcode": "76894",
    "name": "La Soledad",
    "region": "Querétaro",
    "short_region": "22",
    "lat": "20.169400",
    "lon": "-100.191100"
  },
  {
    "id": "750072",
    "country": "MX",
    "zipcode": "76894",
    "name": "Los Argueta",
    "region": "Querétaro",
    "short_region": "22",
    "lat": "20.170300",
    "lon": "-100.138300"
  },
  {
    "id": "750073",
    "country": "MX",
    "zipcode": "76894",
    "name": "La Perita",
    "region": "Querétaro",
    "short_region": "22",
    "lat": "20.168500",
    "lon": "-100.155900"
  },
  {
    "id": "750074",
    "country": "MX",
    "zipcode": "76894",
    "name": "San José Ithó",
    "region": "Querétaro",
    "short_region": "22",
    "lat": "20.165400",
    "lon": "-100.127000"
  },
  {
    "id": "750075",
    "country": "MX",
    "zipcode": "76894",
    "name": "El Capulín",
    "region": "Querétaro",
    "short_region": "22",
    "lat": "20.160800",
    "lon": "-100.178300"
  },
  {
    "id": "750076",
    "country": "MX",
    "zipcode": "76894",
    "name": "San José de los Encinos (Las Cabañas)",
    "region": "Querétaro",
    "short_region": "22",
    "lat": "20.164400",
    "lon": "-100.133900"
  },
  {
    "id": "750077",
    "country": "MX",
    "zipcode": "76894",
    "name": "Rincón de la Florida",
    "region": "Querétaro",
    "short_region": "22",
    "lat": "20.163100",
    "lon": "-100.141100"
  },
  {
    "id": "750078",
    "country": "MX",
    "zipcode": "76894",
    "name": "La Joya",
    "region": "Querétaro",
    "short_region": "22",
    "lat": "20.164700",
    "lon": "-100.175800"
  },
  {
    "id": "750079",
    "country": "MX",
    "zipcode": "76894",
    "name": "San Juan Dehedó",
    "region": "Querétaro",
    "short_region": "22",
    "lat": "20.183600",
    "lon": "-100.177500"
  },
  {
    "id": "750080",
    "country": "MX",
    "zipcode": "76894",
    "name": "Vista Real",
    "region": "Querétaro",
    "short_region": "22",
    "lat": "20.174700",
    "lon": "-100.139700"
  },
  {
    "id": "750081",
    "country": "MX",
    "zipcode": "76895",
    "name": "El Cerrito",
    "region": "Querétaro",
    "short_region": "22",
    "lat": "20.153600",
    "lon": "-100.093100"
  },
  {
    "id": "750082",
    "country": "MX",
    "zipcode": "76895",
    "name": "El Lindero",
    "region": "Querétaro",
    "short_region": "22",
    "lat": "20.100100",
    "lon": "-100.132700"
  },
  {
    "id": "750083",
    "country": "MX",
    "zipcode": "76895",
    "name": "De la Ladera (San Miguel Tlaxcaltepec)",
    "region": "Querétaro",
    "short_region": "22",
    "lat": "20.135000",
    "lon": "-100.110900"
  },
  {
    "id": "750084",
    "country": "MX",
    "zipcode": "76895",
    "name": "El Pueblito (San Miguel Tlaxcaltepec)",
    "region": "Querétaro",
    "short_region": "22",
    "lat": "20.135000",
    "lon": "-100.110900"
  },
  {
    "id": "750085",
    "country": "MX",
    "zipcode": "76895",
    "name": "De la Cruz (San Miguel Tlaxcaltepec)",
    "region": "Querétaro",
    "short_region": "22",
    "lat": "20.135000",
    "lon": "-100.110900"
  },
  {
    "id": "750086",
    "country": "MX",
    "zipcode": "76895",
    "name": "Del Barco (San Miguel Tlaxcaltepec)",
    "region": "Querétaro",
    "short_region": "22",
    "lat": "20.135000",
    "lon": "-100.110900"
  },
  {
    "id": "750087",
    "country": "MX",
    "zipcode": "76895",
    "name": "Ojo de Agua (San Miguel Tlaxcaltepec)",
    "region": "Querétaro",
    "short_region": "22",
    "lat": "20.135000",
    "lon": "-100.110900"
  },
  {
    "id": "750088",
    "country": "MX",
    "zipcode": "76895",
    "name": "El Rincón de Agua Buena (San M. Tlaxcaltepec)",
    "region": "Querétaro",
    "short_region": "22",
    "lat": "20.135000",
    "lon": "-100.110900"
  },
  {
    "id": "750089",
    "country": "MX",
    "zipcode": "76895",
    "name": "Bosques del Renacimiento",
    "region": "Querétaro",
    "short_region": "22",
    "lat": "20.144400",
    "lon": "-100.117200"
  },
  {
    "id": "750090",
    "country": "MX",
    "zipcode": "76895",
    "name": "El Picacho",
    "region": "Querétaro",
    "short_region": "22",
    "lat": "20.117000",
    "lon": "-100.111700"
  },
  {
    "id": "750091",
    "country": "MX",
    "zipcode": "76895",
    "name": "Guadalupe el Terrero",
    "region": "Querétaro",
    "short_region": "22",
    "lat": "20.118800",
    "lon": "-100.147400"
  },
  {
    "id": "750092",
    "country": "MX",
    "zipcode": "76895",
    "name": "Del Coyote (San Bartolo)",
    "region": "Querétaro",
    "short_region": "22",
    "lat": "20.173300",
    "lon": "-100.084700"
  },
  {
    "id": "750093",
    "country": "MX",
    "zipcode": "76895",
    "name": "San Miguel Tlaxcaltepec (Barrio Centro)",
    "region": "Querétaro",
    "short_region": "22",
    "lat": "20.135000",
    "lon": "-100.110900"
  },
  {
    "id": "750094",
    "country": "MX",
    "zipcode": "76895",
    "name": "San Pedro Tenango",
    "region": "Querétaro",
    "short_region": "22",
    "lat": "20.137500",
    "lon": "-100.089800"
  },
  {
    "id": "750095",
    "country": "MX",
    "zipcode": "76896",
    "name": "Chitejé de Garabato",
    "region": "Querétaro",
    "short_region": "22",
    "lat": "20.132000",
    "lon": "-100.185800"
  },
  {
    "id": "750096",
    "country": "MX",
    "zipcode": "76896",
    "name": "San Juan Dehedó Sección Sur",
    "region": "Querétaro",
    "short_region": "22",
    "lat": "20.132000",
    "lon": "-100.185800"
  },
  {
    "id": "750097",
    "country": "MX",
    "zipcode": "76896",
    "name": "San Juan Dehedó",
    "region": "Querétaro",
    "short_region": "22",
    "lat": "20.183600",
    "lon": "-100.177500"
  },
  {
    "id": "750098",
    "country": "MX",
    "zipcode": "76896",
    "name": "La Cañada del Varal",
    "region": "Querétaro",
    "short_region": "22",
    "lat": "20.125800",
    "lon": "-100.193600"
  },
  {
    "id": "750099",
    "country": "MX",
    "zipcode": "76896",
    "name": "El Varal",
    "region": "Querétaro",
    "short_region": "22",
    "lat": "20.112800",
    "lon": "-100.188100"
  },
  {
    "id": "750100",
    "country": "MX",
    "zipcode": "76896",
    "name": "Los Arenales (San Juan Dehedó)",
    "region": "Querétaro",
    "short_region": "22",
    "lat": "20.137500",
    "lon": "-100.200300"
  },
  {
    "id": "750101",
    "country": "MX",
    "zipcode": "76896",
    "name": "Las Salvas",
    "region": "Querétaro",
    "short_region": "22",
    "lat": "20.100300",
    "lon": "-100.169400"
  },
  {
    "id": "750102",
    "country": "MX",
    "zipcode": "76897",
    "name": "Buenos Aires (El Apartadero)",
    "region": "Querétaro",
    "short_region": "22",
    "lat": "20.152500",
    "lon": "-100.053300"
  },
  {
    "id": "750103",
    "country": "MX",
    "zipcode": "76897",
    "name": "Loma Linda",
    "region": "Querétaro",
    "short_region": "22",
    "lat": "20.083600",
    "lon": "-100.068300"
  },
  {
    "id": "750104",
    "country": "MX",
    "zipcode": "76897",
    "name": "San Antonio",
    "region": "Querétaro",
    "short_region": "22",
    "lat": "20.107200",
    "lon": "-100.042200"
  },
  {
    "id": "750105",
    "country": "MX",
    "zipcode": "76897",
    "name": "La Ladera",
    "region": "Querétaro",
    "short_region": "22",
    "lat": "20.133700",
    "lon": "-100.062100"
  },
  {
    "id": "750106",
    "country": "MX",
    "zipcode": "76897",
    "name": "La Estancia",
    "region": "Querétaro",
    "short_region": "22",
    "lat": "20.096700",
    "lon": "-100.068100"
  },
  {
    "id": "750107",
    "country": "MX",
    "zipcode": "76897",
    "name": "La Atarjea",
    "region": "Querétaro",
    "short_region": "22",
    "lat": "20.117000",
    "lon": "-100.057700"
  },
  {
    "id": "750108",
    "country": "MX",
    "zipcode": "76897",
    "name": "La Manzana",
    "region": "Querétaro",
    "short_region": "22",
    "lat": "20.113100",
    "lon": "-100.072300"
  },
  {
    "id": "750109",
    "country": "MX",
    "zipcode": "76897",
    "name": "La Loma del Rosario",
    "region": "Querétaro",
    "short_region": "22",
    "lat": "20.117000",
    "lon": "-100.057700"
  },
  {
    "id": "750110",
    "country": "MX",
    "zipcode": "76897",
    "name": "La Loma del Apartadero",
    "region": "Querétaro",
    "short_region": "22",
    "lat": "20.117000",
    "lon": "-100.057700"
  },
  {
    "id": "750111",
    "country": "MX",
    "zipcode": "76897",
    "name": "Santa Clara",
    "region": "Querétaro",
    "short_region": "22",
    "lat": "20.145000",
    "lon": "-100.037800"
  },
  {
    "id": "750112",
    "country": "MX",
    "zipcode": "76897",
    "name": "Jacal de la Piedad",
    "region": "Querétaro",
    "short_region": "22",
    "lat": "20.096000",
    "lon": "-100.026400"
  },
  {
    "id": "750113",
    "country": "MX",
    "zipcode": "76897",
    "name": "El Coyote",
    "region": "Querétaro",
    "short_region": "22",
    "lat": "20.115000",
    "lon": "-100.090300"
  },
  {
    "id": "750114",
    "country": "MX",
    "zipcode": "76897",
    "name": "El Colorín",
    "region": "Querétaro",
    "short_region": "22",
    "lat": "20.110300",
    "lon": "-100.050300"
  },
  {
    "id": "750115",
    "country": "MX",
    "zipcode": "76897",
    "name": "El Apartadero",
    "region": "Querétaro",
    "short_region": "22",
    "lat": "20.154700",
    "lon": "-100.068900"
  },
  {
    "id": "750116",
    "country": "MX",
    "zipcode": "76897",
    "name": "San Carlos",
    "region": "Querétaro",
    "short_region": "22",
    "lat": "20.096400",
    "lon": "-100.052500"
  },
  {
    "id": "750117",
    "country": "MX",
    "zipcode": "76300",
    "name": "Piedra Grande",
    "region": "Querétaro",
    "short_region": "22",
    "lat": "21.140300",
    "lon": "-99.627500"
  },
  {
    "id": "750118",
    "country": "MX",
    "zipcode": "76300",
    "name": "Curva Colorada",
    "region": "Querétaro",
    "short_region": "22",
    "lat": "21.132500",
    "lon": "-99.633300"
  },
  {
    "id": "750119",
    "country": "MX",
    "zipcode": "76300",
    "name": "La Escondida",
    "region": "Querétaro",
    "short_region": "22",
    "lat": "21.141900",
    "lon": "-99.630000"
  },
  {
    "id": "750120",
    "country": "MX",
    "zipcode": "76300",
    "name": "Centro",
    "region": "Querétaro",
    "short_region": "22",
    "lat": "21.141800",
    "lon": "-99.592700"
  },
  {
    "id": "750121",
    "country": "MX",
    "zipcode": "76300",
    "name": "El Bondojito",
    "region": "Querétaro",
    "short_region": "22",
    "lat": "21.138200",
    "lon": "-99.630300"
  },
  {
    "id": "750122",
    "country": "MX",
    "zipcode": "76300",
    "name": "El Calvario",
    "region": "Querétaro",
    "short_region": "22",
    "lat": "21.138200",
    "lon": "-99.630300"
  },
  {
    "id": "750123",
    "country": "MX",
    "zipcode": "76303",
    "name": "Puerto de Amoles",
    "region": "Querétaro",
    "short_region": "22",
    "lat": "21.134400",
    "lon": "-99.609000"
  },
  {
    "id": "750124",
    "country": "MX",
    "zipcode": "76304",
    "name": "Ojo de Agua",
    "region": "Querétaro",
    "short_region": "22",
    "lat": "21.133600",
    "lon": "-99.627800"
  },
  {
    "id": "750125",
    "country": "MX",
    "zipcode": "76309",
    "name": "San Pedro Escanela",
    "region": "Querétaro",
    "short_region": "22",
    "lat": "21.123800",
    "lon": "-99.526500"
  },
  {
    "id": "750126",
    "country": "MX",
    "zipcode": "76310",
    "name": "Ahuacatlán de Guadalupe",
    "region": "Querétaro",
    "short_region": "22",
    "lat": "21.214700",
    "lon": "-99.540600"
  },
  {
    "id": "750127",
    "country": "MX",
    "zipcode": "76313",
    "name": "Encino de Ahuacatlán",
    "region": "Querétaro",
    "short_region": "22",
    "lat": "21.208300",
    "lon": "-99.551900"
  },
  {
    "id": "750128",
    "country": "MX",
    "zipcode": "76313",
    "name": "Quirambal",
    "region": "Querétaro",
    "short_region": "22",
    "lat": "21.192200",
    "lon": "-99.543300"
  },
  {
    "id": "750129",
    "country": "MX",
    "zipcode": "76313",
    "name": "El Encino",
    "region": "Querétaro",
    "short_region": "22",
    "lat": "21.207500",
    "lon": "-99.550800"
  },
  {
    "id": "750130",
    "country": "MX",
    "zipcode": "76313",
    "name": "Rancho Nuevo",
    "region": "Querétaro",
    "short_region": "22",
    "lat": "21.192700",
    "lon": "-99.537400"
  },
  {
    "id": "750131",
    "country": "MX",
    "zipcode": "76313",
    "name": "Ojo de Agua",
    "region": "Querétaro",
    "short_region": "22",
    "lat": "21.133600",
    "lon": "-99.627800"
  },
  {
    "id": "750132",
    "country": "MX",
    "zipcode": "76313",
    "name": "Puerto del Naranjo",
    "region": "Querétaro",
    "short_region": "22",
    "lat": "21.186900",
    "lon": "-99.562300"
  },
  {
    "id": "750133",
    "country": "MX",
    "zipcode": "76313",
    "name": "Adjuntas de Ahuacatlán",
    "region": "Querétaro",
    "short_region": "22",
    "lat": "21.186900",
    "lon": "-99.562300"
  },
  {
    "id": "750134",
    "country": "MX",
    "zipcode": "76313",
    "name": "Naranjo de Escanelilla",
    "region": "Querétaro",
    "short_region": "22",
    "lat": "21.186900",
    "lon": "-99.562300"
  },
  {
    "id": "750135",
    "country": "MX",
    "zipcode": "76314",
    "name": "El Zarzal",
    "region": "Querétaro",
    "short_region": "22",
    "lat": "21.226700",
    "lon": "-99.554800"
  },
  {
    "id": "750136",
    "country": "MX",
    "zipcode": "76314",
    "name": "Puerto de Huilotla",
    "region": "Querétaro",
    "short_region": "22",
    "lat": "21.226700",
    "lon": "-99.554800"
  },
  {
    "id": "750137",
    "country": "MX",
    "zipcode": "76314",
    "name": "Carrizal de Adjuntas",
    "region": "Querétaro",
    "short_region": "22",
    "lat": "21.228600",
    "lon": "-99.558300"
  },
  {
    "id": "750138",
    "country": "MX",
    "zipcode": "76314",
    "name": "Alejandría de Morelos",
    "region": "Querétaro",
    "short_region": "22",
    "lat": "21.238900",
    "lon": "-99.590000"
  },
  {
    "id": "750139",
    "country": "MX",
    "zipcode": "76314",
    "name": "La Angostura",
    "region": "Querétaro",
    "short_region": "22",
    "lat": "21.210300",
    "lon": "-99.532500"
  },
  {
    "id": "750140",
    "country": "MX",
    "zipcode": "76314",
    "name": "Huajáles",
    "region": "Querétaro",
    "short_region": "22",
    "lat": "21.209500",
    "lon": "-99.526100"
  },
  {
    "id": "750141",
    "country": "MX",
    "zipcode": "76314",
    "name": "Puerto Colorado",
    "region": "Querétaro",
    "short_region": "22",
    "lat": "21.241300",
    "lon": "-99.565800"
  },
  {
    "id": "750142",
    "country": "MX",
    "zipcode": "76314",
    "name": "San Martín",
    "region": "Querétaro",
    "short_region": "22",
    "lat": "21.204200",
    "lon": "-99.512800"
  },
  {
    "id": "750143",
    "country": "MX",
    "zipcode": "76314",
    "name": "Las Adjuntas",
    "region": "Querétaro",
    "short_region": "22",
    "lat": "21.232200",
    "lon": "-99.562800"
  },
  {
    "id": "750144",
    "country": "MX",
    "zipcode": "76314",
    "name": "Peña Alta",
    "region": "Querétaro",
    "short_region": "22",
    "lat": "21.212200",
    "lon": "-99.517200"
  },
  {
    "id": "750145",
    "country": "MX",
    "zipcode": "76314",
    "name": "Coatlán de los Ángeles",
    "region": "Querétaro",
    "short_region": "22",
    "lat": "21.240100",
    "lon": "-99.598600"
  },
  {
    "id": "750146",
    "country": "MX",
    "zipcode": "76314",
    "name": "Huilotla",
    "region": "Querétaro",
    "short_region": "22",
    "lat": "21.250000",
    "lon": "-99.583600"
  },
  {
    "id": "750147",
    "country": "MX",
    "zipcode": "76315",
    "name": "La Barrosa",
    "region": "Querétaro",
    "short_region": "22",
    "lat": "21.245300",
    "lon": "-99.623600"
  },
  {
    "id": "750148",
    "country": "MX",
    "zipcode": "76315",
    "name": "La Joya de Ahuacatlán",
    "region": "Querétaro",
    "short_region": "22",
    "lat": "21.229700",
    "lon": "-99.574200"
  },
  {
    "id": "750149",
    "country": "MX",
    "zipcode": "76315",
    "name": "Puerto de Alejandría",
    "region": "Querétaro",
    "short_region": "22",
    "lat": "21.228500",
    "lon": "-99.592600"
  },
  {
    "id": "750150",
    "country": "MX",
    "zipcode": "76315",
    "name": "Puerto de Escanelilla",
    "region": "Querétaro",
    "short_region": "22",
    "lat": "21.216200",
    "lon": "-99.575900"
  },
  {
    "id": "750151",
    "country": "MX",
    "zipcode": "76315",
    "name": "Sauz de Guadalupe",
    "region": "Querétaro",
    "short_region": "22",
    "lat": "21.235600",
    "lon": "-99.608000"
  },
  {
    "id": "750152",
    "country": "MX",
    "zipcode": "76315",
    "name": "La Troja",
    "region": "Querétaro",
    "short_region": "22",
    "lat": "21.206400",
    "lon": "-99.572500"
  },
  {
    "id": "750153",
    "country": "MX",
    "zipcode": "76316",
    "name": "Las Mesitas",
    "region": "Querétaro",
    "short_region": "22",
    "lat": "21.198900",
    "lon": "-99.586100"
  },
  {
    "id": "750154",
    "country": "MX",
    "zipcode": "76316",
    "name": "Loma de la Cañada",
    "region": "Querétaro",
    "short_region": "22",
    "lat": "21.205200",
    "lon": "-99.612600"
  },
  {
    "id": "750155",
    "country": "MX",
    "zipcode": "76316",
    "name": "La Yerbabuena",
    "region": "Querétaro",
    "short_region": "22",
    "lat": "21.203100",
    "lon": "-99.628600"
  },
  {
    "id": "750156",
    "country": "MX",
    "zipcode": "76316",
    "name": "Las Joyas",
    "region": "Querétaro",
    "short_region": "22",
    "lat": "21.157100",
    "lon": "-99.538500"
  },
  {
    "id": "750157",
    "country": "MX",
    "zipcode": "76316",
    "name": "La Charca",
    "region": "Querétaro",
    "short_region": "22",
    "lat": "21.209400",
    "lon": "-99.605000"
  },
  {
    "id": "750158",
    "country": "MX",
    "zipcode": "76316",
    "name": "El Llano",
    "region": "Querétaro",
    "short_region": "22",
    "lat": "21.196600",
    "lon": "-99.596600"
  },
  {
    "id": "750159",
    "country": "MX",
    "zipcode": "76316",
    "name": "Cuesta de Huazmazontla",
    "region": "Querétaro",
    "short_region": "22",
    "lat": "21.186900",
    "lon": "-99.576400"
  },
  {
    "id": "750160",
    "country": "MX",
    "zipcode": "76316",
    "name": "Río Escanela",
    "region": "Querétaro",
    "short_region": "22",
    "lat": "21.198900",
    "lon": "-99.604200"
  },
  {
    "id": "750161",
    "country": "MX",
    "zipcode": "76316",
    "name": "Cuesta Blanca",
    "region": "Querétaro",
    "short_region": "22",
    "lat": "21.192500",
    "lon": "-99.589700"
  },
  {
    "id": "750162",
    "country": "MX",
    "zipcode": "76316",
    "name": "Loma de las Minas",
    "region": "Querétaro",
    "short_region": "22",
    "lat": "21.196700",
    "lon": "-99.607800"
  },
  {
    "id": "750163",
    "country": "MX",
    "zipcode": "76316",
    "name": "Derramadero de Juárez",
    "region": "Querétaro",
    "short_region": "22",
    "lat": "21.217500",
    "lon": "-99.616900"
  },
  {
    "id": "750164",
    "country": "MX",
    "zipcode": "76317",
    "name": "La Muñeca",
    "region": "Querétaro",
    "short_region": "22",
    "lat": "21.176100",
    "lon": "-99.629200"
  },
  {
    "id": "750165",
    "country": "MX",
    "zipcode": "76317",
    "name": "La Mesa de la Barranca",
    "region": "Querétaro",
    "short_region": "22",
    "lat": "21.166300",
    "lon": "-99.648100"
  },
  {
    "id": "750166",
    "country": "MX",
    "zipcode": "76317",
    "name": "Cerro de la Pingüica",
    "region": "Querétaro",
    "short_region": "22",
    "lat": "21.166300",
    "lon": "-99.648100"
  },
  {
    "id": "750167",
    "country": "MX",
    "zipcode": "76317",
    "name": "Llano de San Francisco",
    "region": "Querétaro",
    "short_region": "22",
    "lat": "21.181300",
    "lon": "-99.660600"
  },
  {
    "id": "750168",
    "country": "MX",
    "zipcode": "76317",
    "name": "Hornitos",
    "region": "Querétaro",
    "short_region": "22",
    "lat": "21.190000",
    "lon": "-99.675800"
  },
  {
    "id": "750169",
    "country": "MX",
    "zipcode": "76317",
    "name": "El Cantoncito",
    "region": "Querétaro",
    "short_region": "22",
    "lat": "21.141800",
    "lon": "-99.592700"
  },
  {
    "id": "750170",
    "country": "MX",
    "zipcode": "76317",
    "name": "La Peña Colorada",
    "region": "Querétaro",
    "short_region": "22",
    "lat": "21.141800",
    "lon": "-99.592700"
  },
  {
    "id": "750171",
    "country": "MX",
    "zipcode": "76317",
    "name": "La Barranca",
    "region": "Querétaro",
    "short_region": "22",
    "lat": "21.169400",
    "lon": "-99.643600"
  },
  {
    "id": "750172",
    "country": "MX",
    "zipcode": "76317",
    "name": "Los Pinos",
    "region": "Querétaro",
    "short_region": "22",
    "lat": "21.225800",
    "lon": "-99.670300"
  },
  {
    "id": "750173",
    "country": "MX",
    "zipcode": "76317",
    "name": "Agua Fría de la Barranca",
    "region": "Querétaro",
    "short_region": "22",
    "lat": "21.169400",
    "lon": "-99.643600"
  },
  {
    "id": "750174",
    "country": "MX",
    "zipcode": "76317",
    "name": "El Cantón",
    "region": "Querétaro",
    "short_region": "22",
    "lat": "21.228200",
    "lon": "-99.646100"
  },
  {
    "id": "750175",
    "country": "MX",
    "zipcode": "76317",
    "name": "San Gaspar",
    "region": "Querétaro",
    "short_region": "22",
    "lat": "21.163500",
    "lon": "-99.663100"
  },
  {
    "id": "750176",
    "country": "MX",
    "zipcode": "76317",
    "name": "Puerto de Tepozán",
    "region": "Querétaro",
    "short_region": "22",
    "lat": "21.187800",
    "lon": "-99.622200"
  },
  {
    "id": "750177",
    "country": "MX",
    "zipcode": "76317",
    "name": "El Gallo",
    "region": "Querétaro",
    "short_region": "22",
    "lat": "21.203900",
    "lon": "-99.644400"
  },
  {
    "id": "750178",
    "country": "MX",
    "zipcode": "76317",
    "name": "Agua Enterrada",
    "region": "Querétaro",
    "short_region": "22",
    "lat": "21.193600",
    "lon": "-99.652500"
  },
  {
    "id": "750179",
    "country": "MX",
    "zipcode": "76317",
    "name": "Los Lirios",
    "region": "Querétaro",
    "short_region": "22",
    "lat": "21.141800",
    "lon": "-99.592700"
  },
  {
    "id": "750180",
    "country": "MX",
    "zipcode": "76317",
    "name": "La Sierrita",
    "region": "Querétaro",
    "short_region": "22",
    "lat": "21.196900",
    "lon": "-99.655800"
  },
  {
    "id": "750181",
    "country": "MX",
    "zipcode": "76317",
    "name": "El Rodezno",
    "region": "Querétaro",
    "short_region": "22",
    "lat": "21.187800",
    "lon": "-99.635300"
  },
  {
    "id": "750182",
    "country": "MX",
    "zipcode": "76317",
    "name": "Santa Rita",
    "region": "Querétaro",
    "short_region": "22",
    "lat": "21.172600",
    "lon": "-99.652700"
  },
  {
    "id": "750183",
    "country": "MX",
    "zipcode": "76317",
    "name": "El Bernalito",
    "region": "Querétaro",
    "short_region": "22",
    "lat": "21.126600",
    "lon": "-99.685600"
  },
  {
    "id": "750184",
    "country": "MX",
    "zipcode": "76317",
    "name": "Puerto Canoas",
    "region": "Querétaro",
    "short_region": "22",
    "lat": "21.166300",
    "lon": "-99.648100"
  },
  {
    "id": "750185",
    "country": "MX",
    "zipcode": "76318",
    "name": "Arroyo Hondo de Huilotla",
    "region": "Querétaro",
    "short_region": "22",
    "lat": "21.269400",
    "lon": "-99.601200"
  },
  {
    "id": "750186",
    "country": "MX",
    "zipcode": "76318",
    "name": "El Apartadero",
    "region": "Querétaro",
    "short_region": "22",
    "lat": "21.269300",
    "lon": "-99.596700"
  },
  {
    "id": "750187",
    "country": "MX",
    "zipcode": "76318",
    "name": "El Pilón",
    "region": "Querétaro",
    "short_region": "22",
    "lat": "21.283100",
    "lon": "-99.608600"
  },
  {
    "id": "750188",
    "country": "MX",
    "zipcode": "76318",
    "name": "Sauz de Arroyo Hondo",
    "region": "Querétaro",
    "short_region": "22",
    "lat": "21.256900",
    "lon": "-99.598600"
  },
  {
    "id": "750189",
    "country": "MX",
    "zipcode": "76318",
    "name": "Maguey Blanco",
    "region": "Querétaro",
    "short_region": "22",
    "lat": "21.268200",
    "lon": "-99.600800"
  },
  {
    "id": "750190",
    "country": "MX",
    "zipcode": "76319",
    "name": "La Morita",
    "region": "Querétaro",
    "short_region": "22",
    "lat": "21.253600",
    "lon": "-99.619200"
  },
  {
    "id": "750191",
    "country": "MX",
    "zipcode": "76319",
    "name": "El Puertecito",
    "region": "Querétaro",
    "short_region": "22",
    "lat": "21.141800",
    "lon": "-99.592700"
  },
  {
    "id": "750192",
    "country": "MX",
    "zipcode": "76319",
    "name": "La Cañada",
    "region": "Querétaro",
    "short_region": "22",
    "lat": "21.271100",
    "lon": "-99.642800"
  },
  {
    "id": "750193",
    "country": "MX",
    "zipcode": "76319",
    "name": "Las Mesas de Santa Inés",
    "region": "Querétaro",
    "short_region": "22",
    "lat": "21.275300",
    "lon": "-99.646400"
  },
  {
    "id": "750194",
    "country": "MX",
    "zipcode": "76319",
    "name": "El Arpa",
    "region": "Querétaro",
    "short_region": "22",
    "lat": "21.262200",
    "lon": "-99.610000"
  },
  {
    "id": "750195",
    "country": "MX",
    "zipcode": "76319",
    "name": "El Limón",
    "region": "Querétaro",
    "short_region": "22",
    "lat": "21.317400",
    "lon": "-99.629100"
  },
  {
    "id": "750196",
    "country": "MX",
    "zipcode": "76319",
    "name": "La Joya de Santa Águeda",
    "region": "Querétaro",
    "short_region": "22",
    "lat": "21.273000",
    "lon": "-99.627100"
  },
  {
    "id": "750197",
    "country": "MX",
    "zipcode": "76319",
    "name": "La Joya del Leal",
    "region": "Querétaro",
    "short_region": "22",
    "lat": "21.273000",
    "lon": "-99.627100"
  },
  {
    "id": "750198",
    "country": "MX",
    "zipcode": "76319",
    "name": "Las Cruces",
    "region": "Querétaro",
    "short_region": "22",
    "lat": "21.267400",
    "lon": "-99.626200"
  },
  {
    "id": "750199",
    "country": "MX",
    "zipcode": "76319",
    "name": "Puerto de Pujunguía",
    "region": "Querétaro",
    "short_region": "22",
    "lat": "21.258300",
    "lon": "-99.628100"
  },
  {
    "id": "750200",
    "country": "MX",
    "zipcode": "76319",
    "name": "La Loma de la Ciénega",
    "region": "Querétaro",
    "short_region": "22",
    "lat": "21.290000",
    "lon": "-99.617200"
  },
  {
    "id": "750201",
    "country": "MX",
    "zipcode": "76319",
    "name": "La Mesa",
    "region": "Querétaro",
    "short_region": "22",
    "lat": "21.254400",
    "lon": "-99.615800"
  },
  {
    "id": "750202",
    "country": "MX",
    "zipcode": "76319",
    "name": "San Isidro",
    "region": "Querétaro",
    "short_region": "22",
    "lat": "21.268300",
    "lon": "-99.610800"
  },
  {
    "id": "750203",
    "country": "MX",
    "zipcode": "76319",
    "name": "El Naranjo",
    "region": "Querétaro",
    "short_region": "22",
    "lat": "21.302400",
    "lon": "-99.640000"
  },
  {
    "id": "750204",
    "country": "MX",
    "zipcode": "76319",
    "name": "Ciénega de San Juan",
    "region": "Querétaro",
    "short_region": "22",
    "lat": "21.279400",
    "lon": "-99.633300"
  },
  {
    "id": "750205",
    "country": "MX",
    "zipcode": "76319",
    "name": "Santa Águeda",
    "region": "Querétaro",
    "short_region": "22",
    "lat": "21.249400",
    "lon": "-99.633600"
  },
  {
    "id": "750206",
    "country": "MX",
    "zipcode": "76320",
    "name": "Tonatico",
    "region": "Querétaro",
    "short_region": "22",
    "lat": "21.145400",
    "lon": "-99.546300"
  },
  {
    "id": "750207",
    "country": "MX",
    "zipcode": "76321",
    "name": "Escanelilla",
    "region": "Querétaro",
    "short_region": "22",
    "lat": "21.203600",
    "lon": "-99.565600"
  },
  {
    "id": "750208",
    "country": "MX",
    "zipcode": "76323",
    "name": "Agua Verde",
    "region": "Querétaro",
    "short_region": "22",
    "lat": "21.136900",
    "lon": "-99.525300"
  },
  {
    "id": "750209",
    "country": "MX",
    "zipcode": "76323",
    "name": "Joyas del Real",
    "region": "Querétaro",
    "short_region": "22",
    "lat": "21.158900",
    "lon": "-99.540000"
  },
  {
    "id": "750210",
    "country": "MX",
    "zipcode": "76323",
    "name": "El Salto",
    "region": "Querétaro",
    "short_region": "22",
    "lat": "21.127500",
    "lon": "-99.522500"
  },
  {
    "id": "750211",
    "country": "MX",
    "zipcode": "76323",
    "name": "El Cuervo de San Pedro",
    "region": "Querétaro",
    "short_region": "22",
    "lat": "21.144400",
    "lon": "-99.531400"
  },
  {
    "id": "750212",
    "country": "MX",
    "zipcode": "76323",
    "name": "La Cieneguilla",
    "region": "Querétaro",
    "short_region": "22",
    "lat": "21.144400",
    "lon": "-99.531400"
  },
  {
    "id": "750213",
    "country": "MX",
    "zipcode": "76323",
    "name": "San José Cochinito",
    "region": "Querétaro",
    "short_region": "22",
    "lat": "21.144200",
    "lon": "-99.535300"
  },
  {
    "id": "750214",
    "country": "MX",
    "zipcode": "76323",
    "name": "El Chuveje",
    "region": "Querétaro",
    "short_region": "22",
    "lat": "21.166400",
    "lon": "-99.547500"
  },
  {
    "id": "750215",
    "country": "MX",
    "zipcode": "76323",
    "name": "Agua Cazuela",
    "region": "Querétaro",
    "short_region": "22",
    "lat": "21.132200",
    "lon": "-99.517800"
  },
  {
    "id": "750216",
    "country": "MX",
    "zipcode": "76324",
    "name": "Agua del Maíz",
    "region": "Querétaro",
    "short_region": "22",
    "lat": "21.130300",
    "lon": "-99.490300"
  },
  {
    "id": "750217",
    "country": "MX",
    "zipcode": "76324",
    "name": "La Cebolla",
    "region": "Querétaro",
    "short_region": "22",
    "lat": "21.141100",
    "lon": "-99.494700"
  },
  {
    "id": "750218",
    "country": "MX",
    "zipcode": "76324",
    "name": "La Mohonera",
    "region": "Querétaro",
    "short_region": "22",
    "lat": "21.158600",
    "lon": "-99.517700"
  },
  {
    "id": "750219",
    "country": "MX",
    "zipcode": "76324",
    "name": "Las Majaditas",
    "region": "Querétaro",
    "short_region": "22",
    "lat": "21.119400",
    "lon": "-99.472800"
  },
  {
    "id": "750220",
    "country": "MX",
    "zipcode": "76324",
    "name": "Puerto del Sabino",
    "region": "Querétaro",
    "short_region": "22",
    "lat": "21.142800",
    "lon": "-99.504700"
  },
  {
    "id": "750221",
    "country": "MX",
    "zipcode": "76324",
    "name": "Las Guayabas",
    "region": "Querétaro",
    "short_region": "22",
    "lat": "21.096900",
    "lon": "-99.463100"
  },
  {
    "id": "750222",
    "country": "MX",
    "zipcode": "76324",
    "name": "La Colgada",
    "region": "Querétaro",
    "short_region": "22",
    "lat": "21.113600",
    "lon": "-99.479400"
  },
  {
    "id": "750223",
    "country": "MX",
    "zipcode": "76324",
    "name": "Palo de Agua",
    "region": "Querétaro",
    "short_region": "22",
    "lat": "21.108600",
    "lon": "-99.473900"
  },
  {
    "id": "750224",
    "country": "MX",
    "zipcode": "76324",
    "name": "Pie de la Cuesta",
    "region": "Querétaro",
    "short_region": "22",
    "lat": "21.141400",
    "lon": "-99.509200"
  },
  {
    "id": "750225",
    "country": "MX",
    "zipcode": "76324",
    "name": "El Naranjo",
    "region": "Querétaro",
    "short_region": "22",
    "lat": "21.302400",
    "lon": "-99.640000"
  },
  {
    "id": "750226",
    "country": "MX",
    "zipcode": "76324",
    "name": "Tierras Coloradas",
    "region": "Querétaro",
    "short_region": "22",
    "lat": "21.116400",
    "lon": "-99.499200"
  },
  {
    "id": "750227",
    "country": "MX",
    "zipcode": "76324",
    "name": "Piedra Parada de Santa Rosa",
    "region": "Querétaro",
    "short_region": "22",
    "lat": "21.129200",
    "lon": "-99.499700"
  },
  {
    "id": "750228",
    "country": "MX",
    "zipcode": "76324",
    "name": "Maby",
    "region": "Querétaro",
    "short_region": "22",
    "lat": "21.151100",
    "lon": "-99.511100"
  },
  {
    "id": "750229",
    "country": "MX",
    "zipcode": "76324",
    "name": "El Limón de la Cruz",
    "region": "Querétaro",
    "short_region": "22",
    "lat": "21.096400",
    "lon": "-99.457500"
  },
  {
    "id": "750230",
    "country": "MX",
    "zipcode": "76325",
    "name": "El Murciélago",
    "region": "Querétaro",
    "short_region": "22",
    "lat": "21.111900",
    "lon": "-99.517200"
  },
  {
    "id": "750231",
    "country": "MX",
    "zipcode": "76325",
    "name": "San Pedro Viejo",
    "region": "Querétaro",
    "short_region": "22",
    "lat": "21.110000",
    "lon": "-99.503900"
  },
  {
    "id": "750232",
    "country": "MX",
    "zipcode": "76325",
    "name": "La Ciénega",
    "region": "Querétaro",
    "short_region": "22",
    "lat": "21.102800",
    "lon": "-99.505800"
  },
  {
    "id": "750233",
    "country": "MX",
    "zipcode": "76325",
    "name": "Cuervo de San Rafael",
    "region": "Querétaro",
    "short_region": "22",
    "lat": "21.126100",
    "lon": "-99.518300"
  },
  {
    "id": "750234",
    "country": "MX",
    "zipcode": "76325",
    "name": "De la Loma de San Pedro",
    "region": "Querétaro",
    "short_region": "22",
    "lat": "21.123600",
    "lon": "-99.524700"
  },
  {
    "id": "750235",
    "country": "MX",
    "zipcode": "76325",
    "name": "El Durazno Grande",
    "region": "Querétaro",
    "short_region": "22",
    "lat": "21.119400",
    "lon": "-99.511100"
  },
  {
    "id": "750236",
    "country": "MX",
    "zipcode": "76325",
    "name": "Aguacate de San Pedro",
    "region": "Querétaro",
    "short_region": "22",
    "lat": "21.098100",
    "lon": "-99.537200"
  },
  {
    "id": "750237",
    "country": "MX",
    "zipcode": "76325",
    "name": "Casas Viejas (Agua Enterrada San Carlos)",
    "region": "Querétaro",
    "short_region": "22",
    "lat": "21.110000",
    "lon": "-99.532500"
  },
  {
    "id": "750238",
    "country": "MX",
    "zipcode": "76325",
    "name": "San Isidro",
    "region": "Querétaro",
    "short_region": "22",
    "lat": "21.081900",
    "lon": "-99.503300"
  },
  {
    "id": "750239",
    "country": "MX",
    "zipcode": "76325",
    "name": "Puerto de Tenamaxtle",
    "region": "Querétaro",
    "short_region": "22",
    "lat": "21.111400",
    "lon": "-99.513300"
  },
  {
    "id": "750240",
    "country": "MX",
    "zipcode": "76325",
    "name": "El Carrizalito",
    "region": "Querétaro",
    "short_region": "22",
    "lat": "21.090900",
    "lon": "-99.492400"
  },
  {
    "id": "750241",
    "country": "MX",
    "zipcode": "76325",
    "name": "El Mezquite",
    "region": "Querétaro",
    "short_region": "22",
    "lat": "21.054400",
    "lon": "-99.477700"
  },
  {
    "id": "750242",
    "country": "MX",
    "zipcode": "76326",
    "name": "El Refugio",
    "region": "Querétaro",
    "short_region": "22",
    "lat": "21.140800",
    "lon": "-99.570600"
  },
  {
    "id": "750243",
    "country": "MX",
    "zipcode": "76326",
    "name": "Las Escaleras",
    "region": "Querétaro",
    "short_region": "22",
    "lat": "21.143600",
    "lon": "-99.561900"
  },
  {
    "id": "750244",
    "country": "MX",
    "zipcode": "76326",
    "name": "El Ranchito",
    "region": "Querétaro",
    "short_region": "22",
    "lat": "21.128300",
    "lon": "-99.557500"
  },
  {
    "id": "750245",
    "country": "MX",
    "zipcode": "76326",
    "name": "Mesas de San José",
    "region": "Querétaro",
    "short_region": "22",
    "lat": "21.102800",
    "lon": "-99.573600"
  },
  {
    "id": "750246",
    "country": "MX",
    "zipcode": "76326",
    "name": "Agua Amarga",
    "region": "Querétaro",
    "short_region": "22",
    "lat": "21.138000",
    "lon": "-99.588100"
  },
  {
    "id": "750247",
    "country": "MX",
    "zipcode": "76326",
    "name": "Puerto del Molino",
    "region": "Querétaro",
    "short_region": "22",
    "lat": "21.123700",
    "lon": "-99.565400"
  },
  {
    "id": "750248",
    "country": "MX",
    "zipcode": "76326",
    "name": "Loma Larga (Santa Cecilia)",
    "region": "Querétaro",
    "short_region": "22",
    "lat": "21.113900",
    "lon": "-99.560800"
  },
  {
    "id": "750249",
    "country": "MX",
    "zipcode": "76326",
    "name": "Cuesta de Santa Florentina",
    "region": "Querétaro",
    "short_region": "22",
    "lat": "21.124200",
    "lon": "-99.581700"
  },
  {
    "id": "750250",
    "country": "MX",
    "zipcode": "76326",
    "name": "Puerto Pinto",
    "region": "Querétaro",
    "short_region": "22",
    "lat": "21.113100",
    "lon": "-99.538300"
  },
  {
    "id": "750251",
    "country": "MX",
    "zipcode": "76326",
    "name": "Puerto Hacienda Vieja",
    "region": "Querétaro",
    "short_region": "22",
    "lat": "21.113300",
    "lon": "-99.572500"
  },
  {
    "id": "750252",
    "country": "MX",
    "zipcode": "76326",
    "name": "Durazno de San Francisco",
    "region": "Querétaro",
    "short_region": "22",
    "lat": "21.119200",
    "lon": "-99.549200"
  },
  {
    "id": "750253",
    "country": "MX",
    "zipcode": "76327",
    "name": "Puerto de Vigas",
    "region": "Querétaro",
    "short_region": "22",
    "lat": "21.176900",
    "lon": "-99.581400"
  },
  {
    "id": "750254",
    "country": "MX",
    "zipcode": "76327",
    "name": "Agua Fría",
    "region": "Querétaro",
    "short_region": "22",
    "lat": "21.145800",
    "lon": "-99.575800"
  },
  {
    "id": "750255",
    "country": "MX",
    "zipcode": "76327",
    "name": "La Gachupina",
    "region": "Querétaro",
    "short_region": "22",
    "lat": "21.163700",
    "lon": "-99.584300"
  },
  {
    "id": "750256",
    "country": "MX",
    "zipcode": "76327",
    "name": "Puerto del Rodezno",
    "region": "Querétaro",
    "short_region": "22",
    "lat": "21.168100",
    "lon": "-99.610200"
  },
  {
    "id": "750257",
    "country": "MX",
    "zipcode": "76327",
    "name": "El Cuervo",
    "region": "Querétaro",
    "short_region": "22",
    "lat": "21.166700",
    "lon": "-99.585800"
  },
  {
    "id": "750258",
    "country": "MX",
    "zipcode": "76327",
    "name": "La Curva del Chuveje",
    "region": "Querétaro",
    "short_region": "22",
    "lat": "21.180000",
    "lon": "-99.564200"
  },
  {
    "id": "750259",
    "country": "MX",
    "zipcode": "76327",
    "name": "Arquitos",
    "region": "Querétaro",
    "short_region": "22",
    "lat": "21.165800",
    "lon": "-99.601100"
  },
  {
    "id": "750260",
    "country": "MX",
    "zipcode": "76327",
    "name": "El Tambor de Huazquilíco",
    "region": "Querétaro",
    "short_region": "22",
    "lat": "21.163700",
    "lon": "-99.584300"
  },
  {
    "id": "750261",
    "country": "MX",
    "zipcode": "76327",
    "name": "Cruz Verde",
    "region": "Querétaro",
    "short_region": "22",
    "lat": "21.157500",
    "lon": "-99.613300"
  },
  {
    "id": "750262",
    "country": "MX",
    "zipcode": "76327",
    "name": "Tres Cruces",
    "region": "Querétaro",
    "short_region": "22",
    "lat": "21.155800",
    "lon": "-99.603600"
  },
  {
    "id": "750263",
    "country": "MX",
    "zipcode": "76327",
    "name": "Huazquilíco",
    "region": "Querétaro",
    "short_region": "22",
    "lat": "21.162400",
    "lon": "-99.574800"
  },
  {
    "id": "750264",
    "country": "MX",
    "zipcode": "76327",
    "name": "La Gallina",
    "region": "Querétaro",
    "short_region": "22",
    "lat": "21.149700",
    "lon": "-99.609400"
  },
  {
    "id": "750265",
    "country": "MX",
    "zipcode": "76327",
    "name": "Puerto del Perico",
    "region": "Querétaro",
    "short_region": "22",
    "lat": "21.161900",
    "lon": "-99.604400"
  },
  {
    "id": "750266",
    "country": "MX",
    "zipcode": "76327",
    "name": "El Tigre",
    "region": "Querétaro",
    "short_region": "22",
    "lat": "21.141800",
    "lon": "-99.592700"
  },
  {
    "id": "750267",
    "country": "MX",
    "zipcode": "76327",
    "name": "Cuesta Colorada de Huazquilíco",
    "region": "Querétaro",
    "short_region": "22",
    "lat": "21.165000",
    "lon": "-99.590000"
  },
  {
    "id": "750268",
    "country": "MX",
    "zipcode": "76327",
    "name": "El Llano de Huazquilíco",
    "region": "Querétaro",
    "short_region": "22",
    "lat": "21.163100",
    "lon": "-99.576100"
  },
  {
    "id": "750269",
    "country": "MX",
    "zipcode": "76327",
    "name": "El Pedregal",
    "region": "Querétaro",
    "short_region": "22",
    "lat": "21.171400",
    "lon": "-99.599200"
  },
  {
    "id": "750270",
    "country": "MX",
    "zipcode": "76330",
    "name": "Bucareli",
    "region": "Querétaro",
    "short_region": "22",
    "lat": "21.041300",
    "lon": "-99.614600"
  },
  {
    "id": "750271",
    "country": "MX",
    "zipcode": "76333",
    "name": "Puerto del Oro",
    "region": "Querétaro",
    "short_region": "22",
    "lat": "21.131100",
    "lon": "-99.611100"
  },
  {
    "id": "750272",
    "country": "MX",
    "zipcode": "76333",
    "name": "La Dinamita",
    "region": "Querétaro",
    "short_region": "22",
    "lat": "21.133900",
    "lon": "-99.621900"
  },
  {
    "id": "750273",
    "country": "MX",
    "zipcode": "76333",
    "name": "El Plátano",
    "region": "Querétaro",
    "short_region": "22",
    "lat": "21.061700",
    "lon": "-99.602800"
  },
  {
    "id": "750274",
    "country": "MX",
    "zipcode": "76333",
    "name": "Cerro del Carmen",
    "region": "Querétaro",
    "short_region": "22",
    "lat": "21.139700",
    "lon": "-99.614200"
  },
  {
    "id": "750275",
    "country": "MX",
    "zipcode": "76333",
    "name": "La Escondida",
    "region": "Querétaro",
    "short_region": "22",
    "lat": "21.141900",
    "lon": "-99.630000"
  },
  {
    "id": "750276",
    "country": "MX",
    "zipcode": "76333",
    "name": "La Esperanza",
    "region": "Querétaro",
    "short_region": "22",
    "lat": "21.120300",
    "lon": "-99.617500"
  },
  {
    "id": "750277",
    "country": "MX",
    "zipcode": "76333",
    "name": "Temascales",
    "region": "Querétaro",
    "short_region": "22",
    "lat": "21.119400",
    "lon": "-99.613900"
  },
  {
    "id": "750278",
    "country": "MX",
    "zipcode": "76333",
    "name": "Las Cabañas 5 Pinos",
    "region": "Querétaro",
    "short_region": "22",
    "lat": "21.119400",
    "lon": "-99.613900"
  },
  {
    "id": "750279",
    "country": "MX",
    "zipcode": "76333",
    "name": "Magueycitos",
    "region": "Querétaro",
    "short_region": "22",
    "lat": "21.122800",
    "lon": "-99.613300"
  },
  {
    "id": "750280",
    "country": "MX",
    "zipcode": "76333",
    "name": "El Galéme",
    "region": "Querétaro",
    "short_region": "22",
    "lat": "21.140300",
    "lon": "-99.620600"
  },
  {
    "id": "750281",
    "country": "MX",
    "zipcode": "76333",
    "name": "Epazotitos",
    "region": "Querétaro",
    "short_region": "22",
    "lat": "21.115300",
    "lon": "-99.603000"
  },
  {
    "id": "750282",
    "country": "MX",
    "zipcode": "76333",
    "name": "Barranca del Plátano",
    "region": "Querétaro",
    "short_region": "22",
    "lat": "21.086700",
    "lon": "-99.604700"
  },
  {
    "id": "750283",
    "country": "MX",
    "zipcode": "76334",
    "name": "San Antonio del Pelón",
    "region": "Querétaro",
    "short_region": "22",
    "lat": "21.091700",
    "lon": "-99.557200"
  },
  {
    "id": "750284",
    "country": "MX",
    "zipcode": "76334",
    "name": "El Tejocote",
    "region": "Querétaro",
    "short_region": "22",
    "lat": "21.116700",
    "lon": "-99.581400"
  },
  {
    "id": "750285",
    "country": "MX",
    "zipcode": "76334",
    "name": "Medias Coloradas",
    "region": "Querétaro",
    "short_region": "22",
    "lat": "21.033000",
    "lon": "-99.505400"
  },
  {
    "id": "750286",
    "country": "MX",
    "zipcode": "76334",
    "name": "Otomites",
    "region": "Querétaro",
    "short_region": "22",
    "lat": "21.124700",
    "lon": "-99.574200"
  },
  {
    "id": "750287",
    "country": "MX",
    "zipcode": "76334",
    "name": "Loma de Guadalupe",
    "region": "Querétaro",
    "short_region": "22",
    "lat": "21.071700",
    "lon": "-99.526100"
  },
  {
    "id": "750288",
    "country": "MX",
    "zipcode": "76334",
    "name": "El Timbre de Guadalupe",
    "region": "Querétaro",
    "short_region": "22",
    "lat": "21.027800",
    "lon": "-99.520000"
  },
  {
    "id": "750289",
    "country": "MX",
    "zipcode": "76334",
    "name": "Puerto Hondo",
    "region": "Querétaro",
    "short_region": "22",
    "lat": "21.079400",
    "lon": "-99.575300"
  },
  {
    "id": "750290",
    "country": "MX",
    "zipcode": "76334",
    "name": "Mesa de Ramírez",
    "region": "Querétaro",
    "short_region": "22",
    "lat": "21.069200",
    "lon": "-99.553600"
  },
  {
    "id": "750291",
    "country": "MX",
    "zipcode": "76334",
    "name": "Epazotes Grandes",
    "region": "Querétaro",
    "short_region": "22",
    "lat": "21.091100",
    "lon": "-99.585200"
  },
  {
    "id": "750292",
    "country": "MX",
    "zipcode": "76335",
    "name": "La Meca",
    "region": "Querétaro",
    "short_region": "22",
    "lat": "21.006700",
    "lon": "-99.575800"
  },
  {
    "id": "750293",
    "country": "MX",
    "zipcode": "76335",
    "name": "Palo Grande",
    "region": "Querétaro",
    "short_region": "22",
    "lat": "21.033900",
    "lon": "-99.598100"
  },
  {
    "id": "750294",
    "country": "MX",
    "zipcode": "76335",
    "name": "Joyas de Bucareli",
    "region": "Querétaro",
    "short_region": "22",
    "lat": "20.993900",
    "lon": "-99.573900"
  },
  {
    "id": "750295",
    "country": "MX",
    "zipcode": "76335",
    "name": "Las Vegas",
    "region": "Querétaro",
    "short_region": "22",
    "lat": "21.021900",
    "lon": "-99.532800"
  },
  {
    "id": "750296",
    "country": "MX",
    "zipcode": "76335",
    "name": "Agua Fría de Gudiño",
    "region": "Querétaro",
    "short_region": "22",
    "lat": "21.003900",
    "lon": "-99.550900"
  },
  {
    "id": "750297",
    "country": "MX",
    "zipcode": "76336",
    "name": "Agua Caliente Chiquita",
    "region": "Querétaro",
    "short_region": "22",
    "lat": "21.031700",
    "lon": "-99.627500"
  },
  {
    "id": "750298",
    "country": "MX",
    "zipcode": "76336",
    "name": "Aguacate de Morelos",
    "region": "Querétaro",
    "short_region": "22",
    "lat": "21.033300",
    "lon": "-99.680800"
  },
  {
    "id": "750299",
    "country": "MX",
    "zipcode": "76336",
    "name": "Adjunta de Gatos",
    "region": "Querétaro",
    "short_region": "22",
    "lat": "21.027300",
    "lon": "-99.649400"
  },
  {
    "id": "750300",
    "country": "MX",
    "zipcode": "76336",
    "name": "Mazatiapán",
    "region": "Querétaro",
    "short_region": "22",
    "lat": "21.016800",
    "lon": "-99.639800"
  },
  {
    "id": "750301",
    "country": "MX",
    "zipcode": "76337",
    "name": "La Joya",
    "region": "Querétaro",
    "short_region": "22",
    "lat": "21.062500",
    "lon": "-99.682200"
  },
  {
    "id": "750302",
    "country": "MX",
    "zipcode": "76337",
    "name": "La Mojonera",
    "region": "Querétaro",
    "short_region": "22",
    "lat": "21.117800",
    "lon": "-99.674400"
  },
  {
    "id": "750303",
    "country": "MX",
    "zipcode": "76337",
    "name": "Potrerillos",
    "region": "Querétaro",
    "short_region": "22",
    "lat": "21.095600",
    "lon": "-99.615600"
  },
  {
    "id": "750304",
    "country": "MX",
    "zipcode": "76337",
    "name": "Puerto de los Velázquez",
    "region": "Querétaro",
    "short_region": "22",
    "lat": "21.120800",
    "lon": "-99.673600"
  },
  {
    "id": "750305",
    "country": "MX",
    "zipcode": "76337",
    "name": "El Soyatal",
    "region": "Querétaro",
    "short_region": "22",
    "lat": "21.084400",
    "lon": "-99.688300"
  },
  {
    "id": "750306",
    "country": "MX",
    "zipcode": "76337",
    "name": "Huerta Don Manuel (Ojo de Agua)",
    "region": "Querétaro",
    "short_region": "22",
    "lat": "21.133600",
    "lon": "-99.627800"
  },
  {
    "id": "750307",
    "country": "MX",
    "zipcode": "76337",
    "name": "Mesa Chiquita (Mesa del Comalito)",
    "region": "Querétaro",
    "short_region": "22",
    "lat": "21.110000",
    "lon": "-99.620300"
  },
  {
    "id": "750308",
    "country": "MX",
    "zipcode": "76337",
    "name": "La Cañada",
    "region": "Querétaro",
    "short_region": "22",
    "lat": "21.116700",
    "lon": "-99.664200"
  },
  {
    "id": "750309",
    "country": "MX",
    "zipcode": "76337",
    "name": "Tepozán de Derramadero",
    "region": "Querétaro",
    "short_region": "22",
    "lat": "21.103300",
    "lon": "-99.655000"
  },
  {
    "id": "750310",
    "country": "MX",
    "zipcode": "76337",
    "name": "Joyas del Derramadero",
    "region": "Querétaro",
    "short_region": "22",
    "lat": "21.103300",
    "lon": "-99.655000"
  },
  {
    "id": "750311",
    "country": "MX",
    "zipcode": "76337",
    "name": "Barbechos",
    "region": "Querétaro",
    "short_region": "22",
    "lat": "21.103300",
    "lon": "-99.655000"
  },
  {
    "id": "750312",
    "country": "MX",
    "zipcode": "76337",
    "name": "El Limón de Bucareli",
    "region": "Querétaro",
    "short_region": "22",
    "lat": "21.103300",
    "lon": "-99.655000"
  },
  {
    "id": "750313",
    "country": "MX",
    "zipcode": "76337",
    "name": "El Mastranto",
    "region": "Querétaro",
    "short_region": "22",
    "lat": "21.093900",
    "lon": "-99.645600"
  },
  {
    "id": "750314",
    "country": "MX",
    "zipcode": "76337",
    "name": "Puerto del Derramadero",
    "region": "Querétaro",
    "short_region": "22",
    "lat": "21.106400",
    "lon": "-99.627800"
  },
  {
    "id": "750315",
    "country": "MX",
    "zipcode": "76337",
    "name": "Rancho Nuevo Dos",
    "region": "Querétaro",
    "short_region": "22",
    "lat": "21.104700",
    "lon": "-99.661400"
  },
  {
    "id": "750316",
    "country": "MX",
    "zipcode": "76337",
    "name": "Loma del Revolcadero (La Joya)",
    "region": "Querétaro",
    "short_region": "22",
    "lat": "21.101100",
    "lon": "-99.674400"
  },
  {
    "id": "750317",
    "country": "MX",
    "zipcode": "76337",
    "name": "La Quebradora",
    "region": "Querétaro",
    "short_region": "22",
    "lat": "21.124400",
    "lon": "-99.645000"
  },
  {
    "id": "750318",
    "country": "MX",
    "zipcode": "76337",
    "name": "El Madroño",
    "region": "Querétaro",
    "short_region": "22",
    "lat": "21.106100",
    "lon": "-99.686100"
  },
  {
    "id": "750319",
    "country": "MX",
    "zipcode": "76337",
    "name": "Puerto de Tejamaníl",
    "region": "Querétaro",
    "short_region": "22",
    "lat": "21.123100",
    "lon": "-99.651400"
  },
  {
    "id": "750320",
    "country": "MX",
    "zipcode": "76337",
    "name": "Puerto del Pino (Puerta del Cielo)",
    "region": "Querétaro",
    "short_region": "22",
    "lat": "21.103300",
    "lon": "-99.655000"
  },
  {
    "id": "750321",
    "country": "MX",
    "zipcode": "76337",
    "name": "Mesa del Soyatal",
    "region": "Querétaro",
    "short_region": "22",
    "lat": "21.103300",
    "lon": "-99.655000"
  },
  {
    "id": "750322",
    "country": "MX",
    "zipcode": "76337",
    "name": "Cuatro Palos",
    "region": "Querétaro",
    "short_region": "22",
    "lat": "21.084200",
    "lon": "-99.657300"
  },
  {
    "id": "750323",
    "country": "MX",
    "zipcode": "76337",
    "name": "Carricillo de Media Luna",
    "region": "Querétaro",
    "short_region": "22",
    "lat": "21.062800",
    "lon": "-99.653100"
  },
  {
    "id": "750324",
    "country": "MX",
    "zipcode": "76337",
    "name": "Derramadero de Bucareli",
    "region": "Querétaro",
    "short_region": "22",
    "lat": "21.110900",
    "lon": "-99.642100"
  },
  {
    "id": "750325",
    "country": "MX",
    "zipcode": "76400",
    "name": "La Loma",
    "region": "Querétaro",
    "short_region": "22",
    "lat": "21.466700",
    "lon": "-99.636100"
  },
  {
    "id": "750326",
    "country": "MX",
    "zipcode": "76400",
    "name": "Arroyo Seco",
    "region": "Querétaro",
    "short_region": "22",
    "lat": "21.547800",
    "lon": "-99.688300"
  },
  {
    "id": "750327",
    "country": "MX",
    "zipcode": "76401",
    "name": "Sanguijuela",
    "region": "Querétaro",
    "short_region": "22",
    "lat": "21.565000",
    "lon": "-99.661400"
  },
  {
    "id": "750328",
    "country": "MX",
    "zipcode": "76402",
    "name": "La Escondida de Guadalupe",
    "region": "Querétaro",
    "short_region": "22",
    "lat": "21.548600",
    "lon": "-99.650600"
  },
  {
    "id": "750329",
    "country": "MX",
    "zipcode": "76404",
    "name": "La Rana",
    "region": "Querétaro",
    "short_region": "22",
    "lat": "21.546400",
    "lon": "-99.693900"
  },
  {
    "id": "750330",
    "country": "MX",
    "zipcode": "76404",
    "name": "De la Cruz",
    "region": "Querétaro",
    "short_region": "22",
    "lat": "21.546400",
    "lon": "-99.693900"
  },
  {
    "id": "750331",
    "country": "MX",
    "zipcode": "76405",
    "name": "Zona oeste de Arroyo Seco",
    "region": "Querétaro",
    "short_region": "22",
    "lat": "21.534900",
    "lon": "-99.666100"
  },
  {
    "id": "750332",
    "country": "MX",
    "zipcode": "76410",
    "name": "Villa Riviera",
    "region": "Querétaro",
    "short_region": "22",
    "lat": "21.423300",
    "lon": "-99.624700"
  },
  {
    "id": "750333",
    "country": "MX",
    "zipcode": "76410",
    "name": "Los Puentes",
    "region": "Querétaro",
    "short_region": "22",
    "lat": "21.423300",
    "lon": "-99.624700"
  },
  {
    "id": "750334",
    "country": "MX",
    "zipcode": "76410",
    "name": "El Temporalito",
    "region": "Querétaro",
    "short_region": "22",
    "lat": "21.423300",
    "lon": "-99.624700"
  },
  {
    "id": "750335",
    "country": "MX",
    "zipcode": "76410",
    "name": "El Crucero del Sabinito",
    "region": "Querétaro",
    "short_region": "22",
    "lat": "21.423300",
    "lon": "-99.624700"
  },
  {
    "id": "750336",
    "country": "MX",
    "zipcode": "76410",
    "name": "Las Colmenas",
    "region": "Querétaro",
    "short_region": "22",
    "lat": "21.423300",
    "lon": "-99.624700"
  },
  {
    "id": "750337",
    "country": "MX",
    "zipcode": "76410",
    "name": "Los Canelos",
    "region": "Querétaro",
    "short_region": "22",
    "lat": "21.423300",
    "lon": "-99.624700"
  },
  {
    "id": "750338",
    "country": "MX",
    "zipcode": "76410",
    "name": "Los Capulines",
    "region": "Querétaro",
    "short_region": "22",
    "lat": "21.423300",
    "lon": "-99.624700"
  },
  {
    "id": "750339",
    "country": "MX",
    "zipcode": "76410",
    "name": "Concá",
    "region": "Querétaro",
    "short_region": "22",
    "lat": "21.444800",
    "lon": "-99.635800"
  },
  {
    "id": "750340",
    "country": "MX",
    "zipcode": "76410",
    "name": "San Isidro",
    "region": "Querétaro",
    "short_region": "22",
    "lat": "21.458400",
    "lon": "-99.640700"
  },
  {
    "id": "750341",
    "country": "MX",
    "zipcode": "76410",
    "name": "San Felipe",
    "region": "Querétaro",
    "short_region": "22",
    "lat": "21.415600",
    "lon": "-99.633000"
  },
  {
    "id": "750342",
    "country": "MX",
    "zipcode": "76410",
    "name": "La Huastequita",
    "region": "Querétaro",
    "short_region": "22",
    "lat": "21.431100",
    "lon": "-99.614700"
  },
  {
    "id": "750343",
    "country": "MX",
    "zipcode": "76410",
    "name": "Mesa del Platanito",
    "region": "Querétaro",
    "short_region": "22",
    "lat": "21.409300",
    "lon": "-99.635500"
  },
  {
    "id": "750344",
    "country": "MX",
    "zipcode": "76410",
    "name": "El Ceronal (La Loma)",
    "region": "Querétaro",
    "short_region": "22",
    "lat": "21.463600",
    "lon": "-99.637800"
  },
  {
    "id": "750345",
    "country": "MX",
    "zipcode": "76410",
    "name": "La Maroma",
    "region": "Querétaro",
    "short_region": "22",
    "lat": "21.418000",
    "lon": "-99.605400"
  },
  {
    "id": "750346",
    "country": "MX",
    "zipcode": "76410",
    "name": "Mesa de Palo Blanco",
    "region": "Querétaro",
    "short_region": "22",
    "lat": "21.448500",
    "lon": "-99.645400"
  },
  {
    "id": "750347",
    "country": "MX",
    "zipcode": "76410",
    "name": "El Rejalgar",
    "region": "Querétaro",
    "short_region": "22",
    "lat": "21.319800",
    "lon": "-99.541800"
  },
  {
    "id": "750348",
    "country": "MX",
    "zipcode": "76410",
    "name": "El Aguacate",
    "region": "Querétaro",
    "short_region": "22",
    "lat": "21.400300",
    "lon": "-99.617700"
  },
  {
    "id": "750349",
    "country": "MX",
    "zipcode": "76410",
    "name": "La Pechuga",
    "region": "Querétaro",
    "short_region": "22",
    "lat": "21.434200",
    "lon": "-99.639400"
  },
  {
    "id": "750350",
    "country": "MX",
    "zipcode": "76410",
    "name": "El Pitahayo",
    "region": "Querétaro",
    "short_region": "22",
    "lat": "21.422400",
    "lon": "-99.660100"
  },
  {
    "id": "750351",
    "country": "MX",
    "zipcode": "76411",
    "name": "Mesa de los Uribe",
    "region": "Querétaro",
    "short_region": "22",
    "lat": "21.506400",
    "lon": "-99.683300"
  },
  {
    "id": "750352",
    "country": "MX",
    "zipcode": "76411",
    "name": "Tanque Viejo",
    "region": "Querétaro",
    "short_region": "22",
    "lat": "21.537200",
    "lon": "-99.693100"
  },
  {
    "id": "750353",
    "country": "MX",
    "zipcode": "76411",
    "name": "Jesús María",
    "region": "Querétaro",
    "short_region": "22",
    "lat": "21.490800",
    "lon": "-99.700000"
  },
  {
    "id": "750354",
    "country": "MX",
    "zipcode": "76411",
    "name": "Mesas de Agua Fría",
    "region": "Querétaro",
    "short_region": "22",
    "lat": "21.491100",
    "lon": "-99.656900"
  },
  {
    "id": "750355",
    "country": "MX",
    "zipcode": "76413",
    "name": "Tierras Prietas",
    "region": "Querétaro",
    "short_region": "22",
    "lat": "21.469400",
    "lon": "-99.605600"
  },
  {
    "id": "750356",
    "country": "MX",
    "zipcode": "76413",
    "name": "Agua Fría de los Fresnos",
    "region": "Querétaro",
    "short_region": "22",
    "lat": "21.455600",
    "lon": "-99.572200"
  },
  {
    "id": "750357",
    "country": "MX",
    "zipcode": "76413",
    "name": "El Sabinito",
    "region": "Querétaro",
    "short_region": "22",
    "lat": "21.453700",
    "lon": "-99.594800"
  },
  {
    "id": "750358",
    "country": "MX",
    "zipcode": "76414",
    "name": "Laguna de la Cruz",
    "region": "Querétaro",
    "short_region": "22",
    "lat": "21.361800",
    "lon": "-99.506400"
  },
  {
    "id": "750359",
    "country": "MX",
    "zipcode": "76414",
    "name": "Las Trancas",
    "region": "Querétaro",
    "short_region": "22",
    "lat": "21.436900",
    "lon": "-99.618600"
  },
  {
    "id": "750360",
    "country": "MX",
    "zipcode": "76414",
    "name": "El Coyote",
    "region": "Querétaro",
    "short_region": "22",
    "lat": "21.409400",
    "lon": "-99.597200"
  },
  {
    "id": "750361",
    "country": "MX",
    "zipcode": "76414",
    "name": "El Bosque",
    "region": "Querétaro",
    "short_region": "22",
    "lat": "21.405400",
    "lon": "-99.529200"
  },
  {
    "id": "750362",
    "country": "MX",
    "zipcode": "76414",
    "name": "San José de las Flores",
    "region": "Querétaro",
    "short_region": "22",
    "lat": "21.377600",
    "lon": "-99.503700"
  },
  {
    "id": "750363",
    "country": "MX",
    "zipcode": "76414",
    "name": "Milpas Viejas",
    "region": "Querétaro",
    "short_region": "22",
    "lat": "21.389600",
    "lon": "-99.528700"
  },
  {
    "id": "750364",
    "country": "MX",
    "zipcode": "76414",
    "name": "Casas Viejas",
    "region": "Querétaro",
    "short_region": "22",
    "lat": "21.391200",
    "lon": "-99.511100"
  },
  {
    "id": "750365",
    "country": "MX",
    "zipcode": "76414",
    "name": "El Salitrillo",
    "region": "Querétaro",
    "short_region": "22",
    "lat": "21.426400",
    "lon": "-99.610300"
  },
  {
    "id": "750366",
    "country": "MX",
    "zipcode": "76417",
    "name": "El Barrito",
    "region": "Querétaro",
    "short_region": "22",
    "lat": "21.355800",
    "lon": "-99.480600"
  },
  {
    "id": "750367",
    "country": "MX",
    "zipcode": "76417",
    "name": "El Quirino",
    "region": "Querétaro",
    "short_region": "22",
    "lat": "21.351100",
    "lon": "-99.459200"
  },
  {
    "id": "750368",
    "country": "MX",
    "zipcode": "76417",
    "name": "La Mohonera",
    "region": "Querétaro",
    "short_region": "22",
    "lat": "21.336700",
    "lon": "-99.444400"
  },
  {
    "id": "750369",
    "country": "MX",
    "zipcode": "76417",
    "name": "San Juan Buenaventura",
    "region": "Querétaro",
    "short_region": "22",
    "lat": "21.352700",
    "lon": "-99.472900"
  },
  {
    "id": "750370",
    "country": "MX",
    "zipcode": "76420",
    "name": "Alpujarras",
    "region": "Querétaro",
    "short_region": "22",
    "lat": "21.407300",
    "lon": "-99.772400"
  },
  {
    "id": "750371",
    "country": "MX",
    "zipcode": "76420",
    "name": "La Loma",
    "region": "Querétaro",
    "short_region": "22",
    "lat": "21.464000",
    "lon": "-99.637700"
  },
  {
    "id": "750372",
    "country": "MX",
    "zipcode": "76420",
    "name": "La Ciénega",
    "region": "Querétaro",
    "short_region": "22",
    "lat": "21.398800",
    "lon": "-99.745200"
  },
  {
    "id": "750373",
    "country": "MX",
    "zipcode": "76420",
    "name": "Las Adjuntas",
    "region": "Querétaro",
    "short_region": "22",
    "lat": "21.401700",
    "lon": "-99.752100"
  },
  {
    "id": "750374",
    "country": "MX",
    "zipcode": "76420",
    "name": "El Tepozán",
    "region": "Querétaro",
    "short_region": "22",
    "lat": "21.368900",
    "lon": "-99.757200"
  },
  {
    "id": "750375",
    "country": "MX",
    "zipcode": "76420",
    "name": "Los Guillenes",
    "region": "Querétaro",
    "short_region": "22",
    "lat": "21.391400",
    "lon": "-99.748600"
  },
  {
    "id": "750376",
    "country": "MX",
    "zipcode": "76420",
    "name": "La Florida",
    "region": "Querétaro",
    "short_region": "22",
    "lat": "21.415500",
    "lon": "-99.735300"
  },
  {
    "id": "750377",
    "country": "MX",
    "zipcode": "76421",
    "name": "Vegas Cuatas",
    "region": "Querétaro",
    "short_region": "22",
    "lat": "21.506100",
    "lon": "-99.733600"
  },
  {
    "id": "750378",
    "country": "MX",
    "zipcode": "76421",
    "name": "La Cantera",
    "region": "Querétaro",
    "short_region": "22",
    "lat": "21.519800",
    "lon": "-99.692000"
  },
  {
    "id": "750379",
    "country": "MX",
    "zipcode": "76421",
    "name": "La Mora",
    "region": "Querétaro",
    "short_region": "22",
    "lat": "21.409300",
    "lon": "-99.635500"
  },
  {
    "id": "750380",
    "country": "MX",
    "zipcode": "76421",
    "name": "Río del Carrizal",
    "region": "Querétaro",
    "short_region": "22",
    "lat": "21.482800",
    "lon": "-99.701600"
  },
  {
    "id": "750381",
    "country": "MX",
    "zipcode": "76421",
    "name": "Las Moras",
    "region": "Querétaro",
    "short_region": "22",
    "lat": "21.409300",
    "lon": "-99.635500"
  },
  {
    "id": "750382",
    "country": "MX",
    "zipcode": "76421",
    "name": "Mesa del Coco",
    "region": "Querétaro",
    "short_region": "22",
    "lat": "21.524500",
    "lon": "-99.727700"
  },
  {
    "id": "750383",
    "country": "MX",
    "zipcode": "76421",
    "name": "La Ceja",
    "region": "Querétaro",
    "short_region": "22",
    "lat": "21.544400",
    "lon": "-99.751700"
  },
  {
    "id": "750384",
    "country": "MX",
    "zipcode": "76421",
    "name": "El Riachuelo",
    "region": "Querétaro",
    "short_region": "22",
    "lat": "21.540300",
    "lon": "-99.740600"
  },
  {
    "id": "750385",
    "country": "MX",
    "zipcode": "76421",
    "name": "El Refugio",
    "region": "Querétaro",
    "short_region": "22",
    "lat": "21.553900",
    "lon": "-99.746600"
  },
  {
    "id": "750386",
    "country": "MX",
    "zipcode": "76424",
    "name": "San José del Tepame",
    "region": "Querétaro",
    "short_region": "22",
    "lat": "21.448300",
    "lon": "-99.693400"
  },
  {
    "id": "750387",
    "country": "MX",
    "zipcode": "76425",
    "name": "La Escondida de Hidalgo",
    "region": "Querétaro",
    "short_region": "22",
    "lat": "21.377300",
    "lon": "-99.708000"
  },
  {
    "id": "750388",
    "country": "MX",
    "zipcode": "76425",
    "name": "El Capulín de los Briones (El Higuerón)",
    "region": "Querétaro",
    "short_region": "22",
    "lat": "21.431600",
    "lon": "-99.707000"
  },
  {
    "id": "750389",
    "country": "MX",
    "zipcode": "76425",
    "name": "El Pino",
    "region": "Querétaro",
    "short_region": "22",
    "lat": "21.422800",
    "lon": "-99.674400"
  },
  {
    "id": "750390",
    "country": "MX",
    "zipcode": "76425",
    "name": "La Lagunita",
    "region": "Querétaro",
    "short_region": "22",
    "lat": "21.443600",
    "lon": "-99.763200"
  },
  {
    "id": "750391",
    "country": "MX",
    "zipcode": "76425",
    "name": "El Jardín",
    "region": "Querétaro",
    "short_region": "22",
    "lat": "21.424900",
    "lon": "-99.694100"
  },
  {
    "id": "750392",
    "country": "MX",
    "zipcode": "76425",
    "name": "Los Álamos",
    "region": "Querétaro",
    "short_region": "22",
    "lat": "21.438400",
    "lon": "-99.642600"
  },
  {
    "id": "750393",
    "country": "MX",
    "zipcode": "76425",
    "name": "El Pocito",
    "region": "Querétaro",
    "short_region": "22",
    "lat": "21.482500",
    "lon": "-99.759800"
  },
  {
    "id": "750394",
    "country": "MX",
    "zipcode": "76426",
    "name": "La Huastequita",
    "region": "Querétaro",
    "short_region": "22",
    "lat": "21.431100",
    "lon": "-99.614700"
  },
  {
    "id": "750395",
    "country": "MX",
    "zipcode": "76426",
    "name": "Tuna Manza",
    "region": "Querétaro",
    "short_region": "22",
    "lat": "21.409300",
    "lon": "-99.635500"
  },
  {
    "id": "750396",
    "country": "MX",
    "zipcode": "76426",
    "name": "Los Cuicillos",
    "region": "Querétaro",
    "short_region": "22",
    "lat": "21.385100",
    "lon": "-99.633600"
  },
  {
    "id": "750397",
    "country": "MX",
    "zipcode": "76426",
    "name": "Cerro Blanco",
    "region": "Querétaro",
    "short_region": "22",
    "lat": "21.339200",
    "lon": "-99.652500"
  },
  {
    "id": "750398",
    "country": "MX",
    "zipcode": "76427",
    "name": "El Durazno",
    "region": "Querétaro",
    "short_region": "22",
    "lat": "21.409300",
    "lon": "-99.635500"
  },
  {
    "id": "750399",
    "country": "MX",
    "zipcode": "76434",
    "name": "Ayutla",
    "region": "Querétaro",
    "short_region": "22",
    "lat": "21.389800",
    "lon": "-99.584900"
  },
  {
    "id": "750400",
    "country": "MX",
    "zipcode": "76434",
    "name": "Las Adjuntas",
    "region": "Querétaro",
    "short_region": "22",
    "lat": "21.395300",
    "lon": "-99.581900"
  },
  {
    "id": "750401",
    "country": "MX",
    "zipcode": "76434",
    "name": "Panales",
    "region": "Querétaro",
    "short_region": "22",
    "lat": "21.341500",
    "lon": "-99.563700"
  },
  {
    "id": "750402",
    "country": "MX",
    "zipcode": "76434",
    "name": "Puerto Ayutla",
    "region": "Querétaro",
    "short_region": "22",
    "lat": "21.368500",
    "lon": "-99.571100"
  },
  {
    "id": "750403",
    "country": "MX",
    "zipcode": "76434",
    "name": "El Nogal",
    "region": "Querétaro",
    "short_region": "22",
    "lat": "21.345200",
    "lon": "-99.543600"
  },
  {
    "id": "750404",
    "country": "MX",
    "zipcode": "76434",
    "name": "La Estancia",
    "region": "Querétaro",
    "short_region": "22",
    "lat": "21.354200",
    "lon": "-99.550900"
  },
  {
    "id": "750405",
    "country": "MX",
    "zipcode": "76436",
    "name": "Santa María de los Cocos",
    "region": "Querétaro",
    "short_region": "22",
    "lat": "21.329900",
    "lon": "-99.653300"
  },
  {
    "id": "750406",
    "country": "MX",
    "zipcode": "76440",
    "name": "El Rejalgar",
    "region": "Querétaro",
    "short_region": "22",
    "lat": "21.319800",
    "lon": "-99.541800"
  },
  {
    "id": "750407",
    "country": "MX",
    "zipcode": "76440",
    "name": "El Sabino",
    "region": "Querétaro",
    "short_region": "22",
    "lat": "21.289400",
    "lon": "-99.520600"
  },
  {
    "id": "750408",
    "country": "MX",
    "zipcode": "76440",
    "name": "Purísima de Arista",
    "region": "Querétaro",
    "short_region": "22",
    "lat": "21.310900",
    "lon": "-99.512100"
  },
  {
    "id": "750409",
    "country": "MX",
    "zipcode": "76440",
    "name": "La Laguna de Caballos (El Sabino)",
    "region": "Querétaro",
    "short_region": "22",
    "lat": "21.293300",
    "lon": "-99.519700"
  },
  {
    "id": "750410",
    "country": "MX",
    "zipcode": "76440",
    "name": "El Trapiche",
    "region": "Querétaro",
    "short_region": "22",
    "lat": "21.329600",
    "lon": "-99.522300"
  },
  {
    "id": "750411",
    "country": "MX",
    "zipcode": "76440",
    "name": "La Tinaja",
    "region": "Querétaro",
    "short_region": "22",
    "lat": "21.289800",
    "lon": "-99.545300"
  },
  {
    "id": "750412",
    "country": "MX",
    "zipcode": "76500",
    "name": "Centro",
    "region": "Querétaro",
    "short_region": "22",
    "lat": "20.699200",
    "lon": "-99.815100"
  },
  {
    "id": "750413",
    "country": "MX",
    "zipcode": "76503",
    "name": "El Paraíso",
    "region": "Querétaro",
    "short_region": "22",
    "lat": "20.791300",
    "lon": "-99.657000"
  },
  {
    "id": "750414",
    "country": "MX",
    "zipcode": "76503",
    "name": "Los Llanitos",
    "region": "Querétaro",
    "short_region": "22",
    "lat": "20.768400",
    "lon": "-99.851700"
  },
  {
    "id": "750415",
    "country": "MX",
    "zipcode": "76504",
    "name": "Las Fuentes",
    "region": "Querétaro",
    "short_region": "22",
    "lat": "20.791300",
    "lon": "-99.657000"
  },
  {
    "id": "750416",
    "country": "MX",
    "zipcode": "76504",
    "name": "La Meseta",
    "region": "Querétaro",
    "short_region": "22",
    "lat": "20.686000",
    "lon": "-99.811500"
  },
  {
    "id": "750417",
    "country": "MX",
    "zipcode": "76504",
    "name": "Fuentes y Pueblo Nuevo",
    "region": "Querétaro",
    "short_region": "22",
    "lat": "20.686000",
    "lon": "-99.811500"
  },
  {
    "id": "750418",
    "country": "MX",
    "zipcode": "76505",
    "name": "San Gaspar",
    "region": "Querétaro",
    "short_region": "22",
    "lat": "20.696300",
    "lon": "-99.823500"
  },
  {
    "id": "750419",
    "country": "MX",
    "zipcode": "76505",
    "name": "San Diego",
    "region": "Querétaro",
    "short_region": "22",
    "lat": "20.687300",
    "lon": "-99.821100"
  },
  {
    "id": "750420",
    "country": "MX",
    "zipcode": "76505",
    "name": "Magisterial",
    "region": "Querétaro",
    "short_region": "22",
    "lat": "20.791300",
    "lon": "-99.657000"
  },
  {
    "id": "750421",
    "country": "MX",
    "zipcode": "76505",
    "name": "La Magdalena",
    "region": "Querétaro",
    "short_region": "22",
    "lat": "20.681700",
    "lon": "-99.829800"
  },
  {
    "id": "750422",
    "country": "MX",
    "zipcode": "76505",
    "name": "El Refugio",
    "region": "Querétaro",
    "short_region": "22",
    "lat": "20.694400",
    "lon": "-99.818600"
  },
  {
    "id": "750423",
    "country": "MX",
    "zipcode": "76506",
    "name": "La Fuente",
    "region": "Querétaro",
    "short_region": "22",
    "lat": "20.791300",
    "lon": "-99.657000"
  },
  {
    "id": "750424",
    "country": "MX",
    "zipcode": "76506",
    "name": "El Demiño",
    "region": "Querétaro",
    "short_region": "22",
    "lat": "20.688300",
    "lon": "-99.828100"
  },
  {
    "id": "750425",
    "country": "MX",
    "zipcode": "76506",
    "name": "San Gaspar",
    "region": "Querétaro",
    "short_region": "22",
    "lat": "20.696300",
    "lon": "-99.823500"
  },
  {
    "id": "750426",
    "country": "MX",
    "zipcode": "76510",
    "name": "Santo Domingo",
    "region": "Querétaro",
    "short_region": "22",
    "lat": "20.739700",
    "lon": "-99.784200"
  },
  {
    "id": "750427",
    "country": "MX",
    "zipcode": "76510",
    "name": "Guadalupe",
    "region": "Querétaro",
    "short_region": "22",
    "lat": "20.753100",
    "lon": "-99.790900"
  },
  {
    "id": "750428",
    "country": "MX",
    "zipcode": "76510",
    "name": "La Mesa Providencia",
    "region": "Querétaro",
    "short_region": "22",
    "lat": "20.739600",
    "lon": "-99.735900"
  },
  {
    "id": "750429",
    "country": "MX",
    "zipcode": "76510",
    "name": "Santa Bárbara",
    "region": "Querétaro",
    "short_region": "22",
    "lat": "20.747500",
    "lon": "-99.800100"
  },
  {
    "id": "750430",
    "country": "MX",
    "zipcode": "76510",
    "name": "Yonthé",
    "region": "Querétaro",
    "short_region": "22",
    "lat": "20.735000",
    "lon": "-99.762200"
  },
  {
    "id": "750431",
    "country": "MX",
    "zipcode": "76510",
    "name": "El Rincón",
    "region": "Querétaro",
    "short_region": "22",
    "lat": "20.741100",
    "lon": "-99.784700"
  },
  {
    "id": "750432",
    "country": "MX",
    "zipcode": "76513",
    "name": "Villa Guerrero",
    "region": "Querétaro",
    "short_region": "22",
    "lat": "20.697000",
    "lon": "-99.760900"
  },
  {
    "id": "750433",
    "country": "MX",
    "zipcode": "76513",
    "name": "El Ranchito (Mintehé)",
    "region": "Querétaro",
    "short_region": "22",
    "lat": "20.694200",
    "lon": "-99.752300"
  },
  {
    "id": "750434",
    "country": "MX",
    "zipcode": "76513",
    "name": "La Luz",
    "region": "Querétaro",
    "short_region": "22",
    "lat": "20.694200",
    "lon": "-99.752300"
  },
  {
    "id": "750435",
    "country": "MX",
    "zipcode": "76513",
    "name": "Llano Blanco",
    "region": "Querétaro",
    "short_region": "22",
    "lat": "20.703000",
    "lon": "-99.807700"
  },
  {
    "id": "750436",
    "country": "MX",
    "zipcode": "76513",
    "name": "Los Espinos",
    "region": "Querétaro",
    "short_region": "22",
    "lat": "20.697800",
    "lon": "-99.774200"
  },
  {
    "id": "750437",
    "country": "MX",
    "zipcode": "76513",
    "name": "El Organal",
    "region": "Querétaro",
    "short_region": "22",
    "lat": "20.621900",
    "lon": "-99.640300"
  },
  {
    "id": "750438",
    "country": "MX",
    "zipcode": "76513",
    "name": "El Magueyal",
    "region": "Querétaro",
    "short_region": "22",
    "lat": "20.703100",
    "lon": "-99.781700"
  },
  {
    "id": "750439",
    "country": "MX",
    "zipcode": "76513",
    "name": "Los Maqueda",
    "region": "Querétaro",
    "short_region": "22",
    "lat": "20.707800",
    "lon": "-99.742500"
  },
  {
    "id": "750440",
    "country": "MX",
    "zipcode": "76513",
    "name": "Mintehé",
    "region": "Querétaro",
    "short_region": "22",
    "lat": "20.706300",
    "lon": "-99.735400"
  },
  {
    "id": "750441",
    "country": "MX",
    "zipcode": "76513",
    "name": "El Ranchito",
    "region": "Querétaro",
    "short_region": "22",
    "lat": "20.716900",
    "lon": "-99.776100"
  },
  {
    "id": "750442",
    "country": "MX",
    "zipcode": "76514",
    "name": "Villa Nueva",
    "region": "Querétaro",
    "short_region": "22",
    "lat": "20.669700",
    "lon": "-99.820000"
  },
  {
    "id": "750443",
    "country": "MX",
    "zipcode": "76515",
    "name": "Puerto de la Concepción",
    "region": "Querétaro",
    "short_region": "22",
    "lat": "20.694200",
    "lon": "-99.847200"
  },
  {
    "id": "750444",
    "country": "MX",
    "zipcode": "76515",
    "name": "Boxasní",
    "region": "Querétaro",
    "short_region": "22",
    "lat": "20.670800",
    "lon": "-99.848600"
  },
  {
    "id": "750445",
    "country": "MX",
    "zipcode": "76515",
    "name": "Alto",
    "region": "Querétaro",
    "short_region": "22",
    "lat": "20.681400",
    "lon": "-99.845000"
  },
  {
    "id": "750446",
    "country": "MX",
    "zipcode": "76515",
    "name": "Los Sánchez (La Concepción)",
    "region": "Querétaro",
    "short_region": "22",
    "lat": "20.681400",
    "lon": "-99.845000"
  },
  {
    "id": "750447",
    "country": "MX",
    "zipcode": "76515",
    "name": "Los Silvestres (La Concepción)",
    "region": "Querétaro",
    "short_region": "22",
    "lat": "20.686700",
    "lon": "-99.849700"
  },
  {
    "id": "750448",
    "country": "MX",
    "zipcode": "76515",
    "name": "CTM",
    "region": "Querétaro",
    "short_region": "22",
    "lat": "20.673900",
    "lon": "-99.834400"
  },
  {
    "id": "750449",
    "country": "MX",
    "zipcode": "76516",
    "name": "Zituní",
    "region": "Querétaro",
    "short_region": "22",
    "lat": "20.713200",
    "lon": "-99.829700"
  },
  {
    "id": "750450",
    "country": "MX",
    "zipcode": "76516",
    "name": "El Yaqui (Los Rojas)",
    "region": "Querétaro",
    "short_region": "22",
    "lat": "20.713300",
    "lon": "-99.813900"
  },
  {
    "id": "750451",
    "country": "MX",
    "zipcode": "76516",
    "name": "Los MartÍnez",
    "region": "Querétaro",
    "short_region": "22",
    "lat": "20.875000",
    "lon": "-99.515600"
  },
  {
    "id": "750452",
    "country": "MX",
    "zipcode": "76516",
    "name": "Bordo de Santo Niño",
    "region": "Querétaro",
    "short_region": "22",
    "lat": "20.735300",
    "lon": "-99.838900"
  },
  {
    "id": "750453",
    "country": "MX",
    "zipcode": "76516",
    "name": "San Antonio",
    "region": "Querétaro",
    "short_region": "22",
    "lat": "20.706100",
    "lon": "-99.689200"
  },
  {
    "id": "750454",
    "country": "MX",
    "zipcode": "76516",
    "name": "Los Vázquez",
    "region": "Querétaro",
    "short_region": "22",
    "lat": "20.706100",
    "lon": "-99.826900"
  },
  {
    "id": "750455",
    "country": "MX",
    "zipcode": "76516",
    "name": "Los Ríos",
    "region": "Querétaro",
    "short_region": "22",
    "lat": "20.719400",
    "lon": "-99.847800"
  },
  {
    "id": "750456",
    "country": "MX",
    "zipcode": "76516",
    "name": "Las Fuentes (La Peña)",
    "region": "Querétaro",
    "short_region": "22",
    "lat": "20.738400",
    "lon": "-99.766000"
  },
  {
    "id": "750457",
    "country": "MX",
    "zipcode": "76516",
    "name": "Arroyo de Zituní",
    "region": "Querétaro",
    "short_region": "22",
    "lat": "20.738400",
    "lon": "-99.766000"
  },
  {
    "id": "750458",
    "country": "MX",
    "zipcode": "76516",
    "name": "Puerto del Chiquihuite",
    "region": "Querétaro",
    "short_region": "22",
    "lat": "20.738400",
    "lon": "-99.766000"
  },
  {
    "id": "750459",
    "country": "MX",
    "zipcode": "76516",
    "name": "Los Barrones (La Concepción)",
    "region": "Querétaro",
    "short_region": "22",
    "lat": "20.738400",
    "lon": "-99.766000"
  },
  {
    "id": "750460",
    "country": "MX",
    "zipcode": "76516",
    "name": "Las Maravillas",
    "region": "Querétaro",
    "short_region": "22",
    "lat": "20.738400",
    "lon": "-99.766000"
  },
  {
    "id": "750461",
    "country": "MX",
    "zipcode": "76517",
    "name": "Las Cenizas",
    "region": "Querétaro",
    "short_region": "22",
    "lat": "20.750300",
    "lon": "-99.846400"
  },
  {
    "id": "750462",
    "country": "MX",
    "zipcode": "76517",
    "name": "La Puerta de San Pedro",
    "region": "Querétaro",
    "short_region": "22",
    "lat": "20.757500",
    "lon": "-99.834200"
  },
  {
    "id": "750463",
    "country": "MX",
    "zipcode": "76517",
    "name": "El Sauz",
    "region": "Querétaro",
    "short_region": "22",
    "lat": "20.780600",
    "lon": "-99.862200"
  },
  {
    "id": "750464",
    "country": "MX",
    "zipcode": "76517",
    "name": "Llanitos de Santa Bárbara",
    "region": "Querétaro",
    "short_region": "22",
    "lat": "20.769500",
    "lon": "-99.850500"
  },
  {
    "id": "750465",
    "country": "MX",
    "zipcode": "76517",
    "name": "San Martín Florida",
    "region": "Querétaro",
    "short_region": "22",
    "lat": "20.756600",
    "lon": "-99.825100"
  },
  {
    "id": "750466",
    "country": "MX",
    "zipcode": "76520",
    "name": "Las Peñitas (El Cuervo)",
    "region": "Querétaro",
    "short_region": "22",
    "lat": "20.894200",
    "lon": "-99.767800"
  },
  {
    "id": "750467",
    "country": "MX",
    "zipcode": "76520",
    "name": "Higuerillas",
    "region": "Querétaro",
    "short_region": "22",
    "lat": "20.916300",
    "lon": "-99.765600"
  },
  {
    "id": "750468",
    "country": "MX",
    "zipcode": "76523",
    "name": "El Tepozán",
    "region": "Querétaro",
    "short_region": "22",
    "lat": "20.894400",
    "lon": "-99.652200"
  },
  {
    "id": "750469",
    "country": "MX",
    "zipcode": "76523",
    "name": "El Agua Salada",
    "region": "Querétaro",
    "short_region": "22",
    "lat": "20.889700",
    "lon": "-99.696900"
  },
  {
    "id": "750470",
    "country": "MX",
    "zipcode": "76523",
    "name": "El Banco",
    "region": "Querétaro",
    "short_region": "22",
    "lat": "20.874200",
    "lon": "-99.706900"
  },
  {
    "id": "750471",
    "country": "MX",
    "zipcode": "76523",
    "name": "La Pastilla",
    "region": "Querétaro",
    "short_region": "22",
    "lat": "20.946800",
    "lon": "-99.700600"
  },
  {
    "id": "750472",
    "country": "MX",
    "zipcode": "76523",
    "name": "Mesa del Castillo (La Fajilla)",
    "region": "Querétaro",
    "short_region": "22",
    "lat": "20.895800",
    "lon": "-99.640600"
  },
  {
    "id": "750473",
    "country": "MX",
    "zipcode": "76523",
    "name": "Adjuntas de Rancho Quemado",
    "region": "Querétaro",
    "short_region": "22",
    "lat": "20.931300",
    "lon": "-99.698100"
  },
  {
    "id": "750474",
    "country": "MX",
    "zipcode": "76523",
    "name": "Corral de Encino",
    "region": "Querétaro",
    "short_region": "22",
    "lat": "20.931300",
    "lon": "-99.698100"
  },
  {
    "id": "750475",
    "country": "MX",
    "zipcode": "76523",
    "name": "Las Milpitas",
    "region": "Querétaro",
    "short_region": "22",
    "lat": "20.931300",
    "lon": "-99.698100"
  },
  {
    "id": "750476",
    "country": "MX",
    "zipcode": "76523",
    "name": "Tierra Colorada",
    "region": "Querétaro",
    "short_region": "22",
    "lat": "20.791300",
    "lon": "-99.657000"
  },
  {
    "id": "750477",
    "country": "MX",
    "zipcode": "76523",
    "name": "La Culata",
    "region": "Querétaro",
    "short_region": "22",
    "lat": "20.904700",
    "lon": "-99.697200"
  },
  {
    "id": "750478",
    "country": "MX",
    "zipcode": "76523",
    "name": "La Tinaja",
    "region": "Querétaro",
    "short_region": "22",
    "lat": "20.926900",
    "lon": "-99.698800"
  },
  {
    "id": "750479",
    "country": "MX",
    "zipcode": "76523",
    "name": "Quemado",
    "region": "Querétaro",
    "short_region": "22",
    "lat": "20.976000",
    "lon": "-99.671000"
  },
  {
    "id": "750480",
    "country": "MX",
    "zipcode": "76523",
    "name": "Tuna Manza",
    "region": "Querétaro",
    "short_region": "22",
    "lat": "20.791300",
    "lon": "-99.657000"
  },
  {
    "id": "750481",
    "country": "MX",
    "zipcode": "76525",
    "name": "Los Mateos",
    "region": "Querétaro",
    "short_region": "22",
    "lat": "20.786900",
    "lon": "-99.776400"
  },
  {
    "id": "750482",
    "country": "MX",
    "zipcode": "76525",
    "name": "Los Remedios",
    "region": "Querétaro",
    "short_region": "22",
    "lat": "20.801700",
    "lon": "-99.808900"
  },
  {
    "id": "750483",
    "country": "MX",
    "zipcode": "76525",
    "name": "Atarjeas las Ánimas",
    "region": "Querétaro",
    "short_region": "22",
    "lat": "20.788300",
    "lon": "-99.779200"
  },