[
  {
    "id": "90001",
    "country": "CZ",
    "zipcode": "506 0",
    "name": "Horní Lochov",
    "region": "Královéhradecký kraj",
    "short_region": "82",
    "lat": "50.450000",
    "lon": "15.283300"
  },
  {
    "id": "90002",
    "country": "CZ",
    "zipcode": "506 0",
    "name": "Libunec",
    "region": "Královéhradecký kraj",
    "short_region": "82",
    "lat": "50.500000",
    "lon": "15.266700"
  },
  {
    "id": "90003",
    "country": "CZ",
    "zipcode": "506 0",
    "name": "Vokšice",
    "region": "Královéhradecký kraj",
    "short_region": "82",
    "lat": "50.433300",
    "lon": "15.316700"
  },
  {
    "id": "90004",
    "country": "CZ",
    "zipcode": "506 0",
    "name": "Rytířova Lhota",
    "region": "Královéhradecký kraj",
    "short_region": "82",
    "lat": "50.500000",
    "lon": "15.150000"
  },
  {
    "id": "90005",
    "country": "CZ",
    "zipcode": "506 0",
    "name": "Hlásná Lhota",
    "region": "Královéhradecký kraj",
    "short_region": "82",
    "lat": "50.433300",
    "lon": "15.300000"
  },
  {
    "id": "90006",
    "country": "CZ",
    "zipcode": "506 0",
    "name": "Březina",
    "region": "Královéhradecký kraj",
    "short_region": "82",
    "lat": "50.433300",
    "lon": "15.316700"
  },
  {
    "id": "90007",
    "country": "CZ",
    "zipcode": "506 0",
    "name": "Moravčice",
    "region": "Královéhradecký kraj",
    "short_region": "82",
    "lat": "50.433300",
    "lon": "15.383300"
  },
  {
    "id": "90008",
    "country": "CZ",
    "zipcode": "506 0",
    "name": "Křelina",
    "region": "Královéhradecký kraj",
    "short_region": "82",
    "lat": "50.416700",
    "lon": "15.283300"
  },
  {
    "id": "90009",
    "country": "CZ",
    "zipcode": "506 0",
    "name": "Kacákova Lhota",
    "region": "Královéhradecký kraj",
    "short_region": "82",
    "lat": "50.416700",
    "lon": "15.416700"
  },
  {
    "id": "90010",
    "country": "CZ",
    "zipcode": "506 0",
    "name": "Bartoušov",
    "region": "Královéhradecký kraj",
    "short_region": "82",
    "lat": "50.350000",
    "lon": "15.300000"
  },
  {
    "id": "90011",
    "country": "CZ",
    "zipcode": "506 0",
    "name": "Dílce",
    "region": "Královéhradecký kraj",
    "short_region": "82",
    "lat": "50.466700",
    "lon": "15.366700"
  },
  {
    "id": "90012",
    "country": "CZ",
    "zipcode": "506 0",
    "name": "Kbelnice",
    "region": "Královéhradecký kraj",
    "short_region": "82",
    "lat": "50.450000",
    "lon": "15.350000"
  },
  {
    "id": "90013",
    "country": "CZ",
    "zipcode": "506 0",
    "name": "Žitětín",
    "region": "Královéhradecký kraj",
    "short_region": "82",
    "lat": "50.350000",
    "lon": "15.333300"
  },
  {
    "id": "90014",
    "country": "CZ",
    "zipcode": "506 0",
    "name": "Keteň",
    "region": "Královéhradecký kraj",
    "short_region": "82",
    "lat": "50.366700",
    "lon": "15.300000"
  },
  {
    "id": "90015",
    "country": "CZ",
    "zipcode": "506 0",
    "name": "Ostružno",
    "region": "Královéhradecký kraj",
    "short_region": "82",
    "lat": "50.450000",
    "lon": "15.283300"
  },
  {
    "id": "90016",
    "country": "CZ",
    "zipcode": "506 0",
    "name": "Butoves",
    "region": "Královéhradecký kraj",
    "short_region": "82",
    "lat": "50.383300",
    "lon": "15.433300"
  },
  {
    "id": "90017",
    "country": "CZ",
    "zipcode": "506 0",
    "name": "Podůlší",
    "region": "Královéhradecký kraj",
    "short_region": "82",
    "lat": "50.483300",
    "lon": "15.350000"
  },
  {
    "id": "90018",
    "country": "CZ",
    "zipcode": "506 0",
    "name": "Všeliby",
    "region": "Královéhradecký kraj",
    "short_region": "82",
    "lat": "50.433300",
    "lon": "16.083300"
  },
  {
    "id": "90019",
    "country": "CZ",
    "zipcode": "506 0",
    "name": "Podhradí",
    "region": "Královéhradecký kraj",
    "short_region": "82",
    "lat": "50.416700",
    "lon": "15.316700"
  },
  {
    "id": "90020",
    "country": "CZ",
    "zipcode": "506 0",
    "name": "Dolní Lochov",
    "region": "Královéhradecký kraj",
    "short_region": "82",
    "lat": "50.466700",
    "lon": "15.300000"
  },
  {
    "id": "90021",
    "country": "CZ",
    "zipcode": "506 0",
    "name": "Vitiněves",
    "region": "Královéhradecký kraj",
    "short_region": "82",
    "lat": "50.400000",
    "lon": "15.383300"
  },
  {
    "id": "90022",
    "country": "CZ",
    "zipcode": "506 0",
    "name": "Češov",
    "region": "Královéhradecký kraj",
    "short_region": "82",
    "lat": "50.333300",
    "lon": "15.366700"
  },
  {
    "id": "90023",
    "country": "CZ",
    "zipcode": "506 0",
    "name": "Nemyčeves",
    "region": "Královéhradecký kraj",
    "short_region": "82",
    "lat": "50.383300",
    "lon": "15.366700"
  },
  {
    "id": "90024",
    "country": "CZ",
    "zipcode": "506 0",
    "name": "Jivany",
    "region": "Královéhradecký kraj",
    "short_region": "82",
    "lat": "50.516700",
    "lon": "15.300000"
  },
  {
    "id": "90025",
    "country": "CZ",
    "zipcode": "506 0",
    "name": "Staré Místo",
    "region": "Královéhradecký kraj",
    "short_region": "82",
    "lat": "50.400000",
    "lon": "15.333300"
  },
  {
    "id": "90026",
    "country": "CZ",
    "zipcode": "506 0",
    "name": "Tuř",
    "region": "Královéhradecký kraj",
    "short_region": "82",
    "lat": "50.400000",
    "lon": "15.416700"
  },
  {
    "id": "90027",
    "country": "CZ",
    "zipcode": "506 0",
    "name": "Březka",
    "region": "Královéhradecký kraj",
    "short_region": "82",
    "lat": "50.483300",
    "lon": "15.300000"
  },
  {
    "id": "90028",
    "country": "CZ",
    "zipcode": "506 0",
    "name": "Bacov",
    "region": "Královéhradecký kraj",
    "short_region": "82",
    "lat": "50.483300",
    "lon": "15.216700"
  },
  {
    "id": "90029",
    "country": "CZ",
    "zipcode": "506 0",
    "name": "Blata",
    "region": "Královéhradecký kraj",
    "short_region": "82",
    "lat": "50.466700",
    "lon": "15.266700"
  },
  {
    "id": "90030",
    "country": "CZ",
    "zipcode": "506 0",
    "name": "Popovice",
    "region": "Královéhradecký kraj",
    "short_region": "82",
    "lat": "50.416700",
    "lon": "15.366700"
  },
  {
    "id": "90031",
    "country": "CZ",
    "zipcode": "506 0",
    "name": "Štidla",
    "region": "Královéhradecký kraj",
    "short_region": "82",
    "lat": "50.433300",
    "lon": "15.250000"
  },
  {
    "id": "90032",
    "country": "CZ",
    "zipcode": "506 0",
    "name": "Čejkovice",
    "region": "Královéhradecký kraj",
    "short_region": "82",
    "lat": "50.416700",
    "lon": "15.350000"
  },
  {
    "id": "90033",
    "country": "CZ",
    "zipcode": "506 0",
    "name": "Staré Město",
    "region": "Královéhradecký kraj",
    "short_region": "82",
    "lat": "50.400000",
    "lon": "16.166700"
  },
  {
    "id": "90034",
    "country": "CZ",
    "zipcode": "506 0",
    "name": "Kamenice",
    "region": "Královéhradecký kraj",
    "short_region": "82",
    "lat": "50.416700",
    "lon": "15.483300"
  },
  {
    "id": "90035",
    "country": "CZ",
    "zipcode": "506 0",
    "name": "Hubálov",
    "region": "Královéhradecký kraj",
    "short_region": "82",
    "lat": "50.400000",
    "lon": "15.400000"
  },
  {
    "id": "90036",
    "country": "CZ",
    "zipcode": "507 0",
    "name": "Žeretice",
    "region": "Královéhradecký kraj",
    "short_region": "82",
    "lat": "50.350000",
    "lon": "15.416700"
  },
  {
    "id": "90037",
    "country": "CZ",
    "zipcode": "507 0",
    "name": "Velešice",
    "region": "Královéhradecký kraj",
    "short_region": "82",
    "lat": "50.316700",
    "lon": "15.433300"
  },
  {
    "id": "90038",
    "country": "CZ",
    "zipcode": "507 0",
    "name": "Stříbrnice",
    "region": "Královéhradecký kraj",
    "short_region": "82",
    "lat": "50.350000",
    "lon": "15.450000"
  },
  {
    "id": "90039",
    "country": "CZ",
    "zipcode": "507 0",
    "name": "Hradíšťko",
    "region": "Královéhradecký kraj",
    "short_region": "82",
    "lat": "50.326000",
    "lon": "15.419500"
  },
  {
    "id": "90040",
    "country": "CZ",
    "zipcode": "507 0",
    "name": "Kozojedy",
    "region": "Královéhradecký kraj",
    "short_region": "82",
    "lat": "50.316700",
    "lon": "15.366700"
  },
  {
    "id": "90041",
    "country": "CZ",
    "zipcode": "507 0",
    "name": "Sběř",
    "region": "Královéhradecký kraj",
    "short_region": "82",
    "lat": "50.316700",
    "lon": "15.433300"
  },
  {
    "id": "90042",
    "country": "CZ",
    "zipcode": "507 0",
    "name": "Sekeřice",
    "region": "Královéhradecký kraj",
    "short_region": "82",
    "lat": "50.283300",
    "lon": "15.383300"
  },
  {
    "id": "90043",
    "country": "CZ",
    "zipcode": "507 0",
    "name": "Volanice",
    "region": "Královéhradecký kraj",
    "short_region": "82",
    "lat": "50.333300",
    "lon": "15.400000"
  },
  {
    "id": "90044",
    "country": "CZ",
    "zipcode": "507 0",
    "name": "Veselská Lhota",
    "region": "Královéhradecký kraj",
    "short_region": "82",
    "lat": "50.333300",
    "lon": "15.433300"
  },
  {
    "id": "90045",
    "country": "CZ",
    "zipcode": "507 0",
    "name": "Vrbice",
    "region": "Královéhradecký kraj",
    "short_region": "82",
    "lat": "50.366700",
    "lon": "15.433300"
  },
  {
    "id": "90046",
    "country": "CZ",
    "zipcode": "507 0",
    "name": "Vysoké Veselí",
    "region": "Královéhradecký kraj",
    "short_region": "82",
    "lat": "50.329200",
    "lon": "15.433900"
  },
  {
    "id": "90047",
    "country": "CZ",
    "zipcode": "507 0",
    "name": "Hrobičany",
    "region": "Královéhradecký kraj",
    "short_region": "82",
    "lat": "50.316700",
    "lon": "15.433300"
  },
  {
    "id": "90048",
    "country": "CZ",
    "zipcode": "507 0",
    "name": "Vlhošť",
    "region": "Královéhradecký kraj",
    "short_region": "82",
    "lat": "50.350000",
    "lon": "15.416700"
  },
  {
    "id": "90049",
    "country": "CZ",
    "zipcode": "507 0",
    "name": "Třtěnice",
    "region": "Královéhradecký kraj",
    "short_region": "82",
    "lat": "50.383300",
    "lon": "15.466700"
  },
  {
    "id": "90050",
    "country": "CZ",
    "zipcode": "507 0",
    "name": "Konecchlumí",
    "region": "Královéhradecký kraj",
    "short_region": "82",
    "lat": "50.400000",
    "lon": "15.483300"
  },
  {
    "id": "90051",
    "country": "CZ",
    "zipcode": "507 0",
    "name": "Lužany",
    "region": "Královéhradecký kraj",
    "short_region": "82",
    "lat": "50.433300",
    "lon": "15.466700"
  },
  {
    "id": "90052",
    "country": "CZ",
    "zipcode": "507 0",
    "name": "Úlibice",
    "region": "Královéhradecký kraj",
    "short_region": "82",
    "lat": "50.433300",
    "lon": "15.433300"
  },
  {
    "id": "90053",
    "country": "CZ",
    "zipcode": "507 1",
    "name": "Jičín-Sedličky",
    "region": "Královéhradecký kraj",
    "short_region": "82",
    "lat": "50.450000",
    "lon": "15.383300"
  },
  {
    "id": "90054",
    "country": "CZ",
    "zipcode": "507 1",
    "name": "Valdice",
    "region": "Královéhradecký kraj",
    "short_region": "82",
    "lat": "50.450000",
    "lon": "15.383300"
  },
  {
    "id": "90055",
    "country": "CZ",
    "zipcode": "507 1",
    "name": "Radim",
    "region": "Královéhradecký kraj",
    "short_region": "82",
    "lat": "50.466700",
    "lon": "15.433300"
  },
  {
    "id": "90056",
    "country": "CZ",
    "zipcode": "507 1",
    "name": "Kyje",
    "region": "Královéhradecký kraj",
    "short_region": "82",
    "lat": "50.500000",
    "lon": "15.366700"
  },
  {
    "id": "90057",
    "country": "CZ",
    "zipcode": "507 1",
    "name": "Studeňany",
    "region": "Královéhradecký kraj",
    "short_region": "82",
    "lat": "50.450000",
    "lon": "15.416700"
  },
  {
    "id": "90058",
    "country": "CZ",
    "zipcode": "507 1",
    "name": "Dolánky",
    "region": "Královéhradecký kraj",
    "short_region": "82",
    "lat": "50.600000",
    "lon": "15.166700"
  },
  {
    "id": "90059",
    "country": "CZ",
    "zipcode": "507 1",
    "name": "Pekloves",
    "region": "Královéhradecký kraj",
    "short_region": "82",
    "lat": "50.500000",
    "lon": "15.333300"
  },
  {
    "id": "90060",
    "country": "CZ",
    "zipcode": "507 1",
    "name": "Dřevěnice",
    "region": "Královéhradecký kraj",
    "short_region": "82",
    "lat": "50.450000",
    "lon": "15.450000"
  },
  {
    "id": "90061",
    "country": "CZ",
    "zipcode": "507 1",
    "name": "Soběraz",
    "region": "Královéhradecký kraj",
    "short_region": "82",
    "lat": "50.466700",
    "lon": "15.400000"
  },
  {
    "id": "90062",
    "country": "CZ",
    "zipcode": "507 1",
    "name": "Cidlina",
    "region": "Královéhradecký kraj",
    "short_region": "82",
    "lat": "50.500000",
    "lon": "15.350000"
  },
  {
    "id": "90063",
    "country": "CZ",
    "zipcode": "507 1",
    "name": "Železnice",
    "region": "Královéhradecký kraj",
    "short_region": "82",
    "lat": "50.470300",
    "lon": "15.380600"
  },
  {
    "id": "90064",
    "country": "CZ",
    "zipcode": "507 1",
    "name": "Tužín",
    "region": "Královéhradecký kraj",
    "short_region": "82",
    "lat": "50.466700",
    "lon": "15.433300"
  },
  {
    "id": "90065",
    "country": "CZ",
    "zipcode": "507 1",
    "name": "Doubravice",
    "region": "Královéhradecký kraj",
    "short_region": "82",
    "lat": "50.483300",
    "lon": "15.366700"
  },
  {
    "id": "90066",
    "country": "CZ",
    "zipcode": "507 1",
    "name": "Březka",
    "region": "Královéhradecký kraj",
    "short_region": "82",
    "lat": "50.483300",
    "lon": "15.300000"
  },
  {
    "id": "90067",
    "country": "CZ",
    "zipcode": "507 1",
    "name": "Lháň",
    "region": "Královéhradecký kraj",
    "short_region": "82",
    "lat": "50.466700",
    "lon": "15.416700"
  },
  {
    "id": "90068",
    "country": "CZ",
    "zipcode": "507 1",
    "name": "Těšín",
    "region": "Královéhradecký kraj",
    "short_region": "82",
    "lat": "50.466700",
    "lon": "15.383300"
  },
  {
    "id": "90069",
    "country": "CZ",
    "zipcode": "507 1",
    "name": "Podhájí",
    "region": "Královéhradecký kraj",
    "short_region": "82",
    "lat": "50.566700",
    "lon": "15.133300"
  },
  {
    "id": "90070",
    "country": "CZ",
    "zipcode": "507 1",
    "name": "Zámezí",
    "region": "Královéhradecký kraj",
    "short_region": "82",
    "lat": "50.483300",
    "lon": "15.350000"
  },
  {
    "id": "90071",
    "country": "CZ",
    "zipcode": "507 1",
    "name": "Libuň",
    "region": "Královéhradecký kraj",
    "short_region": "82",
    "lat": "50.500000",
    "lon": "15.300000"
  },
  {
    "id": "90072",
    "country": "CZ",
    "zipcode": "507 2",
    "name": "Vesec",
    "region": "Královéhradecký kraj",
    "short_region": "82",
    "lat": "50.400000",
    "lon": "15.316700"
  },
  {
    "id": "90073",
    "country": "CZ",
    "zipcode": "507 2",
    "name": "Veliš",
    "region": "Královéhradecký kraj",
    "short_region": "82",
    "lat": "50.416700",
    "lon": "15.316700"
  },
  {
    "id": "90074",
    "country": "CZ",
    "zipcode": "507 2",
    "name": "Batín",
    "region": "Královéhradecký kraj",
    "short_region": "82",
    "lat": "50.416700",
    "lon": "15.233300"
  },
  {
    "id": "90075",
    "country": "CZ",
    "zipcode": "507 2",
    "name": "Střevač",
    "region": "Královéhradecký kraj",
    "short_region": "82",
    "lat": "50.400000",
    "lon": "15.283300"
  },
  {
    "id": "90076",
    "country": "CZ",
    "zipcode": "507 2",
    "name": "Kozodírky",
    "region": "Královéhradecký kraj",
    "short_region": "82",
    "lat": "50.378900",
    "lon": "15.199800"
  },
  {
    "id": "90077",
    "country": "CZ",
    "zipcode": "507 2",
    "name": "Psinice",
    "region": "Královéhradecký kraj",
    "short_region": "82",
    "lat": "50.350000",
    "lon": "15.216700"
  },
  {
    "id": "90078",
    "country": "CZ",
    "zipcode": "507 2",
    "name": "Únětice",
    "region": "Královéhradecký kraj",
    "short_region": "82",
    "lat": "50.366700",
    "lon": "15.266700"
  },
  {
    "id": "90079",
    "country": "CZ",
    "zipcode": "507 2",
    "name": "Lično",
    "region": "Královéhradecký kraj",
    "short_region": "82",
    "lat": "50.383300",
    "lon": "15.166700"
  },
  {
    "id": "90080",
    "country": "CZ",
    "zipcode": "507 2",
    "name": "Bystřice",
    "region": "Královéhradecký kraj",
    "short_region": "82",
    "lat": "50.400000",
    "lon": "15.250000"
  },
  {
    "id": "90081",
    "country": "CZ",
    "zipcode": "507 2",
    "name": "Libáň",
    "region": "Královéhradecký kraj",
    "short_region": "82",
    "lat": "50.359400",
    "lon": "15.229400"
  },
  {
    "id": "90082",
    "country": "CZ",
    "zipcode": "507 2",
    "name": "Záhuby",
    "region": "Královéhradecký kraj",
    "short_region": "82",
    "lat": "50.400000",
    "lon": "15.166700"
  },
  {
    "id": "90083",
    "country": "CZ",
    "zipcode": "507 2",
    "name": "Brodek",
    "region": "Královéhradecký kraj",
    "short_region": "82",
    "lat": "50.350000",
    "lon": "15.166700"
  },
  {
    "id": "90084",
    "country": "CZ",
    "zipcode": "507 2",
    "name": "Zliv",
    "region": "Královéhradecký kraj",
    "short_region": "82",
    "lat": "50.366700",
    "lon": "15.233300"
  },
  {
    "id": "90085",
    "country": "CZ",
    "zipcode": "507 2",
    "name": "Hřmenín",
    "region": "Královéhradecký kraj",
    "short_region": "82",
    "lat": "50.416700",
    "lon": "15.216700"
  },
  {
    "id": "90086",
    "country": "CZ",
    "zipcode": "507 2",
    "name": "Údrnice",
    "region": "Královéhradecký kraj",
    "short_region": "82",
    "lat": "50.383300",
    "lon": "15.266700"
  },
  {
    "id": "90087",
    "country": "CZ",
    "zipcode": "507 2",
    "name": "Křešice",
    "region": "Královéhradecký kraj",
    "short_region": "82",
    "lat": "50.333300",
    "lon": "15.200000"
  },
  {
    "id": "90088",
    "country": "CZ",
    "zipcode": "507 2",
    "name": "Sedliště",
    "region": "Královéhradecký kraj",
    "short_region": "82",
    "lat": "50.400000",
    "lon": "15.216700"
  },
  {
    "id": "90089",
    "country": "CZ",
    "zipcode": "507 2",
    "name": "Važice",
    "region": "Královéhradecký kraj",
    "short_region": "82",
    "lat": "50.400000",
    "lon": "15.233300"
  },
  {
    "id": "90090",
    "country": "CZ",
    "zipcode": "507 2",
    "name": "Staré Hrady",
    "region": "Královéhradecký kraj",
    "short_region": "82",
    "lat": "50.373300",
    "lon": "15.216100"
  },
  {
    "id": "90091",
    "country": "CZ",
    "zipcode": "507 2",
    "name": "Zelenecká Lhota",
    "region": "Královéhradecký kraj",
    "short_region": "82",
    "lat": "50.400000",
    "lon": "15.183300"
  },
  {
    "id": "90092",
    "country": "CZ",
    "zipcode": "507 2",
    "name": "Bačalky",
    "region": "Královéhradecký kraj",
    "short_region": "82",
    "lat": "50.383300",
    "lon": "15.150000"
  },
  {
    "id": "90093",
    "country": "CZ",
    "zipcode": "507 2",
    "name": "Horní Rokytňany",
    "region": "Královéhradecký kraj",
    "short_region": "82",
    "lat": "50.383300",
    "lon": "15.133300"
  },
  {
    "id": "90094",
    "country": "CZ",
    "zipcode": "507 2",
    "name": "Dolní Rokytňany",
    "region": "Královéhradecký kraj",
    "short_region": "82",
    "lat": "50.383300",
    "lon": "15.133300"
  },
  {
    "id": "90095",
    "country": "CZ",
    "zipcode": "507 2",
    "name": "Osenice",
    "region": "Královéhradecký kraj",
    "short_region": "82",
    "lat": "50.366700",
    "lon": "15.150000"
  },
  {
    "id": "90096",
    "country": "CZ",
    "zipcode": "507 2",
    "name": "Dětenice",
    "region": "Královéhradecký kraj",
    "short_region": "82",
    "lat": "50.369400",
    "lon": "15.172800"
  },
  {
    "id": "90097",
    "country": "CZ",
    "zipcode": "507 3",
    "name": "Jičíněves",
    "region": "Královéhradecký kraj",
    "short_region": "82",
    "lat": "50.366700",
    "lon": "15.333300"
  },
  {
    "id": "90098",
    "country": "CZ",
    "zipcode": "507 3",
    "name": "Drahoraz",
    "region": "Královéhradecký kraj",
    "short_region": "82",
    "lat": "50.366700",
    "lon": "15.283300"
  },
  {
    "id": "90099",
    "country": "CZ",
    "zipcode": "507 3",
    "name": "Ledkov",
    "region": "Královéhradecký kraj",
    "short_region": "82",
    "lat": "50.350000",
    "lon": "15.233300"
  },
  {
    "id": "90100",
    "country": "CZ",
    "zipcode": "507 3",
    "name": "Běchary",
    "region": "Královéhradecký kraj",
    "short_region": "82",
    "lat": "50.316700",
    "lon": "15.283300"
  },
  {
    "id": "90101",
    "country": "CZ",
    "zipcode": "507 3",
    "name": "Bílsko",
    "region": "Královéhradecký kraj",
    "short_region": "82",
    "lat": "50.350000",
    "lon": "15.266700"
  },
  {
    "id": "90102",
    "country": "CZ",
    "zipcode": "507 3",
    "name": "Nečas",
    "region": "Královéhradecký kraj",
    "short_region": "82",
    "lat": "50.300000",
    "lon": "15.233300"
  },
  {
    "id": "90103",
    "country": "CZ",
    "zipcode": "507 3",
    "name": "Běchárky",
    "region": "Královéhradecký kraj",
    "short_region": "82",
    "lat": "50.300000",
    "lon": "15.300000"
  },
  {
    "id": "90104",
    "country": "CZ",
    "zipcode": "507 3",
    "name": "Kopidlno",
    "region": "Královéhradecký kraj",
    "short_region": "82",
    "lat": "50.328300",
    "lon": "15.268900"
  },
  {
    "id": "90105",
    "country": "CZ",
    "zipcode": "507 3",
    "name": "Budčeves",
    "region": "Královéhradecký kraj",
    "short_region": "82",
    "lat": "50.316700",
    "lon": "15.250000"
  },
  {
    "id": "90106",
    "country": "CZ",
    "zipcode": "507 3",
    "name": "Židovice",
    "region": "Královéhradecký kraj",
    "short_region": "82",
    "lat": "50.300000",
    "lon": "15.316700"
  },
  {
    "id": "90107",
    "country": "CZ",
    "zipcode": "507 3",
    "name": "Pševes",
    "region": "Královéhradecký kraj",
    "short_region": "82",
    "lat": "50.350000",
    "lon": "15.300000"
  },
  {
    "id": "90108",
    "country": "CZ",
    "zipcode": "507 3",
    "name": "Cholenice",
    "region": "Královéhradecký kraj",
    "short_region": "82",
    "lat": "50.333300",
    "lon": "15.283300"
  },
  {
    "id": "90109",
    "country": "CZ",
    "zipcode": "507 3",
    "name": "Slavhostice",
    "region": "Královéhradecký kraj",
    "short_region": "82",
    "lat": "50.316700",
    "lon": "15.350000"
  },
  {
    "id": "90110",
    "country": "CZ",
    "zipcode": "507 3",
    "name": "Mlýnec",
    "region": "Královéhradecký kraj",
    "short_region": "82",
    "lat": "50.316700",
    "lon": "15.216700"
  },
  {
    "id": "90111",
    "country": "CZ",
    "zipcode": "507 3",
    "name": "Labouň",
    "region": "Královéhradecký kraj",
    "short_region": "82",
    "lat": "50.350000",
    "lon": "15.333300"
  },
  {
    "id": "90112",
    "country": "CZ",
    "zipcode": "507 3",
    "name": "Vršce",
    "region": "Královéhradecký kraj",
    "short_region": "82",
    "lat": "50.316700",
    "lon": "15.316700"
  },
  {
    "id": "90113",
    "country": "CZ",
    "zipcode": "507 3",
    "name": "Žlunice",
    "region": "Královéhradecký kraj",
    "short_region": "82",
    "lat": "50.300000",
    "lon": "15.383300"
  },
  {
    "id": "90114",
    "country": "CZ",
    "zipcode": "507 4",
    "name": "Markvartice",
    "region": "Královéhradecký kraj",
    "short_region": "82",
    "lat": "50.433300",
    "lon": "15.200000"
  },
  {
    "id": "90115",
    "country": "CZ",
    "zipcode": "507 4",
    "name": "Leština",
    "region": "Královéhradecký kraj",
    "short_region": "82",
    "lat": "50.433300",
    "lon": "15.233300"
  },
  {
    "id": "90116",
    "country": "CZ",
    "zipcode": "507 4",
    "name": "Staňkova Lhota",
    "region": "Královéhradecký kraj",
    "short_region": "82",
    "lat": "50.466700",
    "lon": "15.183300"
  },
  {
    "id": "90117",
    "country": "CZ",
    "zipcode": "507 4",
    "name": "Čálovice",
    "region": "Královéhradecký kraj",
    "short_region": "82",
    "lat": "50.466700",
    "lon": "15.183300"
  },
  {
    "id": "90118",
    "country": "CZ",
    "zipcode": "507 4",
    "name": "Stéblovice",
    "region": "Královéhradecký kraj",
    "short_region": "82",
    "lat": "50.483300",
    "lon": "15.200000"
  },
  {
    "id": "90119",
    "country": "CZ",
    "zipcode": "507 4",
    "name": "Skuřina",
    "region": "Královéhradecký kraj",
    "short_region": "82",
    "lat": "50.416700",
    "lon": "15.183300"
  },
  {
    "id": "90120",
    "country": "CZ",
    "zipcode": "507 4",
    "name": "Spyšova",
    "region": "Královéhradecký kraj",
    "short_region": "82",
    "lat": "50.450000",
    "lon": "15.183300"
  },
  {
    "id": "90121",
    "country": "CZ",
    "zipcode": "507 4",
    "name": "Kdanice",
    "region": "Královéhradecký kraj",
    "short_region": "82",
    "lat": "50.450000",
    "lon": "15.166700"
  },
  {
    "id": "90122",
    "country": "CZ",
    "zipcode": "507 4",
    "name": "Trní",
    "region": "Královéhradecký kraj",
    "short_region": "82",
    "lat": "50.283300",
    "lon": "15.150000"
  },
  {
    "id": "90123",
    "country": "CZ",
    "zipcode": "507 4",
    "name": "Mrkvojedy",
    "region": "Královéhradecký kraj",
    "short_region": "82",
    "lat": "50.433300",
    "lon": "15.183300"
  },
  {
    "id": "90124",
    "country": "CZ",
    "zipcode": "507 4",
    "name": "Rakov",
    "region": "Královéhradecký kraj",
    "short_region": "82",
    "lat": "50.433300",
    "lon": "15.216700"
  },
  {
    "id": "90125",
    "country": "CZ",
    "zipcode": "507 4",
    "name": "Lavice",
    "region": "Královéhradecký kraj",
    "short_region": "82",
    "lat": "50.450000",
    "lon": "15.216700"
  },
  {
    "id": "90126",
    "country": "CZ",
    "zipcode": "507 4",
    "name": "Příchvoj",
    "region": "Královéhradecký kraj",
    "short_region": "82",
    "lat": "50.450000",
    "lon": "15.216700"
  },
  {
    "id": "90127",
    "country": "CZ",
    "zipcode": "507 4",
    "name": "Sobotka",
    "region": "Královéhradecký kraj",
    "short_region": "82",
    "lat": "50.465300",
    "lon": "15.174700"
  },
  {
    "id": "90128",
    "country": "CZ",
    "zipcode": "507 4",
    "name": "Zajakury",
    "region": "Královéhradecký kraj",
    "short_region": "82",
    "lat": "50.438800",
    "lon": "15.188300"
  },
  {
    "id": "90129",
    "country": "CZ",
    "zipcode": "507 4",
    "name": "Netolice",
    "region": "Královéhradecký kraj",
    "short_region": "82",
    "lat": "50.438800",
    "lon": "15.188300"
  },
  {
    "id": "90130",
    "country": "CZ",
    "zipcode": "507 4",
    "name": "Spařence",
    "region": "Královéhradecký kraj",
    "short_region": "82",
    "lat": "50.433300",
    "lon": "15.183300"
  },
  {
    "id": "90131",
    "country": "CZ",
    "zipcode": "507 4",
    "name": "Osek",
    "region": "Královéhradecký kraj",
    "short_region": "82",
    "lat": "50.466700",
    "lon": "15.150000"
  },
  {
    "id": "90132",
    "country": "CZ",
    "zipcode": "507 4",
    "name": "Libošovice",
    "region": "Královéhradecký kraj",
    "short_region": "82",
    "lat": "50.500000",
    "lon": "15.166700"
  },
  {
    "id": "90133",
    "country": "CZ",
    "zipcode": "507 4",
    "name": "Mladějov",
    "region": "Královéhradecký kraj",
    "short_region": "82",
    "lat": "50.483300",
    "lon": "15.233300"
  },
  {
    "id": "90134",
    "country": "CZ",
    "zipcode": "507 5",
    "name": "Ostroměř",
    "region": "Královéhradecký kraj",
    "short_region": "82",
    "lat": "50.372800",
    "lon": "15.545600"
  },
  {
    "id": "90135",
    "country": "CZ",
    "zipcode": "507 5",
    "name": "Chomutičky",
    "region": "Královéhradecký kraj",
    "short_region": "82",
    "lat": "50.366700",
    "lon": "15.483300"
  },
  {
    "id": "90136",
    "country": "CZ",
    "zipcode": "507 5",
    "name": "Chomutice",
    "region": "Královéhradecký kraj",
    "short_region": "82",
    "lat": "50.366700",
    "lon": "15.500000"
  },
  {
    "id": "90137",
    "country": "CZ",
    "zipcode": "507 5",
    "name": "Podhorní Újezd",
    "region": "Královéhradecký kraj",
    "short_region": "82",
    "lat": "50.383300",
    "lon": "15.516700"
  },
  {
    "id": "90138",
    "country": "CZ",
    "zipcode": "507 5",
    "name": "Mlázovice",
    "region": "Královéhradecký kraj",
    "short_region": "82",
    "lat": "50.416700",
    "lon": "15.516700"
  },
  {
    "id": "90139",
    "country": "CZ",
    "zipcode": "507 5",
    "name": "Šárovcova Lhota",
    "region": "Královéhradecký kraj",
    "short_region": "82",
    "lat": "50.416700",
    "lon": "15.566700"
  },
  {
    "id": "90140",
    "country": "CZ",
    "zipcode": "507 7",
    "name": "Rohoznice",
    "region": "Královéhradecký kraj",
    "short_region": "82",
    "lat": "50.400000",
    "lon": "15.700000"
  },
  {
    "id": "90141",
    "country": "CZ",
    "zipcode": "507 7",
    "name": "Miletín",
    "region": "Královéhradecký kraj",
    "short_region": "82",
    "lat": "50.426100",
    "lon": "15.685800"
  },
  {
    "id": "90142",
    "country": "CZ",
    "zipcode": "507 7",
    "name": "Želejov",
    "region": "Královéhradecký kraj",
    "short_region": "82",
    "lat": "50.433300",
    "lon": "15.666700"
  },
  {
    "id": "90143",
    "country": "CZ",
    "zipcode": "507 7",
    "name": "Borek",
    "region": "Královéhradecký kraj",
    "short_region": "82",
    "lat": "50.433300",
    "lon": "15.650000"
  },
  {
    "id": "90144",
    "country": "CZ",
    "zipcode": "507 7",
    "name": "Chroustov",
    "region": "Královéhradecký kraj",
    "short_region": "82",
    "lat": "50.433300",
    "lon": "15.666700"
  },
  {
    "id": "90145",
    "country": "CZ",
    "zipcode": "507 7",
    "name": "Tetín",
    "region": "Královéhradecký kraj",
    "short_region": "82",
    "lat": "50.416700",
    "lon": "15.633300"
  },
  {
    "id": "90146",
    "country": "CZ",
    "zipcode": "507 7",
    "name": "Bezník",
    "region": "Královéhradecký kraj",
    "short_region": "82",
    "lat": "50.450000",
    "lon": "15.650000"
  },
  {
    "id": "90147",
    "country": "CZ",
    "zipcode": "507 7",
    "name": "Vřesník",
    "region": "Královéhradecký kraj",
    "short_region": "82",
    "lat": "50.433300",
    "lon": "15.633300"
  },
  {
    "id": "90148",
    "country": "CZ",
    "zipcode": "507 7",
    "name": "Úhlejov",
    "region": "Královéhradecký kraj",
    "short_region": "82",
    "lat": "50.433300",
    "lon": "15.683300"
  },
  {
    "id": "90149",
    "country": "CZ",
    "zipcode": "507 7",
    "name": "Vidoň",
    "region": "Královéhradecký kraj",
    "short_region": "82",
    "lat": "50.416700",
    "lon": "15.650000"
  },
  {
    "id": "90150",
    "country": "CZ",
    "zipcode": "507 7",
    "name": "Kouty",
    "region": "Královéhradecký kraj",
    "short_region": "82",
    "lat": "50.200000",
    "lon": "15.150000"
  },
  {
    "id": "90151",
    "country": "CZ",
    "zipcode": "507 7",
    "name": "Dobrá Voda u Hořic",
    "region": "Královéhradecký kraj",
    "short_region": "82",
    "lat": "50.200000",
    "lon": "15.150000"
  },
  {
    "id": "90152",
    "country": "CZ",
    "zipcode": "507 7",
    "name": "Cerekvice nad Bystřicí",
    "region": "Královéhradecký kraj",
    "short_region": "82",
    "lat": "50.406900",
    "lon": "15.615400"
  },
  {
    "id": "90153",
    "country": "CZ",
    "zipcode": "507 8",
    "name": "Mezihoří",
    "region": "Královéhradecký kraj",
    "short_region": "82",
    "lat": "50.439800",
    "lon": "15.542200"
  },
  {
    "id": "90154",
    "country": "CZ",
    "zipcode": "507 8",
    "name": "Horní Nová Ves",
    "region": "Královéhradecký kraj",
    "short_region": "82",
    "lat": "50.450000",
    "lon": "15.500000"
  },
  {
    "id": "90155",
    "country": "CZ",
    "zipcode": "507 8",
    "name": "Prostřední Nová Ves",
    "region": "Královéhradecký kraj",
    "short_region": "82",
    "lat": "50.433300",
    "lon": "15.500000"
  },
  {
    "id": "90156",
    "country": "CZ",
    "zipcode": "507 8",
    "name": "Svatojanský Újezd",
    "region": "Královéhradecký kraj",
    "short_region": "82",
    "lat": "50.433300",
    "lon": "15.550000"
  },
  {
    "id": "90157",
    "country": "CZ",
    "zipcode": "507 8",
    "name": "Dolní Mezihoří",
    "region": "Královéhradecký kraj",
    "short_region": "82",
    "lat": "50.439800",
    "lon": "15.542200"
  },
  {
    "id": "90158",
    "country": "CZ",
    "zipcode": "507 8",
    "name": "Libín",
    "region": "Královéhradecký kraj",
    "short_region": "82",
    "lat": "50.400000",
    "lon": "15.550000"
  },
  {
    "id": "90159",
    "country": "CZ",
    "zipcode": "507 8",
    "name": "Dolní Nová Ves",
    "region": "Královéhradecký kraj",
    "short_region": "82",
    "lat": "50.416700",
    "lon": "15.500000"
  },
  {
    "id": "90160",
    "country": "CZ",
    "zipcode": "507 8",
    "name": "Brtev",
    "region": "Královéhradecký kraj",
    "short_region": "82",
    "lat": "50.433300",
    "lon": "15.600000"
  },
  {
    "id": "90161",
    "country": "CZ",
    "zipcode": "507 8",
    "name": "Dolní Javoří",
    "region": "Královéhradecký kraj",
    "short_region": "82",
    "lat": "50.466700",
    "lon": "15.583300"
  },
  {
    "id": "90162",
    "country": "CZ",
    "zipcode": "507 8",
    "name": "Lány",
    "region": "Královéhradecký kraj",
    "short_region": "82",
    "lat": "50.450000",
    "lon": "15.550000"
  },
  {
    "id": "90163",
    "country": "CZ",
    "zipcode": "507 8",
    "name": "Uhlíře",
    "region": "Královéhradecký kraj",
    "short_region": "82",
    "lat": "50.466700",
    "lon": "15.566700"
  },
  {
    "id": "90164",
    "country": "CZ",
    "zipcode": "507 8",
    "name": "Lázně Bělohrad",
    "region": "Královéhradecký kraj",
    "short_region": "82",
    "lat": "50.443900",
    "lon": "15.556100"
  },
  {
    "id": "90165",
    "country": "CZ",
    "zipcode": "507 8",
    "name": "Hřídelec",
    "region": "Královéhradecký kraj",
    "short_region": "82",
    "lat": "50.450000",
    "lon": "15.533300"
  },
  {
    "id": "90166",
    "country": "CZ",
    "zipcode": "507 8",
    "name": "Choteč",
    "region": "Královéhradecký kraj",
    "short_region": "82",
    "lat": "50.433300",
    "lon": "15.516700"
  },
  {
    "id": "90167",
    "country": "CZ",
    "zipcode": "507 8",
    "name": "Horní Javoří",
    "region": "Královéhradecký kraj",
    "short_region": "82",
    "lat": "50.466700",
    "lon": "15.600000"
  },
  {
    "id": "90168",
    "country": "CZ",
    "zipcode": "507 8",
    "name": "Arnoštov",
    "region": "Královéhradecký kraj",
    "short_region": "82",
    "lat": "50.466700",
    "lon": "15.600000"
  },
  {
    "id": "90169",
    "country": "CZ",
    "zipcode": "507 8",
    "name": "Staňkov",
    "region": "Královéhradecký kraj",
    "short_region": "82",
    "lat": "50.483300",
    "lon": "15.633300"
  },
  {
    "id": "90170",
    "country": "CZ",
    "zipcode": "507 8",
    "name": "Bělá u Pecky",
    "region": "Královéhradecký kraj",
    "short_region": "82",
    "lat": "50.466700",
    "lon": "15.583300"
  },
  {
    "id": "90171",
    "country": "CZ",
    "zipcode": "507 8",
    "name": "Bukovina u Pecky",
    "region": "Královéhradecký kraj",
    "short_region": "82",
    "lat": "50.450000",
    "lon": "15.616700"
  },
  {
    "id": "90172",
    "country": "CZ",
    "zipcode": "507 8",
    "name": "Kal",
    "region": "Královéhradecký kraj",
    "short_region": "82",
    "lat": "50.466700",
    "lon": "15.633300"
  },
  {
    "id": "90173",
    "country": "CZ",
    "zipcode": "507 8",
    "name": "Stupná",
    "region": "Královéhradecký kraj",
    "short_region": "82",
    "lat": "50.500000",
    "lon": "15.583300"
  },
  {
    "id": "90174",
    "country": "CZ",
    "zipcode": "507 8",
    "name": "Vidonice",
    "region": "Královéhradecký kraj",
    "short_region": "82",
    "lat": "50.483300",
    "lon": "15.650000"
  },
  {
    "id": "90175",
    "country": "CZ",
    "zipcode": "507 8",
    "name": "Pecka",
    "region": "Královéhradecký kraj",
    "short_region": "82",
    "lat": "50.478100",
    "lon": "15.601400"
  },
  {
    "id": "90176",
    "country": "CZ",
    "zipcode": "507 9",
    "name": "Karlov",
    "region": "Královéhradecký kraj",
    "short_region": "82",
    "lat": "50.533300",
    "lon": "15.500000"
  },
  {
    "id": "90177",
    "country": "CZ",
    "zipcode": "507 9",
    "name": "Ústí",
    "region": "Královéhradecký kraj",
    "short_region": "82",
    "lat": "50.516700",
    "lon": "15.450000"
  },
  {
    "id": "90178",
    "country": "CZ",
    "zipcode": "507 9",
    "name": "Stará Paka",
    "region": "Královéhradecký kraj",
    "short_region": "82",
    "lat": "50.510800",
    "lon": "15.490000"
  },
  {
    "id": "90179",
    "country": "CZ",
    "zipcode": "507 9",
    "name": "Roškopov",
    "region": "Královéhradecký kraj",
    "short_region": "82",
    "lat": "50.516700",
    "lon": "15.483300"
  },
  {
    "id": "90180",
    "country": "CZ",
    "zipcode": "507 9",
    "name": "Úbislavice",
    "region": "Královéhradecký kraj",
    "short_region": "82",
    "lat": "50.483300",
    "lon": "15.466700"
  },
  {
    "id": "90181",
    "country": "CZ",
    "zipcode": "508 0",
    "name": "Doubrava",
    "region": "Královéhradecký kraj",
    "short_region": "82",
    "lat": "50.366700",
    "lon": "15.666700"
  },
  {
    "id": "90182",
    "country": "CZ",
    "zipcode": "508 0",
    "name": "Bašnice",
    "region": "Královéhradecký kraj",
    "short_region": "82",
    "lat": "50.333300",
    "lon": "15.600000"
  },
  {
    "id": "90183",
    "country": "CZ",
    "zipcode": "508 0",
    "name": "Dolní Černůtky",
    "region": "Královéhradecký kraj",
    "short_region": "82",
    "lat": "50.333300",
    "lon": "15.700000"
  },
  {
    "id": "90184",
    "country": "CZ",
    "zipcode": "508 0",
    "name": "Nevratice",
    "region": "Královéhradecký kraj",
    "short_region": "82",
    "lat": "50.350000",
    "lon": "15.500000"
  },
  {
    "id": "90185",
    "country": "CZ",
    "zipcode": "508 0",
    "name": "Březovice",
    "region": "Královéhradecký kraj",
    "short_region": "82",
    "lat": "50.366700",
    "lon": "15.666700"
  },
  {
    "id": "90186",
    "country": "CZ",
    "zipcode": "508 0",
    "name": "Třebovětice",
    "region": "Královéhradecký kraj",
    "short_region": "82",
    "lat": "50.333300",
    "lon": "15.716700"
  },
  {
    "id": "90187",
    "country": "CZ",
    "zipcode": "508 0",
    "name": "Sylvárův Újezd",
    "region": "Královéhradecký kraj",
    "short_region": "82",
    "lat": "50.350000",
    "lon": "15.550000"
  },
  {
    "id": "90188",
    "country": "CZ",
    "zipcode": "508 0",
    "name": "Lukavec u Hořic",
    "region": "Královéhradecký kraj",
    "short_region": "82",
    "lat": "50.400000",
    "lon": "15.616700"
  },
  {
    "id": "90189",
    "country": "CZ",
    "zipcode": "508 0",
    "name": "Holovousy",
    "region": "Královéhradecký kraj",
    "short_region": "82",
    "lat": "50.383300",
    "lon": "15.583300"
  },
  {
    "id": "90190",
    "country": "CZ",
    "zipcode": "508 0",
    "name": "Rašín",
    "region": "Královéhradecký kraj",
    "short_region": "82",
    "lat": "50.333300",
    "lon": "15.683300"
  },
  {
    "id": "90191",
    "country": "CZ",
    "zipcode": "508 0",
    "name": "Bílsko u Hořic",
    "region": "Královéhradecký kraj",
    "short_region": "82",
    "lat": "50.351400",
    "lon": "15.602400"
  },
  {
    "id": "90192",
    "country": "CZ",
    "zipcode": "508 0",
    "name": "Chlum",
    "region": "Královéhradecký kraj",
    "short_region": "82",
    "lat": "50.383300",
    "lon": "15.600000"
  },
  {
    "id": "90193",
    "country": "CZ",
    "zipcode": "508 0",
    "name": "Lískovice",
    "region": "Královéhradecký kraj",
    "short_region": "82",
    "lat": "50.333300",
    "lon": "15.550000"
  },
  {
    "id": "90194",
    "country": "CZ",
    "zipcode": "508 0",
    "name": "Hořice",
    "region": "Královéhradecký kraj",
    "short_region": "82",
    "lat": "50.366400",
    "lon": "15.632800"
  },
  {
    "id": "90195",
    "country": "CZ",
    "zipcode": "508 0",
    "name": "Vinice",
    "region": "Královéhradecký kraj",
    "short_region": "82",
    "lat": "50.216700",
    "lon": "15.283300"
  },
  {
    "id": "90196",
    "country": "CZ",
    "zipcode": "508 0",
    "name": "Votuz",
    "region": "Královéhradecký kraj",
    "short_region": "82",
    "lat": "50.350000",
    "lon": "15.700000"
  },
  {
    "id": "90197",
    "country": "CZ",
    "zipcode": "508 0",
    "name": "Třebnouševes",
    "region": "Královéhradecký kraj",
    "short_region": "82",
    "lat": "50.333300",
    "lon": "15.650000"
  },
  {
    "id": "90198",
    "country": "CZ",
    "zipcode": "508 0",
    "name": "Boháňka",
    "region": "Královéhradecký kraj",
    "short_region": "82",
    "lat": "50.366700",
    "lon": "15.700000"
  },
  {
    "id": "90199",
    "country": "CZ",
    "zipcode": "508 0",
    "name": "Nové Smrkovice",
    "region": "Královéhradecký kraj",
    "short_region": "82",
    "lat": "50.366700",
    "lon": "15.550000"
  },
  {
    "id": "90200",
    "country": "CZ",
    "zipcode": "508 0",
    "name": "Tereziny Dary",
    "region": "Královéhradecký kraj",
    "short_region": "82",
    "lat": "50.333300",
    "lon": "15.533300"
  },
  {
    "id": "90201",
    "country": "CZ",
    "zipcode": "508 0",
    "name": "Domoslavice",
    "region": "Královéhradecký kraj",
    "short_region": "82",
    "lat": "50.366700",
    "lon": "15.550000"
  },
  {
    "id": "90202",
    "country": "CZ",
    "zipcode": "508 0",
    "name": "Vojice",
    "region": "Královéhradecký kraj",
    "short_region": "82",
    "lat": "50.383300",
    "lon": "15.500000"
  },
  {
    "id": "90203",
    "country": "CZ",
    "zipcode": "508 0",
    "name": "Červená Třemešná",
    "region": "Královéhradecký kraj",
    "short_region": "82",
    "lat": "50.400000",
    "lon": "15.650000"
  },
  {
    "id": "90204",
    "country": "CZ",
    "zipcode": "508 0",
    "name": "Chloumek",
    "region": "Královéhradecký kraj",
    "short_region": "82",
    "lat": "50.366700",
    "lon": "15.683300"
  },
  {
    "id": "90205",
    "country": "CZ",
    "zipcode": "508 0",
    "name": "Bříšťany",
    "region": "Královéhradecký kraj",
    "short_region": "82",
    "lat": "50.316700",
    "lon": "15.616700"
  },
  {
    "id": "90206",
    "country": "CZ",
    "zipcode": "508 0",
    "name": "Dobeš",
    "region": "Královéhradecký kraj",
    "short_region": "82",
    "lat": "50.400000",
    "lon": "15.633300"
  },
  {
    "id": "90207",
    "country": "CZ",
    "zipcode": "508 0",
    "name": "Sukorady",
    "region": "Královéhradecký kraj",
    "short_region": "82",
    "lat": "50.333300",
    "lon": "15.583300"
  },
  {
    "id": "90208",
    "country": "CZ",
    "zipcode": "508 0",
    "name": "Chodovice",
    "region": "Královéhradecký kraj",
    "short_region": "82",
    "lat": "50.383300",
    "lon": "15.583300"
  },
  {
    "id": "90209",
    "country": "CZ",
    "zipcode": "508 0",
    "name": "Obora",
    "region": "Královéhradecký kraj",
    "short_region": "82",
    "lat": "50.366700",
    "lon": "15.500000"
  },
  {
    "id": "90210",
    "country": "CZ",
    "zipcode": "508 0",
    "name": "Staré Smrkovice",
    "region": "Královéhradecký kraj",
    "short_region": "82",
    "lat": "50.333300",
    "lon": "15.500000"
  },
  {
    "id": "90211",
    "country": "CZ",
    "zipcode": "508 0",
    "name": "Bertoldka",
    "region": "Královéhradecký kraj",
    "short_region": "82",
    "lat": "50.351400",
    "lon": "15.602400"
  },
  {
    "id": "90212",
    "country": "CZ",
    "zipcode": "508 0",
    "name": "Černín",
    "region": "Královéhradecký kraj",
    "short_region": "82",
    "lat": "50.351400",
    "lon": "15.602400"
  },
  {
    "id": "90213",
    "country": "CZ",
    "zipcode": "508 0",
    "name": "Milovice u Hořic",
    "region": "Královéhradecký kraj",
    "short_region": "82",
    "lat": "50.351400",
    "lon": "15.602400"
  },
  {
    "id": "90214",
    "country": "CZ",
    "zipcode": "508 0",
    "name": "Tikov",
    "region": "Královéhradecký kraj",
    "short_region": "82",
    "lat": "50.351400",
    "lon": "15.602400"
  },
  {
    "id": "90215",
    "country": "CZ",
    "zipcode": "508 0",
    "name": "Skála",
    "region": "Královéhradecký kraj",
    "short_region": "82",
    "lat": "50.350000",
    "lon": "15.716700"
  },
  {
    "id": "90216",
    "country": "CZ",
    "zipcode": "508 0",
    "name": "Svatogothardská Lhota",
    "region": "Královéhradecký kraj",
    "short_region": "82",
    "lat": "50.351400",
    "lon": "15.602400"
  },
  {
    "id": "90217",
    "country": "CZ",
    "zipcode": "508 0",
    "name": "Čenice 2.díl",
    "region": "Královéhradecký kraj",
    "short_region": "82",
    "lat": "50.351400",
    "lon": "15.602400"
  },
  {
    "id": "90218",
    "country": "CZ",
    "zipcode": "508 0",
    "name": "Libonice",
    "region": "Královéhradecký kraj",
    "short_region": "82",
    "lat": "50.351400",
    "lon": "15.602400"
  },
  {
    "id": "90219",
    "country": "CZ",
    "zipcode": "508 0",
    "name": "Chvalina",
    "region": "Královéhradecký kraj",
    "short_region": "82",
    "lat": "50.350000",
    "lon": "15.650000"
  },
  {
    "id": "90220",
    "country": "CZ",
    "zipcode": "508 0",
    "name": "Jeřice",
    "region": "Královéhradecký kraj",
    "short_region": "82",
    "lat": "50.350000",
    "lon": "15.683300"
  },
  {
    "id": "90221",
    "country": "CZ",
    "zipcode": "508 0",
    "name": "Chloumky",
    "region": "Královéhradecký kraj",
    "short_region": "82",
    "lat": "50.351400",
    "lon": "15.602400"
  },
  {
    "id": "90222",
    "country": "CZ",
    "zipcode": "508 0",
    "name": "Ostrov",
    "region": "Královéhradecký kraj",
    "short_region": "82",
    "lat": "50.333300",
    "lon": "15.633300"
  },
  {
    "id": "90223",
    "country": "CZ",
    "zipcode": "508 0",
    "name": "Petrovičky",
    "region": "Královéhradecký kraj",
    "short_region": "82",
    "lat": "50.300000",
    "lon": "15.600000"
  },
  {
    "id": "90224",
    "country": "CZ",
    "zipcode": "508 0",
    "name": "Sobčice",
    "region": "Královéhradecký kraj",
    "short_region": "82",
    "lat": "50.366700",
    "lon": "15.516700"
  },
  {
    "id": "90225",
    "country": "CZ",
    "zipcode": "509 0",
    "name": "Pustá Proseč",
    "region": "Královéhradecký kraj",
    "short_region": "82",
    "lat": "50.466700",
    "lon": "15.516700"
  },
  {
    "id": "90226",
    "country": "CZ",
    "zipcode": "509 0",
    "name": "Štikov",
    "region": "Královéhradecký kraj",
    "short_region": "82",
    "lat": "50.483300",
    "lon": "15.533300"
  },
  {
    "id": "90227",
    "country": "CZ",
    "zipcode": "509 0",
    "name": "Vrchovina",
    "region": "Královéhradecký kraj",
    "short_region": "82",
    "lat": "50.500000",
    "lon": "15.550000"
  },
  {
    "id": "90228",
    "country": "CZ",
    "zipcode": "509 0",
    "name": "Valdov",
    "region": "Královéhradecký kraj",
    "short_region": "82",
    "lat": "50.466700",
    "lon": "15.533300"
  },
  {
    "id": "90229",
    "country": "CZ",
    "zipcode": "509 0",
    "name": "Radkyně",
    "region": "Královéhradecký kraj",
    "short_region": "82",
    "lat": "50.483300",
    "lon": "15.566700"
  },
  {
    "id": "90230",
    "country": "CZ",
    "zipcode": "509 0",
    "name": "Studénka",
    "region": "Královéhradecký kraj",
    "short_region": "82",
    "lat": "50.483300",
    "lon": "15.500000"
  },
  {
    "id": "90231",
    "country": "CZ",
    "zipcode": "509 0",
    "name": "Zboží",
    "region": "Královéhradecký kraj",
    "short_region": "82",
    "lat": "50.483300",
    "lon": "15.450000"
  },
  {
    "id": "90232",
    "country": "CZ",
    "zipcode": "509 0",
    "name": "Vidochov",
    "region": "Královéhradecký kraj",
    "short_region": "82",
    "lat": "50.516700",
    "lon": "15.566700"
  },
  {
    "id": "90233",
    "country": "CZ",
    "zipcode": "509 0",
    "name": "Kumburský Újezd",
    "region": "Královéhradecký kraj",
    "short_region": "82",
    "lat": "50.466700",
    "lon": "15.483300"
  },
  {
    "id": "90234",
    "country": "CZ",
    "zipcode": "509 0",
    "name": "Přibyslav",
    "region": "Královéhradecký kraj",
    "short_region": "82",
    "lat": "50.466700",
    "lon": "15.550000"
  },
  {
    "id": "90235",
    "country": "CZ",
    "zipcode": "509 0",
    "name": "Stav",
    "region": "Královéhradecký kraj",
    "short_region": "82",
    "lat": "50.466700",
    "lon": "15.466700"
  },
  {
    "id": "90236",
    "country": "CZ",
    "zipcode": "509 0",
    "name": "Štěpanice",
    "region": "Královéhradecký kraj",
    "short_region": "82",
    "lat": "50.485400",
    "lon": "15.505100"
  },
  {
    "id": "90237",
    "country": "CZ",
    "zipcode": "509 0",
    "name": "Chloumek",
    "region": "Královéhradecký kraj",
    "short_region": "82",
    "lat": "50.483300",
    "lon": "15.433300"
  },
  {
    "id": "90238",
    "country": "CZ",
    "zipcode": "509 0",
    "name": "Česká Proseč",
    "region": "Královéhradecký kraj",
    "short_region": "82",
    "lat": "50.483300",
    "lon": "15.483300"
  },
  {
    "id": "90239",
    "country": "CZ",
    "zipcode": "509 0",
    "name": "Nová Paka",
    "region": "Královéhradecký kraj",
    "short_region": "82",
    "lat": "50.489200",
    "lon": "15.514400"
  },
  {
    "id": "90240",
    "country": "CZ",
    "zipcode": "509 0",
    "name": "Krsmol",
    "region": "Královéhradecký kraj",
    "short_region": "82",
    "lat": "50.500000",
    "lon": "15.450000"
  },
  {
    "id": "90241",
    "country": "CZ",
    "zipcode": "509 0",
    "name": "Heřmanice",
    "region": "Královéhradecký kraj",
    "short_region": "82",
    "lat": "50.483300",
    "lon": "15.516700"
  },
  {
    "id": "90242",
    "country": "CZ",
    "zipcode": "509 0",
    "name": "Vlkov",
    "region": "Královéhradecký kraj",
    "short_region": "82",
    "lat": "50.483300",
    "lon": "15.500000"
  },
  {
    "id": "90243",
    "country": "CZ",
    "zipcode": "509 0",
    "name": "Podlevín",
    "region": "Královéhradecký kraj",
    "short_region": "82",
    "lat": "50.516700",
    "lon": "15.516700"
  },
  {
    "id": "90244",
    "country": "CZ",
    "zipcode": "509 0",
    "name": "Brdo",
    "region": "Královéhradecký kraj",
    "short_region": "82",
    "lat": "50.500000",
    "lon": "15.466700"
  },
  {
    "id": "90245",
    "country": "CZ",
    "zipcode": "512 6",
    "name": "Čímyšl",
    "region": "Královéhradecký kraj",
    "short_region": "82",
    "lat": "50.500000",
    "lon": "15.283300"
  },
  {
    "id": "90246",
    "country": "CZ",
    "zipcode": "512 6",
    "name": "Újezd pod Troskami",
    "region": "Královéhradecký kraj",
    "short_region": "82",
    "lat": "50.500000",
    "lon": "15.266700"
  },
  {
    "id": "90247",
    "country": "CZ",
    "zipcode": "512 6",
    "name": "Semínova Lhota",
    "region": "Královéhradecký kraj",
    "short_region": "82",
    "lat": "50.516700",
    "lon": "15.283300"
  },
  {
    "id": "90248",
    "country": "CZ",
    "zipcode": "512 6",
    "name": "Hrdoňovice",
    "region": "Královéhradecký kraj",
    "short_region": "82",
    "lat": "50.500000",
    "lon": "15.250000"
  },
  {
    "id": "90249",
    "country": "CZ",
    "zipcode": "544 4",
    "name": "Slotov",
    "region": "Královéhradecký kraj",
    "short_region": "82",
    "lat": "50.400000",
    "lon": "15.900000"
  },
  {
    "id": "90250",
    "country": "CZ",
    "zipcode": "547 0",
    "name": "Babí",
    "region": "Královéhradecký kraj",
    "short_region": "82",
    "lat": "50.433300",
    "lon": "16.183300"
  },
  {
    "id": "90251",
    "country": "CZ",
    "zipcode": "547 0",
    "name": "Všeliby",
    "region": "Královéhradecký kraj",
    "short_region": "82",
    "lat": "50.433300",
    "lon": "16.083300"
  },
  {
    "id": "90252",
    "country": "CZ",
    "zipcode": "547 0",
    "name": "Malé Poříčí",
    "region": "Královéhradecký kraj",
    "short_region": "82",
    "lat": "50.450000",
    "lon": "16.200000"
  },
  {
    "id": "90253",
    "country": "CZ",
    "zipcode": "547 0",
    "name": "Pavlišov",
    "region": "Královéhradecký kraj",
    "short_region": "82",
    "lat": "50.450000",
    "lon": "16.166700"
  },
  {
    "id": "90254",
    "country": "CZ",
    "zipcode": "547 0",
    "name": "Kramolna",
    "region": "Královéhradecký kraj",
    "short_region": "82",
    "lat": "50.416700",
    "lon": "16.133300"
  },
  {
    "id": "90255",
    "country": "CZ",
    "zipcode": "547 0",
    "name": "Třtice",
    "region": "Královéhradecký kraj",
    "short_region": "82",
    "lat": "50.418500",
    "lon": "16.155600"
  },
  {
    "id": "90256",
    "country": "CZ",
    "zipcode": "547 0",
    "name": "Borová",
    "region": "Královéhradecký kraj",
    "short_region": "82",
    "lat": "50.383300",
    "lon": "16.250000"
  },
  {
    "id": "90257",
    "country": "CZ",
    "zipcode": "547 0",
    "name": "Lipí",
    "region": "Královéhradecký kraj",
    "short_region": "82",
    "lat": "50.400000",
    "lon": "16.183300"
  },
  {
    "id": "90258",
    "country": "CZ",
    "zipcode": "547 0",
    "name": "Lhotky",
    "region": "Královéhradecký kraj",
    "short_region": "82",
    "lat": "50.416700",
    "lon": "16.116700"
  },
  {
    "id": "90259",
    "country": "CZ",
    "zipcode": "547 0",
    "name": "Bražec",
    "region": "Královéhradecký kraj",
    "short_region": "82",
    "lat": "50.400000",
    "lon": "16.150000"
  },
  {
    "id": "90260",
    "country": "CZ",
    "zipcode": "547 0",
    "name": "Dobrošov",
    "region": "Královéhradecký kraj",
    "short_region": "82",
    "lat": "50.400000",
    "lon": "16.200000"
  },
  {
    "id": "90261",
    "country": "CZ",
    "zipcode": "547 0",
    "name": "Trubějov",
    "region": "Královéhradecký kraj",
    "short_region": "82",
    "lat": "50.433300",
    "lon": "16.116700"
  },
  {
    "id": "90262",
    "country": "CZ",
    "zipcode": "547 0",
    "name": "Bakov",
    "region": "Královéhradecký kraj",
    "short_region": "82",
    "lat": "50.433300",
    "lon": "16.083300"
  },
  {
    "id": "90263",
    "country": "CZ",
    "zipcode": "547 0",
    "name": "Náchod",
    "region": "Královéhradecký kraj",
    "short_region": "82",
    "lat": "50.416700",
    "lon": "16.166700"
  },
  {
    "id": "90264",
    "country": "CZ",
    "zipcode": "547 0",
    "name": "Běloves",
    "region": "Královéhradecký kraj",
    "short_region": "82",
    "lat": "50.416700",
    "lon": "16.200000"
  },
  {
    "id": "90265",
    "country": "CZ",
    "zipcode": "547 0",
    "name": "Jizbice",
    "region": "Královéhradecký kraj",
    "short_region": "82",
    "lat": "50.400000",
    "lon": "16.200000"
  },
  {
    "id": "90266",
    "country": "CZ",
    "zipcode": "547 0",
    "name": "Starkoč",
    "region": "Královéhradecký kraj",
    "short_region": "82",
    "lat": "50.416700",
    "lon": "16.100000"
  },
  {
    "id": "90267",
    "country": "CZ",
    "zipcode": "547 0",
    "name": "Řešetova Lhota",
    "region": "Královéhradecký kraj",
    "short_region": "82",
    "lat": "50.433300",
    "lon": "16.100000"
  },
  {
    "id": "90268",
    "country": "CZ",
    "zipcode": "547 0",
    "name": "Staré Město nad Metují",
    "region": "Královéhradecký kraj",
    "short_region": "82",
    "lat": "50.400000",
    "lon": "16.166700"
  },
  {
    "id": "90269",
    "country": "CZ",
    "zipcode": "549 0",
    "name": "Slavoňov",
    "region": "Královéhradecký kraj",
    "short_region": "82",
    "lat": "50.350000",
    "lon": "16.200000"
  },
  {
    "id": "90270",
    "country": "CZ",
    "zipcode": "549 0",
    "name": "Doubravice",
    "region": "Královéhradecký kraj",
    "short_region": "82",
    "lat": "50.366700",
    "lon": "16.100000"
  },
  {
    "id": "90271",
    "country": "CZ",
    "zipcode": "549 0",
    "name": "Černčice",
    "region": "Královéhradecký kraj",
    "short_region": "82",
    "lat": "50.333300",
    "lon": "16.116700"
  },
  {
    "id": "90272",
    "country": "CZ",
    "zipcode": "549 0",
    "name": "Libchyně",
    "region": "Královéhradecký kraj",
    "short_region": "82",
    "lat": "50.350000",
    "lon": "16.200000"
  },
  {
    "id": "90273",
    "country": "CZ",
    "zipcode": "549 0",
    "name": "Jestřebí",
    "region": "Královéhradecký kraj",
    "short_region": "82",
    "lat": "50.366700",
    "lon": "16.183300"
  },
  {
    "id": "90274",
    "country": "CZ",
    "zipcode": "549 0",
    "name": "Dolsko",
    "region": "Královéhradecký kraj",
    "short_region": "82",
    "lat": "50.333300",
    "lon": "16.066700"
  },
  {
    "id": "90275",
    "country": "CZ",
    "zipcode": "549 0",
    "name": "Vrchoviny",
    "region": "Královéhradecký kraj",
    "short_region": "82",
    "lat": "50.366700",
    "lon": "16.150000"
  },
  {
    "id": "90276",
    "country": "CZ",
    "zipcode": "549 0",
    "name": "Spy",
    "region": "Královéhradecký kraj",
    "short_region": "82",
    "lat": "50.333300",
    "lon": "16.150000"
  },
  {
    "id": "90277",
    "country": "CZ",
    "zipcode": "549 0",
    "name": "Rzy",
    "region": "Královéhradecký kraj",
    "short_region": "82",
    "lat": "50.000000",
    "lon": "16.116700"
  },
  {
    "id": "90278",
    "country": "CZ",
    "zipcode": "549 0",
    "name": "Blažkov",
    "region": "Královéhradecký kraj",
    "short_region": "82",
    "lat": "50.350000",
    "lon": "16.183300"
  },
  {
    "id": "90279",
    "country": "CZ",
    "zipcode": "549 0",
    "name": "Slavětín nad Metují",
    "region": "Královéhradecký kraj",
    "short_region": "82",
    "lat": "50.333300",
    "lon": "16.050000"
  },
  {
    "id": "90280",
    "country": "CZ",
    "zipcode": "549 0",
    "name": "Lhota",
    "region": "Královéhradecký kraj",
    "short_region": "82",
    "lat": "50.366700",
    "lon": "16.083300"
  },
  {
    "id": "90281",
    "country": "CZ",
    "zipcode": "549 0",
    "name": "Nové Město nad Metují",
    "region": "Královéhradecký kraj",
    "short_region": "82",
    "lat": "50.333300",
    "lon": "16.166700"
  },
  {
    "id": "90282",
    "country": "CZ",
    "zipcode": "549 0",
    "name": "Sendraž",
    "region": "Královéhradecký kraj",
    "short_region": "82",
    "lat": "50.366700",
    "lon": "16.200000"
  },
  {
    "id": "90283",
    "country": "CZ",
    "zipcode": "549 0",
    "name": "Vršovka",
    "region": "Královéhradecký kraj",
    "short_region": "82",
    "lat": "50.316700",
    "lon": "16.133300"
  },
  {
    "id": "90284",
    "country": "CZ",
    "zipcode": "549 0",
    "name": "Krčín",
    "region": "Královéhradecký kraj",
    "short_region": "82",
    "lat": "50.350000",
    "lon": "16.116700"
  },
  {
    "id": "90285",
    "country": "CZ",
    "zipcode": "549 0",
    "name": "Dlouhé",
    "region": "Královéhradecký kraj",
    "short_region": "82",
    "lat": "50.366700",
    "lon": "16.266700"
  },
  {
    "id": "90286",
    "country": "CZ",
    "zipcode": "549 0",
    "name": "Přibyslav",
    "region": "Královéhradecký kraj",
    "short_region": "82",
    "lat": "50.366700",
    "lon": "16.166700"
  },
  {
    "id": "90287",
    "country": "CZ",
    "zipcode": "549 0",
    "name": "Bohuslavice",
    "region": "Královéhradecký kraj",
    "short_region": "82",
    "lat": "50.316700",
    "lon": "16.083300"
  },
  {
    "id": "90288",
    "country": "CZ",
    "zipcode": "549 0",
    "name": "Nahořany",
    "region": "Královéhradecký kraj",
    "short_region": "82",
    "lat": "50.350000",
    "lon": "16.083300"
  },
  {
    "id": "90289",
    "country": "CZ",
    "zipcode": "549 0",
    "name": "Provodov-Šonov",
    "region": "Královéhradecký kraj",
    "short_region": "82",
    "lat": "50.383300",
    "lon": "16.116700"
  },
  {
    "id": "90290",
    "country": "CZ",
    "zipcode": "549 0",
    "name": "Provodov",
    "region": "Královéhradecký kraj",
    "short_region": "82",
    "lat": "50.383300",
    "lon": "16.116700"
  },
  {
    "id": "90291",
    "country": "CZ",
    "zipcode": "549 0",
    "name": "Šonov u Nového Města nad Metují",
    "region": "Královéhradecký kraj",
    "short_region": "82",
    "lat": "50.383300",
    "lon": "16.116700"
  },
  {
    "id": "90292",
    "country": "CZ",
    "zipcode": "549 0",
    "name": "Václavice",
    "region": "Královéhradecký kraj",
    "short_region": "82",
    "lat": "50.383300",
    "lon": "16.116700"
  },
  {
    "id": "90293",
    "country": "CZ",
    "zipcode": "549 1",
    "name": "Dolní Radechová",
    "region": "Královéhradecký kraj",
    "short_region": "82",
    "lat": "50.433300",
    "lon": "16.150000"
  },
  {
    "id": "90294",
    "country": "CZ",
    "zipcode": "549 1",
    "name": "Vysokov",
    "region": "Královéhradecký kraj",
    "short_region": "82",
    "lat": "50.416700",
    "lon": "16.133300"
  },
  {
    "id": "90295",
    "country": "CZ",
    "zipcode": "549 2",
    "name": "Česká Čermná",
    "region": "Královéhradecký kraj",
    "short_region": "82",
    "lat": "50.400000",
    "lon": "16.233300"
  },
  {
    "id": "90296",
    "country": "CZ",
    "zipcode": "549 2",
    "name": "Krahulčí",
    "region": "Královéhradecký kraj",
    "short_region": "82",
    "lat": "50.366700",
    "lon": "16.233300"
  },
  {
    "id": "90297",
    "country": "CZ",
    "zipcode": "549 2",
    "name": "Nový Hrádek",
    "region": "Královéhradecký kraj",
    "short_region": "82",
    "lat": "50.350000",
    "lon": "16.266700"
  },
  {
    "id": "90298",
    "country": "CZ",
    "zipcode": "549 2",
    "name": "Mezilesí",
    "region": "Královéhradecký kraj",
    "short_region": "82",
    "lat": "50.350000",
    "lon": "16.216700"
  },
  {
    "id": "90299",
    "country": "CZ",
    "zipcode": "549 3",
    "name": "Vysoká Srbská",
    "region": "Královéhradecký kraj",
    "short_region": "82",
    "lat": "50.483300",
    "lon": "16.233300"
  },
  {
    "id": "90300",
    "country": "CZ",
    "zipcode": "549 3",
    "name": "Zlíčko",
    "region": "Královéhradecký kraj",
    "short_region": "82",
    "lat": "50.483300",
    "lon": "16.233300"
  },
  {
    "id": "90301",
    "country": "CZ",
    "zipcode": "549 3",
    "name": "Závrchy",
    "region": "Královéhradecký kraj",
    "short_region": "82",
    "lat": "50.483300",
    "lon": "16.250000"
  },
  {
    "id": "90302",
    "country": "CZ",
    "zipcode": "549 3",
    "name": "Zbečník",
    "region": "Královéhradecký kraj",
    "short_region": "82",
    "lat": "50.483300",
    "lon": "16.166700"
  },
  {
    "id": "90303",
    "country": "CZ",
    "zipcode": "549 3",
    "name": "Bělý",
    "region": "Královéhradecký kraj",
    "short_region": "82",
    "lat": "50.516700",
    "lon": "16.283300"
  },
  {
    "id": "90304",
    "country": "CZ",
    "zipcode": "549 3",
    "name": "Maršov nad Metují",
    "region": "Královéhradecký kraj",
    "short_region": "82",
    "lat": "50.533300",
    "lon": "16.200000"
  },
  {
    "id": "90305",
    "country": "CZ",
    "zipcode": "549 3",
    "name": "Bystré",
    "region": "Královéhradecký kraj",
    "short_region": "82",
    "lat": "50.516700",
    "lon": "16.150000"
  },
  {
    "id": "90306",
    "country": "CZ",
    "zipcode": "549 3",
    "name": "Vlásenka",
    "region": "Královéhradecký kraj",
    "short_region": "82",
    "lat": "50.503300",
    "lon": "16.198900"
  },
  {
    "id": "90307",
    "country": "CZ",
    "zipcode": "549 3",
    "name": "Chlívce",
    "region": "Královéhradecký kraj",
    "short_region": "82",
    "lat": "50.516700",
    "lon": "16.116700"
  },
  {
    "id": "90308",
    "country": "CZ",
    "zipcode": "549 3",
    "name": "Hronov",
    "region": "Královéhradecký kraj",
    "short_region": "82",
    "lat": "50.483300",
    "lon": "16.183300"
  },
  {
    "id": "90309",
    "country": "CZ",
    "zipcode": "549 3",
    "name": "Žabokrky",
    "region": "Královéhradecký kraj",
    "short_region": "82",
    "lat": "50.500000",
    "lon": "16.200000"
  },
  {
    "id": "90310",
    "country": "CZ",
    "zipcode": "549 3",
    "name": "Malá Čermná",
    "region": "Královéhradecký kraj",
    "short_region": "82",
    "lat": "50.450000",
    "lon": "16.233300"
  },
  {
    "id": "90311",
    "country": "CZ",
    "zipcode": "549 3",
    "name": "Vápenka",
    "region": "Královéhradecký kraj",
    "short_region": "82",
    "lat": "50.550000",
    "lon": "16.133300"
  },
  {
    "id": "90312",
    "country": "CZ",
    "zipcode": "549 3",
    "name": "Skalka",
    "region": "Královéhradecký kraj",
    "short_region": "82",
    "lat": "50.550000",
    "lon": "16.166700"
  },
  {
    "id": "90313",
    "country": "CZ",
    "zipcode": "549 3",
    "name": "Machovská Lhota",
    "region": "Královéhradecký kraj",
    "short_region": "82",
    "lat": "50.500000",
    "lon": "16.283300"
  },
  {
    "id": "90314",
    "country": "CZ",
    "zipcode": "549 3",
    "name": "Rokytník",
    "region": "Královéhradecký kraj",
    "short_region": "82",
    "lat": "50.500000",
    "lon": "16.150000"
  },
  {
    "id": "90315",
    "country": "CZ",
    "zipcode": "549 3",
    "name": "Velké Poříčí",
    "region": "Královéhradecký kraj",
    "short_region": "82",
    "lat": "50.466700",
    "lon": "16.183300"
  },
  {
    "id": "90316",
    "country": "CZ",
    "zipcode": "549 3",
    "name": "Velký Dřevíč",
    "region": "Královéhradecký kraj",
    "short_region": "82",
    "lat": "50.500000",
    "lon": "16.183300"
  },
  {
    "id": "90317",
    "country": "CZ",
    "zipcode": "549 3",
    "name": "Stárkov",
    "region": "Královéhradecký kraj",
    "short_region": "82",
    "lat": "50.533300",
    "lon": "16.166700"
  },
  {
    "id": "90318",
    "country": "CZ",
    "zipcode": "549 3",
    "name": "Horní Dřevíč",
    "region": "Královéhradecký kraj",
    "short_region": "82",
    "lat": "50.533300",
    "lon": "16.166700"
  },
  {
    "id": "90319",
    "country": "CZ",
    "zipcode": "549 3",
    "name": "Žďárky",
    "region": "Královéhradecký kraj",
    "short_region": "82",
    "lat": "50.466700",
    "lon": "16.233300"
  },
  {
    "id": "90320",
    "country": "CZ",
    "zipcode": "549 4",
    "name": "Horní Kostelec",
    "region": "Královéhradecký kraj",
    "short_region": "82",
    "lat": "50.483300",
    "lon": "16.116700"
  },
  {
    "id": "90321",
    "country": "CZ",
    "zipcode": "549 4",
    "name": "Stolín",
    "region": "Královéhradecký kraj",
    "short_region": "82",
    "lat": "50.466700",
    "lon": "16.066700"
  },
  {
    "id": "90322",
    "country": "CZ",
    "zipcode": "549 4",
    "name": "Červený Kostelec",
    "region": "Královéhradecký kraj",
    "short_region": "82",
    "lat": "50.483300",
    "lon": "16.100000"
  },
  {
    "id": "90323",
    "country": "CZ",
    "zipcode": "549 4",
    "name": "Bohdašín",
    "region": "Královéhradecký kraj",
    "short_region": "82",
    "lat": "50.500000",
    "lon": "16.116700"
  },
  {
    "id": "90324",
    "country": "CZ",
    "zipcode": "549 4",
    "name": "Olešnice",
    "region": "Královéhradecký kraj",
    "short_region": "82",
    "lat": "50.450000",
    "lon": "16.083300"
  },
  {
    "id": "90325",
    "country": "CZ",
    "zipcode": "549 4",
    "name": "Lhota za Červeným Kostelcem",
    "region": "Královéhradecký kraj",
    "short_region": "82",
    "lat": "50.483300",
    "lon": "16.083300"
  },
  {
    "id": "90326",
    "country": "CZ",
    "zipcode": "549 4",
    "name": "Červená Hora",
    "region": "Královéhradecký kraj",
    "short_region": "82",
    "lat": "50.450000",
    "lon": "16.066700"
  },
  {
    "id": "90327",
    "country": "CZ",
    "zipcode": "549 4",
    "name": "Zábrodí",
    "region": "Královéhradecký kraj",
    "short_region": "82",
    "lat": "50.450000",
    "lon": "16.116700"
  },
  {
    "id": "90328",
    "country": "CZ",
    "zipcode": "549 4",
    "name": "Mstětín",
    "region": "Královéhradecký kraj",
    "short_region": "82",
    "lat": "50.466700",
    "lon": "16.066700"
  },
  {
    "id": "90329",
    "country": "CZ",
    "zipcode": "549 4",
    "name": "Horní Rybníky",
    "region": "Královéhradecký kraj",
    "short_region": "82",
    "lat": "50.450000",
    "lon": "16.133300"
  },
  {
    "id": "90330",
    "country": "CZ",
    "zipcode": "549 4",
    "name": "Horní Radechová",
    "region": "Královéhradecký kraj",
    "short_region": "82",
    "lat": "50.466700",
    "lon": "16.150000"
  },
  {
    "id": "90331",
    "country": "CZ",
    "zipcode": "549 4",
    "name": "Končiny",
    "region": "Královéhradecký kraj",
    "short_region": "82",
    "lat": "50.466700",
    "lon": "16.033300"
  },
  {
    "id": "90332",
    "country": "CZ",
    "zipcode": "549 4",
    "name": "Slavíkov",
    "region": "Královéhradecký kraj",
    "short_region": "82",
    "lat": "50.466700",
    "lon": "16.150000"
  },
  {
    "id": "90333",
    "country": "CZ",
    "zipcode": "549 4",
    "name": "Slatina nad Úpou",
    "region": "Královéhradecký kraj",
    "short_region": "82",
    "lat": "50.450000",
    "lon": "16.033300"
  },
  {
    "id": "90334",
    "country": "CZ",
    "zipcode": "549 4",
    "name": "Studnice",
    "region": "Královéhradecký kraj",
    "short_region": "82",
    "lat": "50.416700",
    "lon": "16.083300"
  },
  {
    "id": "90335",
    "country": "CZ",
    "zipcode": "549 5",
    "name": "Horní Adršpach",
    "region": "Královéhradecký kraj",
    "short_region": "82",
    "lat": "50.616700",
    "lon": "16.100000"
  },
  {
    "id": "90336",
    "country": "CZ",
    "zipcode": "549 5",
    "name": "Pěkov",
    "region": "Královéhradecký kraj",
    "short_region": "82",
    "lat": "50.566700",
    "lon": "16.233300"
  },
  {
    "id": "90337",
    "country": "CZ",
    "zipcode": "549 5",
    "name": "Petrovice",
    "region": "Královéhradecký kraj",
    "short_region": "82",
    "lat": "50.516700",
    "lon": "16.216700"
  },
  {
    "id": "90338",
    "country": "CZ",
    "zipcode": "549 5",
    "name": "Slavný",
    "region": "Královéhradecký kraj",
    "short_region": "82",
    "lat": "50.533300",
    "lon": "16.283300"
  },
  {
    "id": "90339",
    "country": "CZ",
    "zipcode": "549 5",
    "name": "Velká Ledhuje",
    "region": "Královéhradecký kraj",
    "short_region": "82",
    "lat": "50.533300",
    "lon": "16.266700"
  },
  {
    "id": "90340",
    "country": "CZ",
    "zipcode": "549 5",
    "name": "Police nad Metují",
    "region": "Královéhradecký kraj",
    "short_region": "82",
    "lat": "50.533300",
    "lon": "16.233300"
  },
  {
    "id": "90341",
    "country": "CZ",
    "zipcode": "549 5",
    "name": "Bukovice",
    "region": "Královéhradecký kraj",
    "short_region": "82",
    "lat": "50.550000",
    "lon": "16.233300"
  },
  {
    "id": "90342",
    "country": "CZ",
    "zipcode": "549 5",
    "name": "Petrovičky",
    "region": "Královéhradecký kraj",
    "short_region": "82",
    "lat": "50.516700",
    "lon": "16.200000"
  },
  {
    "id": "90343",
    "country": "CZ",
    "zipcode": "549 5",
    "name": "Hlavňov",
    "region": "Královéhradecký kraj",
    "short_region": "82",
    "lat": "50.566700",
    "lon": "16.250000"
  },
  {
    "id": "90344",
    "country": "CZ",
    "zipcode": "549 5",
    "name": "Velké Petrovice-Petrovičky",
    "region": "Královéhradecký kraj",
    "short_region": "82",
    "lat": "50.543300",
    "lon": "16.240000"
  },
  {
    "id": "90345",
    "country": "CZ",
    "zipcode": "549 5",
    "name": "Velké Petrovice-Petrovice",
    "region": "Královéhradecký kraj",
    "short_region": "82",
    "lat": "50.543300",
    "lon": "16.240000"
  },
  {
    "id": "90346",
    "country": "CZ",
    "zipcode": "549 5",
    "name": "Hony",
    "region": "Královéhradecký kraj",
    "short_region": "82",
    "lat": "50.583300",
    "lon": "16.250000"
  },
  {
    "id": "90347",
    "country": "CZ",
    "zipcode": "549 5",
    "name": "Radešov",
    "region": "Královéhradecký kraj",
    "short_region": "82",
    "lat": "50.533300",
    "lon": "16.233300"
  },
  {
    "id": "90348",
    "country": "CZ",
    "zipcode": "549 5",
    "name": "Žďár nad Metují",
    "region": "Královéhradecký kraj",
    "short_region": "82",
    "lat": "50.568900",
    "lon": "16.198500"
  },
  {
    "id": "90349",
    "country": "CZ",
    "zipcode": "549 5",
    "name": "Velké Petrovice-Maršov nad Metují",
    "region": "Královéhradecký kraj",
    "short_region": "82",
    "lat": "50.568900",
    "lon": "16.198500"
  },
  {
    "id": "90350",
    "country": "CZ",
    "zipcode": "549 5",
    "name": "Česká Metuje",
    "region": "Královéhradecký kraj",
    "short_region": "82",
    "lat": "50.550000",
    "lon": "16.183300"
  },
  {
    "id": "90351",
    "country": "CZ",
    "zipcode": "549 5",
    "name": "Teplice nad Metují",
    "region": "Královéhradecký kraj",
    "short_region": "82",
    "lat": "50.600000",
    "lon": "16.183300"
  },
  {
    "id": "90352",
    "country": "CZ",
    "zipcode": "549 5",
    "name": "Javor",
    "region": "Královéhradecký kraj",
    "short_region": "82",
    "lat": "50.566700",
    "lon": "16.183300"
  },
  {
    "id": "90353",
    "country": "CZ",
    "zipcode": "549 5",
    "name": "Dolní Teplice",
    "region": "Královéhradecký kraj",
    "short_region": "82",
    "lat": "50.583300",
    "lon": "16.166700"
  },
  {
    "id": "90354",
    "country": "CZ",
    "zipcode": "549 5",
    "name": "Lachov",
    "region": "Královéhradecký kraj",
    "short_region": "82",
    "lat": "50.583300",
    "lon": "16.200000"
  },
  {
    "id": "90355",
    "country": "CZ",
    "zipcode": "549 5",
    "name": "Skály",
    "region": "Královéhradecký kraj",
    "short_region": "82",
    "lat": "50.566700",
    "lon": "16.133300"
  },
  {
    "id": "90356",
    "country": "CZ",
    "zipcode": "549 5",
    "name": "Horní Teplice",
    "region": "Královéhradecký kraj",
    "short_region": "82",
    "lat": "50.600000",
    "lon": "16.166700"
  },
  {
    "id": "90357",
    "country": "CZ",
    "zipcode": "549 5",
    "name": "Zdoňov",
    "region": "Královéhradecký kraj",
    "short_region": "82",
    "lat": "50.633300",
    "lon": "16.166700"
  },
  {
    "id": "90358",
    "country": "CZ",
    "zipcode": "549 5",
    "name": "Bohdašín",
    "region": "Královéhradecký kraj",
    "short_region": "82",
    "lat": "50.600000",
    "lon": "16.200000"
  },
  {
    "id": "90359",
    "country": "CZ",
    "zipcode": "549 5",
    "name": "Dolní Adršpach",
    "region": "Královéhradecký kraj",
    "short_region": "82",
    "lat": "50.616700",
    "lon": "16.100000"
  },
  {
    "id": "90360",
    "country": "CZ",
    "zipcode": "549 5",
    "name": "Dědov",
    "region": "Královéhradecký kraj",
    "short_region": "82",
    "lat": "50.566700",
    "lon": "16.183300"
  },
  {
    "id": "90361",
    "country": "CZ",
    "zipcode": "549 6",
    "name": "Suchý Důl",
    "region": "Královéhradecký kraj",
    "short_region": "82",
    "lat": "50.550000",
    "lon": "16.266700"
  },
  {
    "id": "90362",
    "country": "CZ",
    "zipcode": "549 6",
    "name": "Nízká Srbská",
    "region": "Královéhradecký kraj",
    "short_region": "82",
    "lat": "50.500000",
    "lon": "16.250000"
  },
  {
    "id": "90363",
    "country": "CZ",
    "zipcode": "549 6",
    "name": "Machov",
    "region": "Královéhradecký kraj",
    "short_region": "82",
    "lat": "50.500000",
    "lon": "16.266700"
  },
  {
    "id": "90364",
    "country": "CZ",
    "zipcode": "549 6",
    "name": "Bezděkov nad Metují",
    "region": "Královéhradecký kraj",
    "short_region": "82",
    "lat": "50.516700",
    "lon": "16.233300"
  },
  {
    "id": "90365",
    "country": "CZ",
    "zipcode": "549 7",
    "name": "Šonov",
    "region": "Královéhradecký kraj",
    "short_region": "82",
    "lat": "50.383300",
    "lon": "16.116700"
  },
  {
    "id": "90366",
    "country": "CZ",
    "zipcode": "549 7",
    "name": "Otovice",
    "region": "Královéhradecký kraj",
    "short_region": "82",
    "lat": "50.566700",
    "lon": "16.400000"
  },
  {
    "id": "90367",
    "country": "CZ",
    "zipcode": "549 7",
    "name": "Martínkovice",
    "region": "Královéhradecký kraj",
    "short_region": "82",
    "lat": "50.550000",
    "lon": "16.350000"
  },
  {
    "id": "90368",
    "country": "CZ",
    "zipcode": "549 7",
    "name": "Božanov",
    "region": "Královéhradecký kraj",
    "short_region": "82",
    "lat": "50.516700",
    "lon": "16.366700"
  },
  {
    "id": "90369",
    "country": "CZ",
    "zipcode": "549 7",
    "name": "Studená Voda",
    "region": "Královéhradecký kraj",
    "short_region": "82",
    "lat": "50.516700",
    "lon": "16.366700"
  },
  {
    "id": "90370",
    "country": "CZ",
    "zipcode": "549 8",
    "name": "Pomeznice",
    "region": "Královéhradecký kraj",
    "short_region": "82",
    "lat": "50.650000",
    "lon": "16.250000"
  },
  {
    "id": "90371",
    "country": "CZ",
    "zipcode": "549 8",
    "name": "Meziměstí",
    "region": "Královéhradecký kraj",
    "short_region": "82",
    "lat": "50.616700",
    "lon": "16.250000"
  },
  {
    "id": "90372",
    "country": "CZ",
    "zipcode": "549 8",
    "name": "Vernéřovice",
    "region": "Královéhradecký kraj",
    "short_region": "82",
    "lat": "50.616700",
    "lon": "16.216700"
  },
  {
    "id": "90373",
    "country": "CZ",
    "zipcode": "549 8",
    "name": "Ruprechtice",
    "region": "Královéhradecký kraj",
    "short_region": "82",
    "lat": "50.633300",
    "lon": "16.266700"
  },
  {
    "id": "90374",
    "country": "CZ",
    "zipcode": "549 8",
    "name": "Vižňov",
    "region": "Královéhradecký kraj",
    "short_region": "82",
    "lat": "50.650000",
    "lon": "16.233300"
  },
  {
    "id": "90375",
    "country": "CZ",
    "zipcode": "549 8",
    "name": "Hynčice",
    "region": "Královéhradecký kraj",
    "short_region": "82",
    "lat": "50.616700",
    "lon": "16.283300"
  },
  {
    "id": "90376",
    "country": "CZ",
    "zipcode": "549 8",
    "name": "Starostín",
    "region": "Královéhradecký kraj",
    "short_region": "82",
    "lat": "50.633300",
    "lon": "16.233300"
  },
  {
    "id": "90377",
    "country": "CZ",
    "zipcode": "549 8",
    "name": "Jetřichov",
    "region": "Královéhradecký kraj",
    "short_region": "82",
    "lat": "50.600000",
    "lon": "16.266700"
  },
  {
    "id": "90378",
    "country": "CZ",
    "zipcode": "549 8",
    "name": "Březová",
    "region": "Královéhradecký kraj",
    "short_region": "82",
    "lat": "50.616700",
    "lon": "16.233300"
  },
  {
    "id": "90379",
    "country": "CZ",
    "zipcode": "549 8",
    "name": "Heřmánkovice",
    "region": "Královéhradecký kraj",
    "short_region": "82",
    "lat": "50.633300",
    "lon": "16.333300"
  },
  {
    "id": "90380",
    "country": "CZ",
    "zipcode": "550 0",
    "name": "Benešov",
    "region": "Královéhradecký kraj",
    "short_region": "82",
    "lat": "50.616700",
    "lon": "16.350000"
  },
  {
    "id": "90381",
    "country": "CZ",
    "zipcode": "550 0",
    "name": "Nové Město",
    "region": "Královéhradecký kraj",
    "short_region": "82",
    "lat": "50.150000",
    "lon": "15.500000"
  },
  {
    "id": "90382",
    "country": "CZ",
    "zipcode": "550 0",
    "name": "Olivětín",
    "region": "Královéhradecký kraj",
    "short_region": "82",
    "lat": "50.546300",
    "lon": "16.207400"
  },
  {
    "id": "90383",
    "country": "CZ",
    "zipcode": "550 0",
    "name": "Poříčí",
    "region": "Královéhradecký kraj",
    "short_region": "82",
    "lat": "50.583300",
    "lon": "15.966700"
  },
  {
    "id": "90384",
    "country": "CZ",
    "zipcode": "550 0",
    "name": "Broumov",
    "region": "Královéhradecký kraj",
    "short_region": "82",
    "lat": "50.583300",
    "lon": "16.333300"
  },
  {
    "id": "90385",
    "country": "CZ",
    "zipcode": "550 0",
    "name": "Janovičky",
    "region": "Královéhradecký kraj",
    "short_region": "82",
    "lat": "50.633300",
    "lon": "16.366700"
  },
  {
    "id": "90386",
    "country": "CZ",
    "zipcode": "550 0",
    "name": "Hejtmánkovice",
    "region": "Královéhradecký kraj",
    "short_region": "82",
    "lat": "50.600000",
    "lon": "16.300000"
  },
  {
    "id": "90387",
    "country": "CZ",
    "zipcode": "550 0",
    "name": "Rožmitál",
    "region": "Královéhradecký kraj",
    "short_region": "82",
    "lat": "50.600000",
    "lon": "16.383300"
  },
  {
    "id": "90388",
    "country": "CZ",
    "zipcode": "550 0",
    "name": "Velká Ves",
    "region": "Královéhradecký kraj",
    "short_region": "82",
    "lat": "50.583300",
    "lon": "16.350000"
  },
  {
    "id": "90389",
    "country": "CZ",
    "zipcode": "550 0",
    "name": "Kolonie 5.května",
    "region": "Královéhradecký kraj",
    "short_region": "82",
    "lat": "50.546300",
    "lon": "16.207400"
  },
  {
    "id": "90390",
    "country": "CZ",
    "zipcode": "550 0",
    "name": "Křinice",
    "region": "Královéhradecký kraj",
    "short_region": "82",
    "lat": "50.566700",
    "lon": "16.316700"
  },
  {
    "id": "90391",
    "country": "CZ",
    "zipcode": "551 0",
    "name": "Semonice",
    "region": "Královéhradecký kraj",
    "short_region": "82",
    "lat": "50.333300",
    "lon": "15.883300"
  },
  {
    "id": "90392",
    "country": "CZ",
    "zipcode": "551 0",
    "name": "Městec",
    "region": "Královéhradecký kraj",
    "short_region": "82",
    "lat": "50.350000",
    "lon": "16.050000"
  },
  {
    "id": "90393",
    "country": "CZ",
    "zipcode": "551 0",
    "name": "Hořenice",
    "region": "Královéhradecký kraj",
    "short_region": "82",
    "lat": "50.366700",
    "lon": "15.916700"
  },
  {
    "id": "90394",
    "country": "CZ",
    "zipcode": "551 0",
    "name": "Jezbiny",
    "region": "Královéhradecký kraj",
    "short_region": "82",
    "lat": "50.333300",
    "lon": "15.900000"
  },
  {
    "id": "90395",
    "country": "CZ",
    "zipcode": "551 0",
    "name": "Vestec",
    "region": "Královéhradecký kraj",
    "short_region": "82",
    "lat": "50.366700",
    "lon": "15.883300"
  },
  {
    "id": "90396",
    "country": "CZ",
    "zipcode": "551 0",
    "name": "Roztoky",
    "region": "Královéhradecký kraj",
    "short_region": "82",
    "lat": "50.333300",
    "lon": "16.050000"
  },
  {
    "id": "90397",
    "country": "CZ",
    "zipcode": "551 0",
    "name": "Vlkov",
    "region": "Královéhradecký kraj",
    "short_region": "82",
    "lat": "50.316700",
    "lon": "15.900000"
  },
  {
    "id": "90398",
    "country": "CZ",
    "zipcode": "551 0",
    "name": "Cihelny",
    "region": "Královéhradecký kraj",
    "short_region": "82",
    "lat": "50.344200",
    "lon": "15.940300"
  },
  {
    "id": "90399",
    "country": "CZ",
    "zipcode": "551 0",
    "name": "Dolní Ples t. Vodní Ples",
    "region": "Královéhradecký kraj",
    "short_region": "82",
    "lat": "50.344200",
    "lon": "15.940300"
  },
  {
    "id": "90400",
    "country": "CZ",
    "zipcode": "551 0",
    "name": "Dolní Dolce",
    "region": "Královéhradecký kraj",
    "short_region": "82",
    "lat": "50.344200",
    "lon": "15.940300"
  },
  {
    "id": "90401",
    "country": "CZ",
    "zipcode": "551 0",
    "name": "Veselice",
    "region": "Královéhradecký kraj",
    "short_region": "82",
    "lat": "50.350000",
    "lon": "16.033300"
  },
  {
    "id": "90402",
    "country": "CZ",
    "zipcode": "551 0",
    "name": "Neznášov",
    "region": "Královéhradecký kraj",
    "short_region": "82",
    "lat": "50.333300",
    "lon": "15.850000"
  },
  {
    "id": "90403",
    "country": "CZ",
    "zipcode": "551 0",
    "name": "Zaloňov",
    "region": "Královéhradecký kraj",
    "short_region": "82",
    "lat": "50.383300",
    "lon": "15.883300"
  },
  {
    "id": "90404",
    "country": "CZ",
    "zipcode": "551 0",
    "name": "Jaroměř",
    "region": "Královéhradecký kraj",
    "short_region": "82",
    "lat": "50.351100",
    "lon": "15.919200"
  },
  {
    "id": "90405",
    "country": "CZ",
    "zipcode": "551 0",
    "name": "Vodní Ples-Dolní Ples",
    "region": "Královéhradecký kraj",
    "short_region": "82",
    "lat": "50.344200",
    "lon": "15.940300"
  },
  {
    "id": "90406",
    "country": "CZ",
    "zipcode": "551 0",
    "name": "Jakubské Předměstí",
    "region": "Královéhradecký kraj",
    "short_region": "82",
    "lat": "50.344200",
    "lon": "15.940300"
  },
  {
    "id": "90407",
    "country": "CZ",
    "zipcode": "551 0",
    "name": "Volovka",
    "region": "Královéhradecký kraj",
    "short_region": "82",
    "lat": "50.350000",
    "lon": "16.016700"
  },
  {
    "id": "90408",
    "country": "CZ",
    "zipcode": "551 0",
    "name": "Rožnov",
    "region": "Královéhradecký kraj",
    "short_region": "82",
    "lat": "50.333300",
    "lon": "15.866700"
  },
  {
    "id": "90409",
    "country": "CZ",
    "zipcode": "551 0",
    "name": "Pražské Předměstí",
    "region": "Královéhradecký kraj",
    "short_region": "82",
    "lat": "50.344200",
    "lon": "15.940300"
  },
  {
    "id": "90410",
    "country": "CZ",
    "zipcode": "551 0",
    "name": "Horní Dolce",
    "region": "Královéhradecký kraj",
    "short_region": "82",
    "lat": "50.344200",
    "lon": "15.940300"
  },
  {
    "id": "90411",
    "country": "CZ",
    "zipcode": "551 0",
    "name": "Nový Ples",
    "region": "Královéhradecký kraj",
    "short_region": "82",
    "lat": "50.316700",
    "lon": "15.950000"
  },
  {
    "id": "90412",
    "country": "CZ",
    "zipcode": "551 0",
    "name": "Rtyně",
    "region": "Královéhradecký kraj",
    "short_region": "82",
    "lat": "50.366700",
    "lon": "15.883300"
  },
  {
    "id": "90413",
    "country": "CZ",
    "zipcode": "551 0",
    "name": "Starý Ples",
    "region": "Královéhradecký kraj",
    "short_region": "82",
    "lat": "50.333300",
    "lon": "15.983300"
  },
  {
    "id": "90414",
    "country": "CZ",
    "zipcode": "551 0",
    "name": "Šestajovice",
    "region": "Královéhradecký kraj",
    "short_region": "82",
    "lat": "50.333300",
    "lon": "16.016700"
  },
  {
    "id": "90415",
    "country": "CZ",
    "zipcode": "551 0",
    "name": "Josefov",
    "region": "Královéhradecký kraj",
    "short_region": "82",
    "lat": "50.333300",
    "lon": "15.916700"
  },
  {
    "id": "90416",
    "country": "CZ",
    "zipcode": "552 0",
    "name": "Čáslavky",
    "region": "Královéhradecký kraj",
    "short_region": "82",
    "lat": "50.383300",
    "lon": "15.950000"
  },
  {
    "id": "90417",
    "country": "CZ",
    "zipcode": "552 0",
    "name": "Dolany",
    "region": "Královéhradecký kraj",
    "short_region": "82",
    "lat": "50.383300",
    "lon": "15.950000"
  },
  {
    "id": "90418",
    "country": "CZ",
    "zipcode": "552 0",
    "name": "Velký Třebešov",
    "region": "Královéhradecký kraj",
    "short_region": "82",
    "lat": "50.400000",
    "lon": "16.000000"
  },
  {
    "id": "90419",
    "country": "CZ",
    "zipcode": "552 0",
    "name": "Zblov",
    "region": "Královéhradecký kraj",
    "short_region": "82",
    "lat": "50.416700",
    "lon": "16.083300"
  },
  {
    "id": "90420",
    "country": "CZ",
    "zipcode": "552 0",
    "name": "Šeřeč",
    "region": "Královéhradecký kraj",
    "short_region": "82",
    "lat": "50.383300",
    "lon": "16.083300"
  },
  {
    "id": "90421",
    "country": "CZ",
    "zipcode": "552 0",
    "name": "Zájezd",
    "region": "Královéhradecký kraj",
    "short_region": "82",
    "lat": "50.400000",
    "lon": "16.033300"
  },
  {
    "id": "90422",
    "country": "CZ",
    "zipcode": "552 0",
    "name": "Zlíč",
    "region": "Královéhradecký kraj",
    "short_region": "82",
    "lat": "50.416700",
    "lon": "16.066700"
  },
  {
    "id": "90423",
    "country": "CZ",
    "zipcode": "552 0",
    "name": "Spyta",
    "region": "Královéhradecký kraj",
    "short_region": "82",
    "lat": "50.383300",
    "lon": "16.050000"
  },
  {
    "id": "90424",
    "country": "CZ",
    "zipcode": "552 0",
    "name": "Doubravice u České Skalice",
    "region": "Královéhradecký kraj",
    "short_region": "82",
    "lat": "50.383300",
    "lon": "16.000000"
  },
  {
    "id": "90425",
    "country": "CZ",
    "zipcode": "552 0",
    "name": "Ratibořice",
    "region": "Královéhradecký kraj",
    "short_region": "82",
    "lat": "50.401700",
    "lon": "16.055000"
  },
  {
    "id": "90426",
    "country": "CZ",
    "zipcode": "552 0",
    "name": "Rýzmburk",
    "region": "Královéhradecký kraj",
    "short_region": "82",
    "lat": "50.401700",
    "lon": "16.055000"
  },
  {
    "id": "90427",
    "country": "CZ",
    "zipcode": "552 0",
    "name": "Říkov",
    "region": "Královéhradecký kraj",
    "short_region": "82",
    "lat": "50.401700",
    "lon": "16.055000"
  },
  {
    "id": "90428",
    "country": "CZ",
    "zipcode": "552 0",
    "name": "Malá Skalice",
    "region": "Královéhradecký kraj",
    "short_region": "82",
    "lat": "50.400000",
    "lon": "16.033300"
  },
  {
    "id": "90429",
    "country": "CZ",
    "zipcode": "552 0",
    "name": "Kleny",
    "region": "Královéhradecký kraj",
    "short_region": "82",
    "lat": "50.400000",
    "lon": "16.083300"
  },
  {
    "id": "90430",
    "country": "CZ",
    "zipcode": "552 0",
    "name": "Česká Skalice",
    "region": "Královéhradecký kraj",
    "short_region": "82",
    "lat": "50.400000",
    "lon": "16.050000"
  },
  {
    "id": "90431",
    "country": "CZ",
    "zipcode": "552 0",
    "name": "Žernov",
    "region": "Královéhradecký kraj",
    "short_region": "82",
    "lat": "50.433300",
    "lon": "16.066700"
  },
  {
    "id": "90432",
    "country": "CZ",
    "zipcode": "552 0",
    "name": "Malá Bukovina",
    "region": "Královéhradecký kraj",
    "short_region": "82",
    "lat": "50.416700",
    "lon": "15.966700"
  },
  {
    "id": "90433",
    "country": "CZ",
    "zipcode": "552 0",
    "name": "Velká Bukovina",
    "region": "Královéhradecký kraj",
    "short_region": "82",
    "lat": "50.416700",
    "lon": "15.950000"
  },
  {
    "id": "90434",
    "country": "CZ",
    "zipcode": "552 0",
    "name": "Krabčice",
    "region": "Královéhradecký kraj",
    "short_region": "82",
    "lat": "50.400000",
    "lon": "15.950000"
  },
  {
    "id": "90435",
    "country": "CZ",
    "zipcode": "552 0",
    "name": "Svinišťany",
    "region": "Královéhradecký kraj",
    "short_region": "82",
    "lat": "50.400000",
    "lon": "15.983300"
  },
  {
    "id": "90436",
    "country": "CZ",
    "zipcode": "552 0",
    "name": "Chvalkovice",
    "region": "Královéhradecký kraj",
    "short_region": "82",
    "lat": "50.416700",
    "lon": "15.983300"
  },
  {
    "id": "90437",
    "country": "CZ",
    "zipcode": "552 0",
    "name": "Výhled",
    "region": "Královéhradecký kraj",
    "short_region": "82",
    "lat": "50.413000",
    "lon": "15.968500"
  },
  {
    "id": "90438",
    "country": "CZ",
    "zipcode": "552 0",
    "name": "Střeziměřice",
    "region": "Královéhradecký kraj",
    "short_region": "82",
    "lat": "50.416700",
    "lon": "15.966700"
  },
  {
    "id": "90439",
    "country": "CZ",
    "zipcode": "552 0",
    "name": "Miskolezy",
    "region": "Královéhradecký kraj",
    "short_region": "82",
    "lat": "50.416700",
    "lon": "16.000000"
  },
  {
    "id": "90440",
    "country": "CZ",
    "zipcode": "552 0",
    "name": "Sebuč",
    "region": "Královéhradecký kraj",
    "short_region": "82",
    "lat": "50.400000",
    "lon": "15.966700"
  },
  {
    "id": "90441",
    "country": "CZ",
    "zipcode": "552 0",
    "name": "Kopaniny",
    "region": "Královéhradecký kraj",
    "short_region": "82",
    "lat": "50.433300",
    "lon": "15.950000"
  },
  {
    "id": "90442",
    "country": "CZ",
    "zipcode": "552 0",
    "name": "Brzice",
    "region": "Královéhradecký kraj",
    "short_region": "82",
    "lat": "50.450000",
    "lon": "15.966700"
  },
  {
    "id": "90443",
    "country": "CZ",
    "zipcode": "552 0",
    "name": "Posadov",
    "region": "Královéhradecký kraj",
    "short_region": "82",
    "lat": "50.466700",
    "lon": "15.983300"
  },
  {
    "id": "90444",
    "country": "CZ",
    "zipcode": "552 0",
    "name": "Komárov",
    "region": "Královéhradecký kraj",
    "short_region": "82",
    "lat": "50.466700",
    "lon": "15.816700"
  },
  {
    "id": "90445",
    "country": "CZ",
    "zipcode": "552 0",
    "name": "Chlístov",
    "region": "Královéhradecký kraj",
    "short_region": "82",
    "lat": "50.450000",
    "lon": "15.983300"
  },
  {
    "id": "90446",
    "country": "CZ",
    "zipcode": "552 0",
    "name": "Větrník",
    "region": "Královéhradecký kraj",
    "short_region": "82",
    "lat": "50.443100",
    "lon": "15.996100"
  },
  {
    "id": "90447",
    "country": "CZ",
    "zipcode": "552 0",
    "name": "Hostinka",
    "region": "Královéhradecký kraj",
    "short_region": "82",
    "lat": "50.433300",
    "lon": "16.016700"
  },
  {
    "id": "90448",
    "country": "CZ",
    "zipcode": "552 0",
    "name": "Vestec",
    "region": "Královéhradecký kraj",
    "short_region": "82",
    "lat": "50.366700",
    "lon": "15.883300"
  },
  {
    "id": "90449",
    "country": "CZ",
    "zipcode": "552 0",
    "name": "Křižanov",
    "region": "Královéhradecký kraj",
    "short_region": "82",
    "lat": "50.466700",
    "lon": "16.000000"
  },
  {
    "id": "90450",
    "country": "CZ",
    "zipcode": "552 0",
    "name": "Litoboř",
    "region": "Královéhradecký kraj",
    "short_region": "82",
    "lat": "50.450000",
    "lon": "16.016700"
  },
  {
    "id": "90451",
    "country": "CZ",
    "zipcode": "552 0",
    "name": "Světlá",
    "region": "Královéhradecký kraj",
    "short_region": "82",
    "lat": "50.433300",
    "lon": "16.016700"
  },
  {
    "id": "90452",
    "country": "CZ",
    "zipcode": "552 0",
    "name": "Nový Dvůr",
    "region": "Královéhradecký kraj",
    "short_region": "82",
    "lat": "50.533300",
    "lon": "16.400000"
  },
  {
    "id": "90453",
    "country": "CZ",
    "zipcode": "552 0",
    "name": "Mečov",
    "region": "Královéhradecký kraj",
    "short_region": "82",
    "lat": "50.443100",
    "lon": "15.996100"
  },
  {
    "id": "90454",
    "country": "CZ",
    "zipcode": "552 0",
    "name": "Újezdec",
    "region": "Královéhradecký kraj",
    "short_region": "82",
    "lat": "50.416700",
    "lon": "16.000000"
  },
  {
    "id": "90455",
    "country": "CZ",
    "zipcode": "552 0",
    "name": "Běluň",
    "region": "Královéhradecký kraj",
    "short_region": "82",
    "lat": "50.383300",
    "lon": "15.933300"
  },
  {
    "id": "90456",
    "country": "CZ",
    "zipcode": "552 0",
    "name": "Mezilečí",
    "region": "Královéhradecký kraj",
    "short_region": "82",
    "lat": "50.450000",
    "lon": "15.983300"
  },
  {
    "id": "90457",
    "country": "CZ",
    "zipcode": "552 0",
    "name": "Lhota pod Hořičkami",
    "region": "Královéhradecký kraj",
    "short_region": "82",
    "lat": "50.416700",
    "lon": "16.000000"
  },
  {
    "id": "90458",
    "country": "CZ",
    "zipcode": "552 0",
    "name": "Proruby",
    "region": "Královéhradecký kraj",
    "short_region": "82",
    "lat": "50.466700",
    "lon": "15.966700"
  },
  {
    "id": "90459",
    "country": "CZ",
    "zipcode": "552 0",
    "name": "Hořičky",
    "region": "Královéhradecký kraj",
    "short_region": "82",
    "lat": "50.450000",
    "lon": "16.000000"
  },
  {
    "id": "90460",
    "country": "CZ",
    "zipcode": "552 0",
    "name": "Žďár",
    "region": "Královéhradecký kraj",
    "short_region": "82",
    "lat": "50.433300",
    "lon": "15.966700"
  },
  {
    "id": "90461",
    "country": "CZ",
    "zipcode": "552 1",
    "name": "Hustířany",
    "region": "Královéhradecký kraj",
    "short_region": "82",
    "lat": "50.350000",
    "lon": "15.816700"
  },
  {
    "id": "90462",
    "country": "CZ",
    "zipcode": "552 1",
    "name": "Velichovky",
    "region": "Královéhradecký kraj",
    "short_region": "82",
    "lat": "50.357200",
    "lon": "15.842500"
  },
  {
    "id": "90463",
    "country": "CZ",
    "zipcode": "552 1",
    "name": "Běluň",
    "region": "Královéhradecký kraj",
    "short_region": "82",
    "lat": "50.383300",
    "lon": "15.933300"
  },
  {
    "id": "90464",
    "country": "CZ",
    "zipcode": "552 1",
    "name": "Brod",
    "region": "Královéhradecký kraj",
    "short_region": "82",
    "lat": "50.383300",
    "lon": "15.916700"
  },
  {
    "id": "90465",
    "country": "CZ",
    "zipcode": "552 1",
    "name": "Heřmanice",
    "region": "Královéhradecký kraj",
    "short_region": "82",
    "lat": "50.483300",
    "lon": "15.516700"
  },
  {
    "id": "90466",
    "country": "CZ",
    "zipcode": "552 2",
    "name": "Rasošky",
    "region": "Královéhradecký kraj",
    "short_region": "82",
    "lat": "50.316700",
    "lon": "15.916700"
  },
  {
    "id": "90467",
    "country": "CZ",
    "zipcode": "552 2",
    "name": "Jasenná",
    "region": "Královéhradecký kraj",
    "short_region": "82",
    "lat": "50.318100",
    "lon": "15.995000"
  },
  {
    "id": "90468",
    "country": "CZ",
    "zipcode": "552 2",
    "name": "Velká Jesenice",
    "region": "Královéhradecký kraj",
    "short_region": "82",
    "lat": "50.366700",
    "lon": "16.050000"
  },
  {
    "id": "90469",
    "country": "CZ",
    "zipcode": "552 2",
    "name": "Zvole",
    "region": "Královéhradecký kraj",
    "short_region": "82",
    "lat": "50.366700",
    "lon": "15.983300"
  },
  {
    "id": "90470",
    "country": "CZ",
    "zipcode": "552 2",
    "name": "Rychnovek",
    "region": "Královéhradecký kraj",
    "short_region": "82",
    "lat": "50.350000",
    "lon": "15.966700"
  },
  {
    "id": "90471",
    "country": "CZ",
    "zipcode": "516 0",
    "name": "Rychnov nad Kněžnou",
    "region": "Královéhradecký kraj",
    "short_region": "82",
    "lat": "50.166700",
    "lon": "16.283300"
  },
  {
    "id": "90472",
    "country": "CZ",
    "zipcode": "516 0",
    "name": "Přím",
    "region": "Královéhradecký kraj",
    "short_region": "82",
    "lat": "50.166700",
    "lon": "16.400000"
  },
  {
    "id": "90473",
    "country": "CZ",
    "zipcode": "516 0",
    "name": "Uhřínov",
    "region": "Královéhradecký kraj",
    "short_region": "82",
    "lat": "50.134200",
    "lon": "16.270800"
  },
  {
    "id": "90474",
    "country": "CZ",
    "zipcode": "516 0",
    "name": "Jedlina",
    "region": "Královéhradecký kraj",
    "short_region": "82",
    "lat": "50.134200",
    "lon": "16.270800"
  },
  {
    "id": "90475",
    "country": "CZ",
    "zipcode": "516 0",
    "name": "Synkov",
    "region": "Královéhradecký kraj",
    "short_region": "82",
    "lat": "50.150000",
    "lon": "16.216700"
  },
  {
    "id": "90476",
    "country": "CZ",
    "zipcode": "516 0",
    "name": "Třebešov",
    "region": "Královéhradecký kraj",
    "short_region": "82",
    "lat": "50.166700",
    "lon": "16.200000"
  },
  {
    "id": "90477",
    "country": "CZ",
    "zipcode": "516 0",
    "name": "Zdobnice",
    "region": "Královéhradecký kraj",
    "short_region": "82",
    "lat": "50.233300",
    "lon": "16.400000"
  },
  {
    "id": "90478",
    "country": "CZ",
    "zipcode": "516 0",
    "name": "Jahodov",
    "region": "Královéhradecký kraj",
    "short_region": "82",
    "lat": "50.150000",
    "lon": "16.333300"
  },