[
  {
    "id": "890001",
    "country": "PE",
    "zipcode": "20840",
    "name": "Los Organos",
    "region": "Piura",
    "short_region": "20",
    "lat": "-4.178100",
    "lon": "-81.124700"
  },
  {
    "id": "890002",
    "country": "PE",
    "zipcode": "20840",
    "name": "Vichayito Norte",
    "region": "Piura",
    "short_region": "20",
    "lat": "-4.138200",
    "lon": "-81.103300"
  },
  {
    "id": "890003",
    "country": "PE",
    "zipcode": "20840",
    "name": "Vichayito Sur",
    "region": "Piura",
    "short_region": "20",
    "lat": "-4.143800",
    "lon": "-81.106600"
  },
  {
    "id": "890004",
    "country": "PE",
    "zipcode": "20840",
    "name": "Punta Organos Chico (La Mesa)",
    "region": "Piura",
    "short_region": "20",
    "lat": "-4.180800",
    "lon": "-81.141100"
  },
  {
    "id": "890005",
    "country": "PE",
    "zipcode": "20840",
    "name": "Punta Veleros Playa",
    "region": "Piura",
    "short_region": "20",
    "lat": "-4.194300",
    "lon": "-81.151800"
  },
  {
    "id": "890006",
    "country": "PE",
    "zipcode": "20840",
    "name": "Peña Mala",
    "region": "Piura",
    "short_region": "20",
    "lat": "-4.132000",
    "lon": "-81.099500"
  },
  {
    "id": "890007",
    "country": "PE",
    "zipcode": "20840",
    "name": "Santa Rosa",
    "region": "Piura",
    "short_region": "20",
    "lat": "-4.189600",
    "lon": "-81.150600"
  },
  {
    "id": "890008",
    "country": "PE",
    "zipcode": "20840",
    "name": "Puerto Antiguo Playa",
    "region": "Piura",
    "short_region": "20",
    "lat": "-4.148700",
    "lon": "-81.110000"
  },
  {
    "id": "890009",
    "country": "PE",
    "zipcode": "20840",
    "name": "Vichayitos",
    "region": "Piura",
    "short_region": "20",
    "lat": "-4.144400",
    "lon": "-81.109000"
  },
  {
    "id": "890010",
    "country": "PE",
    "zipcode": "20840",
    "name": "Varadero",
    "region": "Piura",
    "short_region": "20",
    "lat": "-4.196800",
    "lon": "-81.142300"
  },
  {
    "id": "890011",
    "country": "PE",
    "zipcode": "20840",
    "name": "Laguna Zapotal",
    "region": "Piura",
    "short_region": "20",
    "lat": "-4.223500",
    "lon": "-81.096300"
  },
  {
    "id": "890012",
    "country": "PE",
    "zipcode": "20841",
    "name": "Los Organos",
    "region": "Piura",
    "short_region": "20",
    "lat": "-4.178100",
    "lon": "-81.124700"
  },
  {
    "id": "890013",
    "country": "PE",
    "zipcode": "20850",
    "name": "Las Pocitas",
    "region": "Piura",
    "short_region": "20",
    "lat": "-4.114700",
    "lon": "-81.078800"
  },
  {
    "id": "890014",
    "country": "PE",
    "zipcode": "20850",
    "name": "Angolo 2",
    "region": "Piura",
    "short_region": "20",
    "lat": "-4.115800",
    "lon": "-80.997300"
  },
  {
    "id": "890015",
    "country": "PE",
    "zipcode": "20851",
    "name": "Mancora",
    "region": "Piura",
    "short_region": "20",
    "lat": "-4.107800",
    "lon": "-81.047500"
  },
  {
    "id": "890016",
    "country": "PE",
    "zipcode": "20640",
    "name": "San Luis",
    "region": "Piura",
    "short_region": "20",
    "lat": "-5.466700",
    "lon": "-80.816700"
  },
  {
    "id": "890017",
    "country": "PE",
    "zipcode": "20640",
    "name": "Letira",
    "region": "Piura",
    "short_region": "20",
    "lat": "-5.435900",
    "lon": "-80.805200"
  },
  {
    "id": "890018",
    "country": "PE",
    "zipcode": "20640",
    "name": "Chalaco",
    "region": "Piura",
    "short_region": "20",
    "lat": "-5.409000",
    "lon": "-80.761300"
  },
  {
    "id": "890019",
    "country": "PE",
    "zipcode": "20640",
    "name": "Becara",
    "region": "Piura",
    "short_region": "20",
    "lat": "-5.454300",
    "lon": "-80.809400"
  },
  {
    "id": "890020",
    "country": "PE",
    "zipcode": "20640",
    "name": "Chalaco Alto",
    "region": "Piura",
    "short_region": "20",
    "lat": "-5.402900",
    "lon": "-80.765700"
  },
  {
    "id": "890021",
    "country": "PE",
    "zipcode": "20640",
    "name": "Santa Rosa de Satuyo",
    "region": "Piura",
    "short_region": "20",
    "lat": "-5.432200",
    "lon": "-80.783200"
  },
  {
    "id": "890022",
    "country": "PE",
    "zipcode": "20640",
    "name": "Sanchez",
    "region": "Piura",
    "short_region": "20",
    "lat": "-5.441800",
    "lon": "-80.775700"
  },
  {
    "id": "890023",
    "country": "PE",
    "zipcode": "20640",
    "name": "Santa Isabel",
    "region": "Piura",
    "short_region": "20",
    "lat": "-5.434400",
    "lon": "-80.777600"
  },
  {
    "id": "890024",
    "country": "PE",
    "zipcode": "20640",
    "name": "El Bendito",
    "region": "Piura",
    "short_region": "20",
    "lat": "-5.397600",
    "lon": "-80.784900"
  },
  {
    "id": "890025",
    "country": "PE",
    "zipcode": "20641",
    "name": "Vice",
    "region": "Piura",
    "short_region": "20",
    "lat": "-5.416700",
    "lon": "-80.783300"
  },
  {
    "id": "890026",
    "country": "PE",
    "zipcode": "20650",
    "name": "La Bocana",
    "region": "Piura",
    "short_region": "20",
    "lat": "-5.413700",
    "lon": "-80.745200"
  },
  {
    "id": "890027",
    "country": "PE",
    "zipcode": "20650",
    "name": "Santa Ana",
    "region": "Piura",
    "short_region": "20",
    "lat": "-5.434800",
    "lon": "-80.756500"
  },
  {
    "id": "890028",
    "country": "PE",
    "zipcode": "20650",
    "name": "Soledad",
    "region": "Piura",
    "short_region": "20",
    "lat": "-5.422500",
    "lon": "-80.761500"
  },
  {
    "id": "890029",
    "country": "PE",
    "zipcode": "20650",
    "name": "Bellavista",
    "region": "Piura",
    "short_region": "20",
    "lat": "-5.440300",
    "lon": "-80.754200"
  },
  {
    "id": "890030",
    "country": "PE",
    "zipcode": "20650",
    "name": "Miraflores",
    "region": "Piura",
    "short_region": "20",
    "lat": "-5.415900",
    "lon": "-80.739400"
  },
  {
    "id": "890031",
    "country": "PE",
    "zipcode": "20650",
    "name": "San Clemente",
    "region": "Piura",
    "short_region": "20",
    "lat": "-5.435000",
    "lon": "-80.738100"
  },
  {
    "id": "890032",
    "country": "PE",
    "zipcode": "20650",
    "name": "Vilela",
    "region": "Piura",
    "short_region": "20",
    "lat": "-5.425400",
    "lon": "-80.753900"
  },
  {
    "id": "890033",
    "country": "PE",
    "zipcode": "20650",
    "name": "Venecia de San Clemente",
    "region": "Piura",
    "short_region": "20",
    "lat": "-5.429400",
    "lon": "-80.739000"
  },
  {
    "id": "890034",
    "country": "PE",
    "zipcode": "20650",
    "name": "Alto de los Santiagos",
    "region": "Piura",
    "short_region": "20",
    "lat": "-5.424800",
    "lon": "-80.739400"
  },
  {
    "id": "890035",
    "country": "PE",
    "zipcode": "20660",
    "name": "Vista Florida",
    "region": "Piura",
    "short_region": "20",
    "lat": "-5.476500",
    "lon": "-80.767400"
  },
  {
    "id": "890036",
    "country": "PE",
    "zipcode": "20660",
    "name": "Morrongo",
    "region": "Piura",
    "short_region": "20",
    "lat": "-5.465200",
    "lon": "-80.780600"
  },
  {
    "id": "890037",
    "country": "PE",
    "zipcode": "20660",
    "name": "Salitral",
    "region": "Piura",
    "short_region": "20",
    "lat": "-5.456400",
    "lon": "-80.768900"
  },
  {
    "id": "890038",
    "country": "PE",
    "zipcode": "20660",
    "name": "Isla Bellavista",
    "region": "Piura",
    "short_region": "20",
    "lat": "-5.488600",
    "lon": "-80.773000"
  },
  {
    "id": "890039",
    "country": "PE",
    "zipcode": "20660",
    "name": "El Impulso",
    "region": "Piura",
    "short_region": "20",
    "lat": "-5.466100",
    "lon": "-80.775400"
  },
  {
    "id": "890040",
    "country": "PE",
    "zipcode": "20660",
    "name": "Dos Pueblos",
    "region": "Piura",
    "short_region": "20",
    "lat": "-5.450000",
    "lon": "-80.766700"
  },
  {
    "id": "890041",
    "country": "PE",
    "zipcode": "20660",
    "name": "Chuper",
    "region": "Piura",
    "short_region": "20",
    "lat": "-5.500000",
    "lon": "-80.783300"
  },
  {
    "id": "890042",
    "country": "PE",
    "zipcode": "20660",
    "name": "Isla",
    "region": "Piura",
    "short_region": "20",
    "lat": "-5.504100",
    "lon": "-80.781700"
  },
  {
    "id": "890043",
    "country": "PE",
    "zipcode": "20670",
    "name": "Coronado",
    "region": "Piura",
    "short_region": "20",
    "lat": "-5.469900",
    "lon": "-80.733000"
  },
  {
    "id": "890044",
    "country": "PE",
    "zipcode": "20670",
    "name": "Cordillera",
    "region": "Piura",
    "short_region": "20",
    "lat": "-5.453600",
    "lon": "-80.648400"
  },
  {
    "id": "890045",
    "country": "PE",
    "zipcode": "20670",
    "name": "Vega del Chilco",
    "region": "Piura",
    "short_region": "20",
    "lat": "-5.467200",
    "lon": "-80.663300"
  },
  {
    "id": "890046",
    "country": "PE",
    "zipcode": "20670",
    "name": "Santa Filomena",
    "region": "Piura",
    "short_region": "20",
    "lat": "-5.441300",
    "lon": "-80.725500"
  },
  {
    "id": "890047",
    "country": "PE",
    "zipcode": "20670",
    "name": "Nuevo Vega del Chico",
    "region": "Piura",
    "short_region": "20",
    "lat": "-5.442100",
    "lon": "-80.729800"
  },
  {
    "id": "890048",
    "country": "PE",
    "zipcode": "20670",
    "name": "San Victor",
    "region": "Piura",
    "short_region": "20",
    "lat": "-5.448400",
    "lon": "-80.740500"
  },
  {
    "id": "890049",
    "country": "PE",
    "zipcode": "20670",
    "name": "Nuevo Pozo Oscuro",
    "region": "Piura",
    "short_region": "20",
    "lat": "-5.455600",
    "lon": "-80.636200"
  },
  {
    "id": "890050",
    "country": "PE",
    "zipcode": "20670",
    "name": "Pozo Oscuro Antiguo",
    "region": "Piura",
    "short_region": "20",
    "lat": "-5.459400",
    "lon": "-80.647900"
  },
  {
    "id": "890051",
    "country": "PE",
    "zipcode": "20670",
    "name": "Onza de Oro",
    "region": "Piura",
    "short_region": "20",
    "lat": "-5.490800",
    "lon": "-80.741300"
  },
  {
    "id": "890052",
    "country": "PE",
    "zipcode": "20670",
    "name": "Santo Domingo",
    "region": "Piura",
    "short_region": "20",
    "lat": "-5.482800",
    "lon": "-80.757400"
  },
  {
    "id": "890053",
    "country": "PE",
    "zipcode": "20670",
    "name": "Chepito",
    "region": "Piura",
    "short_region": "20",
    "lat": "-5.472800",
    "lon": "-80.753800"
  },
  {
    "id": "890054",
    "country": "PE",
    "zipcode": "20670",
    "name": "Alto el Brujo",
    "region": "Piura",
    "short_region": "20",
    "lat": "-5.445300",
    "lon": "-80.722000"
  },
  {
    "id": "890055",
    "country": "PE",
    "zipcode": "20670",
    "name": "La Florida",
    "region": "Piura",
    "short_region": "20",
    "lat": "-5.460400",
    "lon": "-80.670800"
  },
  {
    "id": "890056",
    "country": "PE",
    "zipcode": "20670",
    "name": "La Zuldi",
    "region": "Piura",
    "short_region": "20",
    "lat": "-5.453300",
    "lon": "-80.669000"
  },
  {
    "id": "890057",
    "country": "PE",
    "zipcode": "20671",
    "name": "Bernal",
    "region": "Piura",
    "short_region": "20",
    "lat": "-5.450000",
    "lon": "-80.750000"
  },
  {
    "id": "890058",
    "country": "PE",
    "zipcode": "20680",
    "name": "Cerritos",
    "region": "Piura",
    "short_region": "20",
    "lat": "-5.498500",
    "lon": "-80.717500"
  },
  {
    "id": "890059",
    "country": "PE",
    "zipcode": "20680",
    "name": "Chutuque",
    "region": "Piura",
    "short_region": "20",
    "lat": "-5.547000",
    "lon": "-80.617600"
  },
  {
    "id": "890060",
    "country": "PE",
    "zipcode": "20680",
    "name": "San Cristo",
    "region": "Piura",
    "short_region": "20",
    "lat": "-5.494200",
    "lon": "-80.741500"
  },
  {
    "id": "890061",
    "country": "PE",
    "zipcode": "20680",
    "name": "San Ramon Tizal",
    "region": "Piura",
    "short_region": "20",
    "lat": "-5.508100",
    "lon": "-80.681500"
  },
  {
    "id": "890062",
    "country": "PE",
    "zipcode": "20680",
    "name": "San Ramon",
    "region": "Piura",
    "short_region": "20",
    "lat": "-5.571200",
    "lon": "-80.605300"
  },
  {
    "id": "890063",
    "country": "PE",
    "zipcode": "20680",
    "name": "Santa Clara",
    "region": "Piura",
    "short_region": "20",
    "lat": "-5.494500",
    "lon": "-80.752300"
  },
  {
    "id": "890064",
    "country": "PE",
    "zipcode": "20680",
    "name": "Los Jardines",
    "region": "Piura",
    "short_region": "20",
    "lat": "-5.552700",
    "lon": "-80.604700"
  },
  {
    "id": "890065",
    "country": "PE",
    "zipcode": "20680",
    "name": "Valverde",
    "region": "Piura",
    "short_region": "20",
    "lat": "-5.550400",
    "lon": "-80.610200"
  },
  {
    "id": "890066",
    "country": "PE",
    "zipcode": "20680",
    "name": "Nuevo Chuper",
    "region": "Piura",
    "short_region": "20",
    "lat": "-5.497900",
    "lon": "-80.747200"
  },
  {
    "id": "890067",
    "country": "PE",
    "zipcode": "20680",
    "name": "Mala Vida",
    "region": "Piura",
    "short_region": "20",
    "lat": "-5.496200",
    "lon": "-80.603200"
  },
  {
    "id": "890068",
    "country": "PE",
    "zipcode": "20680",
    "name": "Laguna Ñapique Grande",
    "region": "Piura",
    "short_region": "20",
    "lat": "-5.529900",
    "lon": "-80.706500"
  },
  {
    "id": "890069",
    "country": "PE",
    "zipcode": "20690",
    "name": "La Colorada",
    "region": "Piura",
    "short_region": "20",
    "lat": "-5.893200",
    "lon": "-80.349900"
  },
  {
    "id": "890070",
    "country": "PE",
    "zipcode": "20690",
    "name": "La Coscola",
    "region": "Piura",
    "short_region": "20",
    "lat": "-5.799400",
    "lon": "-80.327600"
  },
  {
    "id": "890071",
    "country": "PE",
    "zipcode": "20690",
    "name": "Las Delicias",
    "region": "Piura",
    "short_region": "20",
    "lat": "-5.821900",
    "lon": "-80.876800"
  },
  {
    "id": "890072",
    "country": "PE",
    "zipcode": "20690",
    "name": "Parachique - la Bocana",
    "region": "Piura",
    "short_region": "20",
    "lat": "-5.766100",
    "lon": "-80.864700"
  },
  {
    "id": "890073",
    "country": "PE",
    "zipcode": "20690",
    "name": "Virgen de la Luz",
    "region": "Piura",
    "short_region": "20",
    "lat": "-5.545500",
    "lon": "-80.815200"
  },
  {
    "id": "890074",
    "country": "PE",
    "zipcode": "20690",
    "name": "Vichayo",
    "region": "Piura",
    "short_region": "20",
    "lat": "-5.586500",
    "lon": "-80.808900"
  },
  {
    "id": "890075",
    "country": "PE",
    "zipcode": "20690",
    "name": "Sombrero Verde",
    "region": "Piura",
    "short_region": "20",
    "lat": "-5.816000",
    "lon": "-80.354100"
  },
  {
    "id": "890076",
    "country": "PE",
    "zipcode": "20690",
    "name": "Alto el Roque",
    "region": "Piura",
    "short_region": "20",
    "lat": "-5.883400",
    "lon": "-80.148300"
  },
  {
    "id": "890077",
    "country": "PE",
    "zipcode": "20690",
    "name": "Belizario",
    "region": "Piura",
    "short_region": "20",
    "lat": "-5.824400",
    "lon": "-80.380100"
  },
  {
    "id": "890078",
    "country": "PE",
    "zipcode": "20690",
    "name": "Cirilo",
    "region": "Piura",
    "short_region": "20",
    "lat": "-5.844100",
    "lon": "-80.406500"
  },
  {
    "id": "890079",
    "country": "PE",
    "zipcode": "20690",
    "name": "Ciudad del Pescador",
    "region": "Piura",
    "short_region": "20",
    "lat": "-5.766100",
    "lon": "-80.854300"
  },
  {
    "id": "890080",
    "country": "PE",
    "zipcode": "20690",
    "name": "El Barco",
    "region": "Piura",
    "short_region": "20",
    "lat": "-5.807400",
    "lon": "-80.341600"
  },
  {
    "id": "890081",
    "country": "PE",
    "zipcode": "20690",
    "name": "Noria Honda",
    "region": "Piura",
    "short_region": "20",
    "lat": "-5.792500",
    "lon": "-80.309800"
  },
  {
    "id": "890082",
    "country": "PE",
    "zipcode": "20690",
    "name": "Tres Cruces",
    "region": "Piura",
    "short_region": "20",
    "lat": "-5.784100",
    "lon": "-80.284600"
  },
  {
    "id": "890083",
    "country": "PE",
    "zipcode": "20690",
    "name": "Punta Arena",
    "region": "Piura",
    "short_region": "20",
    "lat": "-5.823300",
    "lon": "-80.367700"
  },
  {
    "id": "890084",
    "country": "PE",
    "zipcode": "20690",
    "name": "Los Pocitos",
    "region": "Piura",
    "short_region": "20",
    "lat": "-5.891900",
    "lon": "-80.222600"
  },
  {
    "id": "890085",
    "country": "PE",
    "zipcode": "20690",
    "name": "Noria Virgen del Pilar",
    "region": "Piura",
    "short_region": "20",
    "lat": "-5.629200",
    "lon": "-80.843500"
  },
  {
    "id": "890086",
    "country": "PE",
    "zipcode": "20690",
    "name": "Pan de Azufre",
    "region": "Piura",
    "short_region": "20",
    "lat": "-5.672500",
    "lon": "-80.565800"
  },
  {
    "id": "890087",
    "country": "PE",
    "zipcode": "20690",
    "name": "Minchales",
    "region": "Piura",
    "short_region": "20",
    "lat": "-5.956700",
    "lon": "-80.347700"
  },
  {
    "id": "890088",
    "country": "PE",
    "zipcode": "20690",
    "name": "Tajamar (Tajarqui)",
    "region": "Piura",
    "short_region": "20",
    "lat": "-5.489200",
    "lon": "-80.793100"
  },
  {
    "id": "890089",
    "country": "PE",
    "zipcode": "20690",
    "name": "Playa Blanca",
    "region": "Piura",
    "short_region": "20",
    "lat": "-5.818500",
    "lon": "-81.083700"
  },
  {
    "id": "890090",
    "country": "PE",
    "zipcode": "20690",
    "name": "Illescas",
    "region": "Piura",
    "short_region": "20",
    "lat": "-5.930000",
    "lon": "-80.973600"
  },
  {
    "id": "890091",
    "country": "PE",
    "zipcode": "20690",
    "name": "La Angostura",
    "region": "Piura",
    "short_region": "20",
    "lat": "-5.922000",
    "lon": "-80.299200"
  },
  {
    "id": "890092",
    "country": "PE",
    "zipcode": "20690",
    "name": "Bazan",
    "region": "Piura",
    "short_region": "20",
    "lat": "-5.519300",
    "lon": "-80.773000"
  },
  {
    "id": "890093",
    "country": "PE",
    "zipcode": "20690",
    "name": "Constante",
    "region": "Piura",
    "short_region": "20",
    "lat": "-5.673300",
    "lon": "-80.848600"
  },
  {
    "id": "890094",
    "country": "PE",
    "zipcode": "20690",
    "name": "Miramar",
    "region": "Piura",
    "short_region": "20",
    "lat": "-5.515300",
    "lon": "-80.815800"
  },
  {
    "id": "890095",
    "country": "PE",
    "zipcode": "20690",
    "name": "Pueblo Nuevo",
    "region": "Piura",
    "short_region": "20",
    "lat": "-5.838900",
    "lon": "-80.458000"
  },
  {
    "id": "890096",
    "country": "PE",
    "zipcode": "20690",
    "name": "Yapato",
    "region": "Piura",
    "short_region": "20",
    "lat": "-5.485500",
    "lon": "-80.811000"
  },
  {
    "id": "890097",
    "country": "PE",
    "zipcode": "20690",
    "name": "Chusis",
    "region": "Piura",
    "short_region": "20",
    "lat": "-5.524500",
    "lon": "-80.809800"
  },
  {
    "id": "890098",
    "country": "PE",
    "zipcode": "20690",
    "name": "Pampa de Loro",
    "region": "Piura",
    "short_region": "20",
    "lat": "-5.500200",
    "lon": "-80.791000"
  },
  {
    "id": "890099",
    "country": "PE",
    "zipcode": "20690",
    "name": "Matacaballo",
    "region": "Piura",
    "short_region": "20",
    "lat": "-5.634000",
    "lon": "-80.849200"
  },
  {
    "id": "890100",
    "country": "PE",
    "zipcode": "20690",
    "name": "Santa Rosa",
    "region": "Piura",
    "short_region": "20",
    "lat": "-5.529300",
    "lon": "-80.794200"
  },
  {
    "id": "890101",
    "country": "PE",
    "zipcode": "20690",
    "name": "San Pablo",
    "region": "Piura",
    "short_region": "20",
    "lat": "-5.856200",
    "lon": "-80.412700"
  },
  {
    "id": "890102",
    "country": "PE",
    "zipcode": "20690",
    "name": "La Capilla",
    "region": "Piura",
    "short_region": "20",
    "lat": "-5.745300",
    "lon": "-80.272600"
  },
  {
    "id": "890103",
    "country": "PE",
    "zipcode": "20690",
    "name": "Nueva Esperanza",
    "region": "Piura",
    "short_region": "20",
    "lat": "-5.767100",
    "lon": "-80.255500"
  },
  {
    "id": "890104",
    "country": "PE",
    "zipcode": "20690",
    "name": "El Sauce",
    "region": "Piura",
    "short_region": "20",
    "lat": "-5.850400",
    "lon": "-80.275600"
  },
  {
    "id": "890105",
    "country": "PE",
    "zipcode": "20690",
    "name": "La Huaca",
    "region": "Piura",
    "short_region": "20",
    "lat": "-5.749600",
    "lon": "-80.288700"
  },
  {
    "id": "890106",
    "country": "PE",
    "zipcode": "20690",
    "name": "Puerto Rico",
    "region": "Piura",
    "short_region": "20",
    "lat": "-5.822400",
    "lon": "-81.035700"
  },
  {
    "id": "890107",
    "country": "PE",
    "zipcode": "20691",
    "name": "Sechura",
    "region": "Piura",
    "short_region": "20",
    "lat": "-5.556900",
    "lon": "-80.822200"
  },
  {
    "id": "890108",
    "country": "PE",
    "zipcode": "21000",
    "name": "Secsecane",
    "region": "Puno",
    "short_region": "21",
    "lat": "-15.855800",
    "lon": "-70.124200"
  },
  {
    "id": "890109",
    "country": "PE",
    "zipcode": "21000",
    "name": "Yanamayo",
    "region": "Puno",
    "short_region": "21",
    "lat": "-15.816700",
    "lon": "-70.033300"
  },
  {
    "id": "890110",
    "country": "PE",
    "zipcode": "21000",
    "name": "Caracollo",
    "region": "Puno",
    "short_region": "21",
    "lat": "-15.949000",
    "lon": "-70.010900"
  },
  {
    "id": "890111",
    "country": "PE",
    "zipcode": "21000",
    "name": "Mamaniri",
    "region": "Puno",
    "short_region": "21",
    "lat": "-15.935100",
    "lon": "-69.960500"
  },
  {
    "id": "890112",
    "country": "PE",
    "zipcode": "21000",
    "name": "San Miguel",
    "region": "Puno",
    "short_region": "21",
    "lat": "-15.939400",
    "lon": "-70.079800"
  },
  {
    "id": "890113",
    "country": "PE",
    "zipcode": "21000",
    "name": "Chincheros",
    "region": "Puno",
    "short_region": "21",
    "lat": "-15.791000",
    "lon": "-70.021900"
  },
  {
    "id": "890114",
    "country": "PE",
    "zipcode": "21000",
    "name": "Berenguela",
    "region": "Puno",
    "short_region": "21",
    "lat": "-15.900200",
    "lon": "-70.151800"
  },
  {
    "id": "890115",
    "country": "PE",
    "zipcode": "21000",
    "name": "Ichu",
    "region": "Puno",
    "short_region": "21",
    "lat": "-15.884900",
    "lon": "-69.943100"
  },
  {
    "id": "890116",
    "country": "PE",
    "zipcode": "21000",
    "name": "Chiaraque",
    "region": "Puno",
    "short_region": "21",
    "lat": "-15.999800",
    "lon": "-70.106700"
  },
  {
    "id": "890117",
    "country": "PE",
    "zipcode": "21000",
    "name": "Sallajani",
    "region": "Puno",
    "short_region": "21",
    "lat": "-15.979600",
    "lon": "-70.136100"
  },
  {
    "id": "890118",
    "country": "PE",
    "zipcode": "21000",
    "name": "Sallihua Callejon",
    "region": "Puno",
    "short_region": "21",
    "lat": "-15.866100",
    "lon": "-69.945700"
  },
  {
    "id": "890119",
    "country": "PE",
    "zipcode": "21000",
    "name": "Capujra",
    "region": "Puno",
    "short_region": "21",
    "lat": "-15.797200",
    "lon": "-70.002600"
  },
  {
    "id": "890120",
    "country": "PE",
    "zipcode": "21000",
    "name": "San Jose de Pucani",
    "region": "Puno",
    "short_region": "21",
    "lat": "-15.931400",
    "lon": "-70.087200"
  },
  {
    "id": "890121",
    "country": "PE",
    "zipcode": "21000",
    "name": "Totorani",
    "region": "Puno",
    "short_region": "21",
    "lat": "-15.820700",
    "lon": "-70.051500"
  },
  {
    "id": "890122",
    "country": "PE",
    "zipcode": "21000",
    "name": "Sañacachi",
    "region": "Puno",
    "short_region": "21",
    "lat": "-15.940500",
    "lon": "-69.970000"
  },
  {
    "id": "890123",
    "country": "PE",
    "zipcode": "21000",
    "name": "Sallihuani Sasani",
    "region": "Puno",
    "short_region": "21",
    "lat": "-15.871800",
    "lon": "-69.964200"
  },
  {
    "id": "890124",
    "country": "PE",
    "zipcode": "21000",
    "name": "San Salvador",
    "region": "Puno",
    "short_region": "21",
    "lat": "-15.816700",
    "lon": "-70.051000"
  },
  {
    "id": "890125",
    "country": "PE",
    "zipcode": "21000",
    "name": "Ahuayllani",
    "region": "Puno",
    "short_region": "21",
    "lat": "-15.908400",
    "lon": "-69.945800"
  },
  {
    "id": "890126",
    "country": "PE",
    "zipcode": "21000",
    "name": "Incapujio",
    "region": "Puno",
    "short_region": "21",
    "lat": "-15.898100",
    "lon": "-69.955700"
  },
  {
    "id": "890127",
    "country": "PE",
    "zipcode": "21000",
    "name": "Isla Anexo Apu Inti",
    "region": "Puno",
    "short_region": "21",
    "lat": "-15.796500",
    "lon": "-69.958600"
  },
  {
    "id": "890128",
    "country": "PE",
    "zipcode": "21000",
    "name": "Querune",
    "region": "Puno",
    "short_region": "21",
    "lat": "-15.992100",
    "lon": "-70.062200"
  },
  {
    "id": "890129",
    "country": "PE",
    "zipcode": "21000",
    "name": "Catahui",
    "region": "Puno",
    "short_region": "21",
    "lat": "-15.918600",
    "lon": "-70.016500"
  },
  {
    "id": "890130",
    "country": "PE",
    "zipcode": "21000",
    "name": "Isla Tupiri",
    "region": "Puno",
    "short_region": "21",
    "lat": "-15.813200",
    "lon": "-69.960600"
  },
  {
    "id": "890131",
    "country": "PE",
    "zipcode": "21000",
    "name": "Isla Tupire Escuela",
    "region": "Puno",
    "short_region": "21",
    "lat": "-15.815300",
    "lon": "-69.960300"
  },
  {
    "id": "890132",
    "country": "PE",
    "zipcode": "21000",
    "name": "Santo Cristo",
    "region": "Puno",
    "short_region": "21",
    "lat": "-15.963200",
    "lon": "-70.063600"
  },
  {
    "id": "890133",
    "country": "PE",
    "zipcode": "21000",
    "name": "Pajchani",
    "region": "Puno",
    "short_region": "21",
    "lat": "-15.899300",
    "lon": "-69.995000"
  },
  {
    "id": "890134",
    "country": "PE",
    "zipcode": "21000",
    "name": "San Miguel de Laripagua",
    "region": "Puno",
    "short_region": "21",
    "lat": "-15.936900",
    "lon": "-70.080400"
  },
  {
    "id": "890135",
    "country": "PE",
    "zipcode": "21000",
    "name": "San Miguel Antoniani",
    "region": "Puno",
    "short_region": "21",
    "lat": "-15.832200",
    "lon": "-70.121800"
  },
  {
    "id": "890136",
    "country": "PE",
    "zipcode": "21000",
    "name": "Cutimbo",
    "region": "Puno",
    "short_region": "21",
    "lat": "-15.985300",
    "lon": "-70.028100"
  },
  {
    "id": "890137",
    "country": "PE",
    "zipcode": "21000",
    "name": "Huanune",
    "region": "Puno",
    "short_region": "21",
    "lat": "-15.996900",
    "lon": "-70.140700"
  },
  {
    "id": "890138",
    "country": "PE",
    "zipcode": "21000",
    "name": "Isla Aymara",
    "region": "Puno",
    "short_region": "21",
    "lat": "-15.801100",
    "lon": "-69.960700"
  },
  {
    "id": "890139",
    "country": "PE",
    "zipcode": "21000",
    "name": "Jallihuaya",
    "region": "Puno",
    "short_region": "21",
    "lat": "-15.914600",
    "lon": "-70.081700"
  },
  {
    "id": "890140",
    "country": "PE",
    "zipcode": "21000",
    "name": "Alto Manto (Manto)",
    "region": "Puno",
    "short_region": "21",
    "lat": "-15.865600",
    "lon": "-70.027700"
  },
  {
    "id": "890141",
    "country": "PE",
    "zipcode": "21000",
    "name": "Antoniani",
    "region": "Puno",
    "short_region": "21",
    "lat": "-15.834200",
    "lon": "-70.096800"
  },
  {
    "id": "890142",
    "country": "PE",
    "zipcode": "21000",
    "name": "Aziruni",
    "region": "Puno",
    "short_region": "21",
    "lat": "-15.863600",
    "lon": "-69.966000"
  },
  {
    "id": "890143",
    "country": "PE",
    "zipcode": "21000",
    "name": "Buenos Aires Estacion",
    "region": "Puno",
    "short_region": "21",
    "lat": "-15.877600",
    "lon": "-69.927900"
  },
  {
    "id": "890144",
    "country": "PE",
    "zipcode": "21000",
    "name": "Cachiña Chica",
    "region": "Puno",
    "short_region": "21",
    "lat": "-15.870200",
    "lon": "-70.070900"
  },
  {
    "id": "890145",
    "country": "PE",
    "zipcode": "21000",
    "name": "Cachiña Grande",
    "region": "Puno",
    "short_region": "21",
    "lat": "-15.863900",
    "lon": "-70.076000"
  },
  {
    "id": "890146",
    "country": "PE",
    "zipcode": "21000",
    "name": "Calcota",
    "region": "Puno",
    "short_region": "21",
    "lat": "-15.853800",
    "lon": "-69.974200"
  },
  {
    "id": "890147",
    "country": "PE",
    "zipcode": "21000",
    "name": "Cancharani",
    "region": "Puno",
    "short_region": "21",
    "lat": "-15.889600",
    "lon": "-70.016400"
  },
  {
    "id": "890148",
    "country": "PE",
    "zipcode": "21000",
    "name": "Catahui Apacheta",
    "region": "Puno",
    "short_region": "21",
    "lat": "-15.910100",
    "lon": "-70.006600"
  },
  {
    "id": "890149",
    "country": "PE",
    "zipcode": "21000",
    "name": "Central Ccollacachi",
    "region": "Puno",
    "short_region": "21",
    "lat": "-15.972400",
    "lon": "-70.009200"
  },
  {
    "id": "890150",
    "country": "PE",
    "zipcode": "21000",
    "name": "Chacarine",
    "region": "Puno",
    "short_region": "21",
    "lat": "-15.807700",
    "lon": "-70.087500"
  },
  {
    "id": "890151",
    "country": "PE",
    "zipcode": "21000",
    "name": "Charajuna",
    "region": "Puno",
    "short_region": "21",
    "lat": "-15.866300",
    "lon": "-69.963500"
  },
  {
    "id": "890152",
    "country": "PE",
    "zipcode": "21000",
    "name": "Chicamaya",
    "region": "Puno",
    "short_region": "21",
    "lat": "-15.896000",
    "lon": "-69.933500"
  },
  {
    "id": "890153",
    "country": "PE",
    "zipcode": "21000",
    "name": "Chimu Central",
    "region": "Puno",
    "short_region": "21",
    "lat": "-15.852900",
    "lon": "-69.969300"
  },
  {
    "id": "890154",
    "country": "PE",
    "zipcode": "21000",
    "name": "Trolani Trapiche",
    "region": "Puno",
    "short_region": "21",
    "lat": "-15.970600",
    "lon": "-70.055700"
  },
  {
    "id": "890155",
    "country": "PE",
    "zipcode": "21000",
    "name": "Tunuhuire Grande",
    "region": "Puno",
    "short_region": "21",
    "lat": "-15.890200",
    "lon": "-69.928500"
  },
  {
    "id": "890156",
    "country": "PE",
    "zipcode": "21000",
    "name": "Wilakunka",
    "region": "Puno",
    "short_region": "21",
    "lat": "-15.886100",
    "lon": "-70.031100"
  },
  {
    "id": "890157",
    "country": "PE",
    "zipcode": "21000",
    "name": "Sancayuni",
    "region": "Puno",
    "short_region": "21",
    "lat": "-15.829800",
    "lon": "-70.068500"
  },
  {
    "id": "890158",
    "country": "PE",
    "zipcode": "21000",
    "name": "Wira Jachinga",
    "region": "Puno",
    "short_region": "21",
    "lat": "-15.869300",
    "lon": "-69.937300"
  },
  {
    "id": "890159",
    "country": "PE",
    "zipcode": "21000",
    "name": "Wira Jochincha",
    "region": "Puno",
    "short_region": "21",
    "lat": "-15.867800",
    "lon": "-69.944300"
  },
  {
    "id": "890160",
    "country": "PE",
    "zipcode": "21000",
    "name": "Yanamani",
    "region": "Puno",
    "short_region": "21",
    "lat": "-15.898600",
    "lon": "-69.960300"
  },
  {
    "id": "890161",
    "country": "PE",
    "zipcode": "21000",
    "name": "Chuaña",
    "region": "Puno",
    "short_region": "21",
    "lat": "-15.934700",
    "lon": "-70.163600"
  },
  {
    "id": "890162",
    "country": "PE",
    "zipcode": "21000",
    "name": "Collaquipa",
    "region": "Puno",
    "short_region": "21",
    "lat": "-15.808000",
    "lon": "-70.049400"
  },
  {
    "id": "890163",
    "country": "PE",
    "zipcode": "21000",
    "name": "Isla Esteves",
    "region": "Puno",
    "short_region": "21",
    "lat": "-15.827900",
    "lon": "-69.993000"
  },
  {
    "id": "890164",
    "country": "PE",
    "zipcode": "21000",
    "name": "Cuesta Blanca",
    "region": "Puno",
    "short_region": "21",
    "lat": "-15.849600",
    "lon": "-70.052300"
  },
  {
    "id": "890165",
    "country": "PE",
    "zipcode": "21000",
    "name": "Santa Rosa",
    "region": "Puno",
    "short_region": "21",
    "lat": "-16.085600",
    "lon": "-70.078300"
  },
  {
    "id": "890166",
    "country": "PE",
    "zipcode": "21000",
    "name": "Isla Jiska Chaulla",
    "region": "Puno",
    "short_region": "21",
    "lat": "-15.788600",
    "lon": "-69.978200"
  },
  {
    "id": "890167",
    "country": "PE",
    "zipcode": "21000",
    "name": "Isla Kamisaraki",
    "region": "Puno",
    "short_region": "21",
    "lat": "-15.792100",
    "lon": "-69.960800"
  },
  {
    "id": "890168",
    "country": "PE",
    "zipcode": "21000",
    "name": "Mi Peru",
    "region": "Puno",
    "short_region": "21",
    "lat": "-15.895000",
    "lon": "-70.015900"
  },
  {
    "id": "890169",
    "country": "PE",
    "zipcode": "21000",
    "name": "Millotayane",
    "region": "Puno",
    "short_region": "21",
    "lat": "-15.969400",
    "lon": "-70.139000"
  },
  {
    "id": "890170",
    "country": "PE",
    "zipcode": "21000",
    "name": "Millojachi",
    "region": "Puno",
    "short_region": "21",
    "lat": "-15.795700",
    "lon": "-70.009500"
  },
  {
    "id": "890171",
    "country": "PE",
    "zipcode": "21000",
    "name": "Mamaliri",
    "region": "Puno",
    "short_region": "21",
    "lat": "-15.876300",
    "lon": "-69.959000"
  },
  {
    "id": "890172",
    "country": "PE",
    "zipcode": "21000",
    "name": "Isla Kapi Cruz Grande",
    "region": "Puno",
    "short_region": "21",
    "lat": "-15.782900",
    "lon": "-69.966800"
  },
  {
    "id": "890173",
    "country": "PE",
    "zipcode": "21000",
    "name": "Isla Khana Uro",
    "region": "Puno",
    "short_region": "21",
    "lat": "-15.793400",
    "lon": "-69.959500"
  },
  {
    "id": "890174",
    "country": "PE",
    "zipcode": "21000",
    "name": "Ingenio",
    "region": "Puno",
    "short_region": "21",
    "lat": "-15.880000",
    "lon": "-69.935800"
  },
  {
    "id": "890175",
    "country": "PE",
    "zipcode": "21000",
    "name": "Isla Khanthati",
    "region": "Puno",
    "short_region": "21",
    "lat": "-15.809100",
    "lon": "-69.960900"
  },
  {
    "id": "890176",
    "country": "PE",
    "zipcode": "21000",
    "name": "Isla Kontike",
    "region": "Puno",
    "short_region": "21",
    "lat": "-15.802100",
    "lon": "-69.977800"
  },
  {
    "id": "890177",
    "country": "PE",
    "zipcode": "21000",
    "name": "Isla Llacho Punku",
    "region": "Puno",
    "short_region": "21",
    "lat": "-15.784300",
    "lon": "-69.956000"
  },
  {
    "id": "890178",
    "country": "PE",
    "zipcode": "21000",
    "name": "Isla Maccano",
    "region": "Puno",
    "short_region": "21",
    "lat": "-15.780100",
    "lon": "-69.962100"
  },
  {
    "id": "890179",
    "country": "PE",
    "zipcode": "21000",
    "name": "Isla Pachamana",
    "region": "Puno",
    "short_region": "21",
    "lat": "-15.822200",
    "lon": "-69.977000"
  },
  {
    "id": "890180",
    "country": "PE",
    "zipcode": "21000",
    "name": "Isla Paraiso",
    "region": "Puno",
    "short_region": "21",
    "lat": "-15.825000",
    "lon": "-69.968600"
  },
  {
    "id": "890181",
    "country": "PE",
    "zipcode": "21000",
    "name": "Isla Puma Utta",
    "region": "Puno",
    "short_region": "21",
    "lat": "-15.799400",
    "lon": "-69.980100"
  },
  {
    "id": "890182",
    "country": "PE",
    "zipcode": "21000",
    "name": "Isla Qota Marka San Miguel",
    "region": "Puno",
    "short_region": "21",
    "lat": "-15.794100",
    "lon": "-69.985200"
  },
  {
    "id": "890183",
    "country": "PE",
    "zipcode": "21000",
    "name": "Isla Q'ota Uma",
    "region": "Puno",
    "short_region": "21",
    "lat": "-15.791800",
    "lon": "-69.984100"
  },
  {
    "id": "890184",
    "country": "PE",
    "zipcode": "21000",
    "name": "Isla San Miguel",
    "region": "Puno",
    "short_region": "21",
    "lat": "-15.796200",
    "lon": "-69.987200"
  },
  {
    "id": "890185",
    "country": "PE",
    "zipcode": "21000",
    "name": "Isla San Pedro",
    "region": "Puno",
    "short_region": "21",
    "lat": "-15.822300",
    "lon": "-69.964100"
  },
  {
    "id": "890186",
    "country": "PE",
    "zipcode": "21000",
    "name": "Isla Santa Maria",
    "region": "Puno",
    "short_region": "21",
    "lat": "-15.809100",
    "lon": "-69.973500"
  },
  {
    "id": "890187",
    "country": "PE",
    "zipcode": "21000",
    "name": "Isla Santa Maria 1",
    "region": "Puno",
    "short_region": "21",
    "lat": "-15.803800",
    "lon": "-69.956900"
  },
  {
    "id": "890188",
    "country": "PE",
    "zipcode": "21000",
    "name": "Nueva Esperanza",
    "region": "Puno",
    "short_region": "21",
    "lat": "-15.820700",
    "lon": "-69.997700"
  },
  {
    "id": "890189",
    "country": "PE",
    "zipcode": "21000",
    "name": "Isla Santa Maria 2",
    "region": "Puno",
    "short_region": "21",
    "lat": "-15.818100",
    "lon": "-69.963100"
  },
  {
    "id": "890190",
    "country": "PE",
    "zipcode": "21000",
    "name": "Isla Sin Nombre 1",
    "region": "Puno",
    "short_region": "21",
    "lat": "-15.791800",
    "lon": "-69.986000"
  },
  {
    "id": "890191",
    "country": "PE",
    "zipcode": "21000",
    "name": "Isla Sin Nombre 2",
    "region": "Puno",
    "short_region": "21",
    "lat": "-15.797800",
    "lon": "-69.985200"
  },
  {
    "id": "890192",
    "country": "PE",
    "zipcode": "21000",
    "name": "Isla Sin Nombre 3",
    "region": "Puno",
    "short_region": "21",
    "lat": "-15.814600",
    "lon": "-69.981500"
  },
  {
    "id": "890193",
    "country": "PE",
    "zipcode": "21000",
    "name": "Isla Sin Nombre 5",
    "region": "Puno",
    "short_region": "21",
    "lat": "-15.807600",
    "lon": "-69.954100"
  },
  {
    "id": "890194",
    "country": "PE",
    "zipcode": "21000",
    "name": "Isla Sin Nombre 6",
    "region": "Puno",
    "short_region": "21",
    "lat": "-15.811500",
    "lon": "-69.953900"
  },
  {
    "id": "890195",
    "country": "PE",
    "zipcode": "21000",
    "name": "Isla Sin Nombre 7",
    "region": "Puno",
    "short_region": "21",
    "lat": "-15.824100",
    "lon": "-69.963800"
  },
  {
    "id": "890196",
    "country": "PE",
    "zipcode": "21000",
    "name": "Isla Suma Ccapi Cruz",
    "region": "Puno",
    "short_region": "21",
    "lat": "-15.799700",
    "lon": "-69.957400"
  },
  {
    "id": "890197",
    "country": "PE",
    "zipcode": "21000",
    "name": "Isla Sumac Pacha",
    "region": "Puno",
    "short_region": "21",
    "lat": "-15.796000",
    "lon": "-69.979700"
  },
  {
    "id": "890198",
    "country": "PE",
    "zipcode": "21000",
    "name": "Isla Suma Kili",
    "region": "Puno",
    "short_region": "21",
    "lat": "-15.793400",
    "lon": "-69.962900"
  },
  {
    "id": "890199",
    "country": "PE",
    "zipcode": "21000",
    "name": "Isla Toranipata (Mamatorani)",
    "region": "Puno",
    "short_region": "21",
    "lat": "-15.787300",
    "lon": "-69.965400"
  },
  {
    "id": "890200",
    "country": "PE",
    "zipcode": "21000",
    "name": "Isla Totora",
    "region": "Puno",
    "short_region": "21",
    "lat": "-15.789500",
    "lon": "-69.980900"
  },
  {
    "id": "890201",
    "country": "PE",
    "zipcode": "21000",
    "name": "Isla Tribuna Kollas",
    "region": "Puno",
    "short_region": "21",
    "lat": "-15.795000",
    "lon": "-69.960800"
  },
  {
    "id": "890202",
    "country": "PE",
    "zipcode": "21000",
    "name": "Isla Uros Amanecer",
    "region": "Puno",
    "short_region": "21",
    "lat": "-15.788700",
    "lon": "-69.970200"
  },
  {
    "id": "890203",
    "country": "PE",
    "zipcode": "21000",
    "name": "Isla Uros Capital",
    "region": "Puno",
    "short_region": "21",
    "lat": "-15.790000",
    "lon": "-69.962500"
  },
  {
    "id": "890204",
    "country": "PE",
    "zipcode": "21000",
    "name": "Isla Uros Gaviota",
    "region": "Puno",
    "short_region": "21",
    "lat": "-15.811600",
    "lon": "-69.960700"
  },
  {
    "id": "890205",
    "country": "PE",
    "zipcode": "21000",
    "name": "Isla Uros Jacha Challwa",
    "region": "Puno",
    "short_region": "21",
    "lat": "-15.813300",
    "lon": "-69.957700"
  },
  {
    "id": "890206",
    "country": "PE",
    "zipcode": "21000",
    "name": "Isla Wacawacani Grande",
    "region": "Puno",
    "short_region": "21",
    "lat": "-15.809100",
    "lon": "-69.982600"
  },
  {
    "id": "890207",
    "country": "PE",
    "zipcode": "21000",
    "name": "Isla Waliki",
    "region": "Puno",
    "short_region": "21",
    "lat": "-15.786900",
    "lon": "-69.973200"
  },
  {
    "id": "890208",
    "country": "PE",
    "zipcode": "21000",
    "name": "Isla Winay Totora",
    "region": "Puno",
    "short_region": "21",
    "lat": "-15.805800",
    "lon": "-69.959700"
  },
  {
    "id": "890209",
    "country": "PE",
    "zipcode": "21000",
    "name": "Isla Ccollana",
    "region": "Puno",
    "short_region": "21",
    "lat": "-15.803700",
    "lon": "-69.984000"
  },
  {
    "id": "890210",
    "country": "PE",
    "zipcode": "21000",
    "name": "Isla Jachatata",
    "region": "Puno",
    "short_region": "21",
    "lat": "-15.812700",
    "lon": "-69.976400"
  },
  {
    "id": "890211",
    "country": "PE",
    "zipcode": "21000",
    "name": "Isla Uros Chikito",
    "region": "Puno",
    "short_region": "21",
    "lat": "-15.820000",
    "lon": "-69.976100"
  },
  {
    "id": "890212",
    "country": "PE",
    "zipcode": "21000",
    "name": "Huallatani",
    "region": "Puno",
    "short_region": "21",
    "lat": "-15.964400",
    "lon": "-70.151700"
  },
  {
    "id": "890213",
    "country": "PE",
    "zipcode": "21000",
    "name": "Huerta Huaraya",
    "region": "Puno",
    "short_region": "21",
    "lat": "-15.798000",
    "lon": "-70.022000"
  },
  {
    "id": "890214",
    "country": "PE",
    "zipcode": "21000",
    "name": "Isla Uros Capital 2",
    "region": "Puno",
    "short_region": "21",
    "lat": "-15.788700",
    "lon": "-69.961200"
  },
  {
    "id": "890215",
    "country": "PE",
    "zipcode": "21000",
    "name": "Itapalluni",
    "region": "Puno",
    "short_region": "21",
    "lat": "-15.896000",
    "lon": "-70.056800"
  },
  {
    "id": "890216",
    "country": "PE",
    "zipcode": "21000",
    "name": "Alto Chimu",
    "region": "Puno",
    "short_region": "21",
    "lat": "-15.906000",
    "lon": "-69.999600"
  },
  {
    "id": "890217",
    "country": "PE",
    "zipcode": "21000",
    "name": "Jankolaka",
    "region": "Puno",
    "short_region": "21",
    "lat": "-15.972000",
    "lon": "-70.047900"
  },
  {
    "id": "890218",
    "country": "PE",
    "zipcode": "21000",
    "name": "Jayu Jayuni",
    "region": "Puno",
    "short_region": "21",
    "lat": "-15.900200",
    "lon": "-69.952400"
  },
  {
    "id": "890219",
    "country": "PE",
    "zipcode": "21000",
    "name": "Capullani",
    "region": "Puno",
    "short_region": "21",
    "lat": "-16.025500",
    "lon": "-69.978200"
  },
  {
    "id": "890220",
    "country": "PE",
    "zipcode": "21000",
    "name": "Uros Chulluni (Santa Maria Cucho)",
    "region": "Puno",
    "short_region": "21",
    "lat": "-15.813300",
    "lon": "-69.993500"
  },
  {
    "id": "890221",
    "country": "PE",
    "zipcode": "21000",
    "name": "Uros Chulluni (Orconplaya)",
    "region": "Puno",
    "short_region": "21",
    "lat": "-15.812200",
    "lon": "-69.994700"
  },
  {
    "id": "890222",
    "country": "PE",
    "zipcode": "21000",
    "name": "Umajalsu",
    "region": "Puno",
    "short_region": "21",
    "lat": "-15.936800",
    "lon": "-69.959700"
  },
  {
    "id": "890223",
    "country": "PE",
    "zipcode": "21000",
    "name": "Tunuhuiri Chico",
    "region": "Puno",
    "short_region": "21",
    "lat": "-15.893600",
    "lon": "-69.930200"
  },
  {
    "id": "890224",
    "country": "PE",
    "zipcode": "21000",
    "name": "Isla Sin Nombre 4",
    "region": "Puno",
    "short_region": "21",
    "lat": "-15.823400",
    "lon": "-69.991900"
  },
  {
    "id": "890225",
    "country": "PE",
    "zipcode": "21000",
    "name": "Sucria",
    "region": "Puno",
    "short_region": "21",
    "lat": "-15.957700",
    "lon": "-70.139400"
  },
  {
    "id": "890226",
    "country": "PE",
    "zipcode": "21000",
    "name": "Sequini",
    "region": "Puno",
    "short_region": "21",
    "lat": "-15.966600",
    "lon": "-70.074800"
  },
  {
    "id": "890227",
    "country": "PE",
    "zipcode": "21000",
    "name": "Rancho Punco - Salcedo",
    "region": "Puno",
    "short_region": "21",
    "lat": "-15.898500",
    "lon": "-69.998800"
  },
  {
    "id": "890228",
    "country": "PE",
    "zipcode": "21000",
    "name": "Mirador Parque",
    "region": "Puno",
    "short_region": "21",
    "lat": "-15.817100",
    "lon": "-69.995100"
  },
  {
    "id": "890229",
    "country": "PE",
    "zipcode": "21000",
    "name": "Mullu Punco",
    "region": "Puno",
    "short_region": "21",
    "lat": "-15.902900",
    "lon": "-69.944400"
  },
  {
    "id": "890230",
    "country": "PE",
    "zipcode": "21000",
    "name": "Jichuyo Pamaya",
    "region": "Puno",
    "short_region": "21",
    "lat": "-15.929400",
    "lon": "-70.030100"
  },
  {
    "id": "890231",
    "country": "PE",
    "zipcode": "21000",
    "name": "Jirata Vizcachani",
    "region": "Puno",
    "short_region": "21",
    "lat": "-15.807500",
    "lon": "-69.998100"
  },
  {
    "id": "890232",
    "country": "PE",
    "zipcode": "21000",
    "name": "Kachilaka",
    "region": "Puno",
    "short_region": "21",
    "lat": "-15.929500",
    "lon": "-70.171500"
  },
  {
    "id": "890233",
    "country": "PE",
    "zipcode": "21000",
    "name": "Kiviani",
    "region": "Puno",
    "short_region": "21",
    "lat": "-15.899400",
    "lon": "-70.079700"
  },
  {
    "id": "890234",
    "country": "PE",
    "zipcode": "21000",
    "name": "Konkachi",
    "region": "Puno",
    "short_region": "21",
    "lat": "-15.921200",
    "lon": "-70.085000"
  },
  {
    "id": "890235",
    "country": "PE",
    "zipcode": "21000",
    "name": "Ojherani",
    "region": "Puno",
    "short_region": "21",
    "lat": "-15.861100",
    "lon": "-69.956800"
  },
  {
    "id": "890236",
    "country": "PE",
    "zipcode": "21000",
    "name": "Patipiña",
    "region": "Puno",
    "short_region": "21",
    "lat": "-15.975400",
    "lon": "-70.159100"
  },
  {
    "id": "890237",
    "country": "PE",
    "zipcode": "21000",
    "name": "Pichurata Jankolaka",
    "region": "Puno",
    "short_region": "21",
    "lat": "-15.929800",
    "lon": "-69.960400"
  },
  {
    "id": "890238",
    "country": "PE",
    "zipcode": "21000",
    "name": "Pila Laya",
    "region": "Puno",
    "short_region": "21",
    "lat": "-15.876200",
    "lon": "-69.940800"
  },
  {
    "id": "890239",
    "country": "PE",
    "zipcode": "21000",
    "name": "Potojani Chico",
    "region": "Puno",
    "short_region": "21",
    "lat": "-15.952600",
    "lon": "-70.067000"
  },
  {
    "id": "890240",
    "country": "PE",
    "zipcode": "21000",
    "name": "Pusalaya",
    "region": "Puno",
    "short_region": "21",
    "lat": "-15.901300",
    "lon": "-69.941200"
  },
  {
    "id": "890241",
    "country": "PE",
    "zipcode": "21000",
    "name": "Queñua Patilla",
    "region": "Puno",
    "short_region": "21",
    "lat": "-15.901800",
    "lon": "-69.957900"
  },
  {
    "id": "890242",
    "country": "PE",
    "zipcode": "21000",
    "name": "Chimu Vallecito",
    "region": "Puno",
    "short_region": "21",
    "lat": "-15.855100",
    "lon": "-69.965600"
  },
  {
    "id": "890243",
    "country": "PE",
    "zipcode": "21000",
    "name": "Erpocco",
    "region": "Puno",
    "short_region": "21",
    "lat": "-15.959100",
    "lon": "-70.152000"
  },
  {
    "id": "890244",
    "country": "PE",
    "zipcode": "21000",
    "name": "Curochupa",
    "region": "Puno",
    "short_region": "21",
    "lat": "-15.980800",
    "lon": "-70.057900"
  },
  {
    "id": "890245",
    "country": "PE",
    "zipcode": "21000",
    "name": "Isla Chullo",
    "region": "Puno",
    "short_region": "21",
    "lat": "-15.784000",
    "lon": "-69.969100"
  },
  {
    "id": "890246",
    "country": "PE",
    "zipcode": "21000",
    "name": "Kuchuchuni",
    "region": "Puno",
    "short_region": "21",
    "lat": "-15.989900",
    "lon": "-70.083300"
  },
  {
    "id": "890247",
    "country": "PE",
    "zipcode": "21000",
    "name": "Chicchipani",
    "region": "Puno",
    "short_region": "21",
    "lat": "-15.973300",
    "lon": "-70.107000"
  },
  {
    "id": "890248",
    "country": "PE",
    "zipcode": "21000",
    "name": "Cullko",
    "region": "Puno",
    "short_region": "21",
    "lat": "-15.914000",
    "lon": "-69.941200"
  },
  {
    "id": "890249",
    "country": "PE",
    "zipcode": "21000",
    "name": "Leche Pujo",
    "region": "Puno",
    "short_region": "21",
    "lat": "-15.813400",
    "lon": "-70.017500"
  },
  {
    "id": "890250",
    "country": "PE",
    "zipcode": "21000",
    "name": "Los Andes Cancharani (Muñay Pata)",
    "region": "Puno",
    "short_region": "21",
    "lat": "-15.893800",
    "lon": "-70.021400"
  },
  {
    "id": "890251",
    "country": "PE",
    "zipcode": "21000",
    "name": "Isla Chumi",
    "region": "Puno",
    "short_region": "21",
    "lat": "-15.805700",
    "lon": "-69.979000"
  },
  {
    "id": "890252",
    "country": "PE",
    "zipcode": "21000",
    "name": "Isla Contiki San Miguel",
    "region": "Puno",
    "short_region": "21",
    "lat": "-15.796200",
    "lon": "-69.987200"
  },
  {
    "id": "890253",
    "country": "PE",
    "zipcode": "21000",
    "name": "Mallkoamayo",
    "region": "Puno",
    "short_region": "21",
    "lat": "-15.973000",
    "lon": "-70.025900"
  },
  {
    "id": "890254",
    "country": "PE",
    "zipcode": "21000",
    "name": "Laykata",
    "region": "Puno",
    "short_region": "21",
    "lat": "-15.976400",
    "lon": "-70.063800"
  },
  {
    "id": "890255",
    "country": "PE",
    "zipcode": "21000",
    "name": "Cumbre Jahuira",
    "region": "Puno",
    "short_region": "21",
    "lat": "-15.969900",
    "lon": "-70.063000"
  },
  {
    "id": "890256",
    "country": "PE",
    "zipcode": "21000",
    "name": "Totorani Grande",
    "region": "Puno",
    "short_region": "21",
    "lat": "-15.816700",
    "lon": "-70.101900"
  },
  {
    "id": "890257",
    "country": "PE",
    "zipcode": "21000",
    "name": "Tisnuyo",
    "region": "Puno",
    "short_region": "21",
    "lat": "-15.931100",
    "lon": "-70.156500"
  },
  {
    "id": "890258",
    "country": "PE",
    "zipcode": "21000",
    "name": "Llallahuani",
    "region": "Puno",
    "short_region": "21",
    "lat": "-15.886800",
    "lon": "-70.081200"
  },
  {
    "id": "890259",
    "country": "PE",
    "zipcode": "21000",
    "name": "Tisñani",
    "region": "Puno",
    "short_region": "21",
    "lat": "-15.897400",
    "lon": "-69.990200"
  },
  {
    "id": "890260",
    "country": "PE",
    "zipcode": "21000",
    "name": "Chimu",
    "region": "Puno",
    "short_region": "21",
    "lat": "-15.852900",
    "lon": "-69.962600"
  },
  {
    "id": "890261",
    "country": "PE",
    "zipcode": "21000",
    "name": "Collacachi",
    "region": "Puno",
    "short_region": "21",
    "lat": "-15.960100",
    "lon": "-69.990500"
  },
  {
    "id": "890262",
    "country": "PE",
    "zipcode": "21001",
    "name": "Puno",
    "region": "Puno",
    "short_region": "21",
    "lat": "-15.842200",
    "lon": "-70.019900"
  },
  {
    "id": "890263",
    "country": "PE",
    "zipcode": "21002",
    "name": "Puno",
    "region": "Puno",
    "short_region": "21",
    "lat": "-15.842200",
    "lon": "-70.019900"
  },
  {
    "id": "890264",
    "country": "PE",
    "zipcode": "21002",
    "name": "Jayllihuaya",
    "region": "Puno",
    "short_region": "21",
    "lat": "-15.878700",
    "lon": "-69.975000"
  },
  {
    "id": "890265",
    "country": "PE",
    "zipcode": "21002",
    "name": "Alto Jayllihuaya",
    "region": "Puno",
    "short_region": "21",
    "lat": "-15.896500",
    "lon": "-69.963200"
  },
  {
    "id": "890266",
    "country": "PE",
    "zipcode": "21002",
    "name": "Jayllihuaya Kellarani",
    "region": "Puno",
    "short_region": "21",
    "lat": "-15.890000",
    "lon": "-69.962400"
  },
  {
    "id": "890267",
    "country": "PE",
    "zipcode": "21002",
    "name": "Nueva Esperanza",
    "region": "Puno",
    "short_region": "21",
    "lat": "-15.871200",
    "lon": "-70.020400"
  },
  {
    "id": "890268",
    "country": "PE",
    "zipcode": "21110",
    "name": "Paccara Muñani",
    "region": "Puno",
    "short_region": "21",
    "lat": "-15.744000",
    "lon": "-70.129600"
  },
  {
    "id": "890269",
    "country": "PE",
    "zipcode": "21110",
    "name": "Belen",
    "region": "Puno",
    "short_region": "21",
    "lat": "-15.796300",
    "lon": "-70.064200"
  },
  {
    "id": "890270",
    "country": "PE",
    "zipcode": "21110",
    "name": "Muñani",
    "region": "Puno",
    "short_region": "21",
    "lat": "-15.751300",
    "lon": "-70.115000"
  },
  {
    "id": "890271",
    "country": "PE",
    "zipcode": "21110",
    "name": "Vizcachane",
    "region": "Puno",
    "short_region": "21",
    "lat": "-15.718600",
    "lon": "-70.071300"
  },
  {
    "id": "890272",
    "country": "PE",
    "zipcode": "21110",
    "name": "Ccallancauma",
    "region": "Puno",
    "short_region": "21",
    "lat": "-15.772100",
    "lon": "-70.120700"
  },
  {
    "id": "890273",
    "country": "PE",
    "zipcode": "21110",
    "name": "Canaora",
    "region": "Puno",
    "short_region": "21",
    "lat": "-15.718000",
    "lon": "-70.037300"
  },
  {
    "id": "890274",
    "country": "PE",
    "zipcode": "21110",
    "name": "Velanmayo",
    "region": "Puno",
    "short_region": "21",
    "lat": "-15.656800",
    "lon": "-70.042800"
  },
  {
    "id": "890275",
    "country": "PE",
    "zipcode": "21110",
    "name": "Union Colila",
    "region": "Puno",
    "short_region": "21",
    "lat": "-15.719600",
    "lon": "-70.111900"
  },
  {
    "id": "890276",
    "country": "PE",
    "zipcode": "21110",
    "name": "Tumoco Mocco",
    "region": "Puno",
    "short_region": "21",
    "lat": "-15.729700",
    "lon": "-70.042200"
  },
  {
    "id": "890277",
    "country": "PE",
    "zipcode": "21110",
    "name": "Totorani Chico",
    "region": "Puno",
    "short_region": "21",
    "lat": "-15.768500",
    "lon": "-70.096500"
  },
  {
    "id": "890278",
    "country": "PE",
    "zipcode": "21110",
    "name": "Titijake",
    "region": "Puno",
    "short_region": "21",
    "lat": "-15.789900",
    "lon": "-70.068100"
  },
  {
    "id": "890279",
    "country": "PE",
    "zipcode": "21110",
    "name": "Ticonamoco",
    "region": "Puno",
    "short_region": "21",
    "lat": "-15.680000",
    "lon": "-70.070000"
  },
  {
    "id": "890280",
    "country": "PE",
    "zipcode": "21110",
    "name": "Tican",
    "region": "Puno",
    "short_region": "21",
    "lat": "-15.684100",
    "lon": "-70.045600"
  },
  {
    "id": "890281",
    "country": "PE",
    "zipcode": "21110",
    "name": "Sucaire",
    "region": "Puno",
    "short_region": "21",
    "lat": "-15.650000",
    "lon": "-70.064200"
  },
  {
    "id": "890282",
    "country": "PE",
    "zipcode": "21110",
    "name": "Sipicachipampa (Sincache)",
    "region": "Puno",
    "short_region": "21",
    "lat": "-15.763400",
    "lon": "-70.053400"
  },
  {
    "id": "890283",
    "country": "PE",
    "zipcode": "21110",
    "name": "Sachas",
    "region": "Puno",
    "short_region": "21",
    "lat": "-15.723200",
    "lon": "-70.045500"
  },
  {
    "id": "890284",
    "country": "PE",
    "zipcode": "21110",
    "name": "Yanamocco",
    "region": "Puno",
    "short_region": "21",
    "lat": "-15.703400",
    "lon": "-70.040400"
  },
  {
    "id": "890285",
    "country": "PE",
    "zipcode": "21110",
    "name": "Remocco",
    "region": "Puno",
    "short_region": "21",
    "lat": "-15.676500",
    "lon": "-70.051200"
  },
  {
    "id": "890286",
    "country": "PE",
    "zipcode": "21110",
    "name": "Quita Pulpera",
    "region": "Puno",
    "short_region": "21",
    "lat": "-15.759800",
    "lon": "-70.051900"
  },
  {
    "id": "890287",
    "country": "PE",
    "zipcode": "21110",
    "name": "Putucuni",
    "region": "Puno",
    "short_region": "21",
    "lat": "-15.785400",
    "lon": "-70.064800"
  },
  {
    "id": "890288",
    "country": "PE",
    "zipcode": "21110",
    "name": "Puquiani",
    "region": "Puno",
    "short_region": "21",
    "lat": "-15.670700",
    "lon": "-70.012800"
  },
  {
    "id": "890289",
    "country": "PE",
    "zipcode": "21110",
    "name": "Pucamoco",
    "region": "Puno",
    "short_region": "21",
    "lat": "-15.758500",
    "lon": "-70.070800"
  },
  {
    "id": "890290",
    "country": "PE",
    "zipcode": "21110",
    "name": "Pucamayo Pampa",
    "region": "Puno",
    "short_region": "21",
    "lat": "-15.712800",
    "lon": "-70.064900"
  },
  {
    "id": "890291",
    "country": "PE",
    "zipcode": "21110",
    "name": "Patallani (San Jose de Collana)",
    "region": "Puno",
    "short_region": "21",
    "lat": "-15.790600",
    "lon": "-70.041800"
  },
  {
    "id": "890292",
    "country": "PE",
    "zipcode": "21110",
    "name": "Pampa Mocho Contaduria",
    "region": "Puno",
    "short_region": "21",
    "lat": "-15.665900",
    "lon": "-70.020900"
  },
  {
    "id": "890293",
    "country": "PE",
    "zipcode": "21110",
    "name": "Pampa Jiñata",
    "region": "Puno",
    "short_region": "21",
    "lat": "-15.686900",
    "lon": "-70.035700"
  },
  {
    "id": "890294",
    "country": "PE",
    "zipcode": "21110",
    "name": "Palcapata",
    "region": "Puno",
    "short_region": "21",
    "lat": "-15.750100",
    "lon": "-70.084000"
  },
  {
    "id": "890295",
    "country": "PE",
    "zipcode": "21110",
    "name": "Santa Barbara",
    "region": "Puno",
    "short_region": "21",
    "lat": "-15.734700",
    "lon": "-70.035900"
  },
  {
    "id": "890296",
    "country": "PE",
    "zipcode": "21110",
    "name": "San Martin",
    "region": "Puno",
    "short_region": "21",
    "lat": "-15.735500",
    "lon": "-70.131900"
  },
  {
    "id": "890297",
    "country": "PE",
    "zipcode": "21110",
    "name": "Pachacuro",
    "region": "Puno",
    "short_region": "21",
    "lat": "-15.671500",
    "lon": "-70.057000"
  },
  {
    "id": "890298",
    "country": "PE",
    "zipcode": "21110",
    "name": "Paccha",
    "region": "Puno",
    "short_region": "21",
    "lat": "-15.750900",
    "lon": "-70.052800"
  },
  {
    "id": "890299",
    "country": "PE",
    "zipcode": "21110",
    "name": "Otorongo",
    "region": "Puno",
    "short_region": "21",
    "lat": "-15.754100",
    "lon": "-70.126700"
  },
  {
    "id": "890300",
    "country": "PE",
    "zipcode": "21110",
    "name": "Machallata",
    "region": "Puno",
    "short_region": "21",
    "lat": "-15.781200",
    "lon": "-70.076400"
  },
  {
    "id": "890301",
    "country": "PE",
    "zipcode": "21110",
    "name": "Llocajache",
    "region": "Puno",
    "short_region": "21",
    "lat": "-15.745300",
    "lon": "-70.037300"
  },
  {
    "id": "890302",
    "country": "PE",
    "zipcode": "21110",
    "name": "Illpa Mayo Pata",
    "region": "Puno",
    "short_region": "21",
    "lat": "-15.700200",
    "lon": "-70.065600"
  },
  {
    "id": "890303",
    "country": "PE",
    "zipcode": "21110",
    "name": "Illpa",
    "region": "Puno",
    "short_region": "21",
    "lat": "-15.712500",
    "lon": "-70.083200"
  },
  {
    "id": "890304",
    "country": "PE",
    "zipcode": "21110",
    "name": "Ilata",
    "region": "Puno",
    "short_region": "21",
    "lat": "-15.671800",
    "lon": "-70.004400"
  },
  {
    "id": "890305",
    "country": "PE",
    "zipcode": "21110",
    "name": "Pampa Yanico Rumini",
    "region": "Puno",
    "short_region": "21",
    "lat": "-15.705000",
    "lon": "-70.101200"
  },
  {
    "id": "890306",
    "country": "PE",
    "zipcode": "21110",
    "name": "Huasaccata",
    "region": "Puno",
    "short_region": "21",
    "lat": "-15.744900",
    "lon": "-70.066000"
  },
  {
    "id": "890307",
    "country": "PE",
    "zipcode": "21110",
    "name": "Huancanepata Collana",
    "region": "Puno",
    "short_region": "21",
    "lat": "-15.767600",
    "lon": "-70.060600"
  },
  {
    "id": "890308",
    "country": "PE",
    "zipcode": "21110",
    "name": "Estacion Llpa",
    "region": "Puno",
    "short_region": "21",
    "lat": "-15.674400",
    "lon": "-70.065100"
  },
  {
    "id": "890309",
    "country": "PE",
    "zipcode": "21110",
    "name": "Esparani",
    "region": "Puno",
    "short_region": "21",
    "lat": "-15.725600",
    "lon": "-70.108600"
  },
  {
    "id": "890310",
    "country": "PE",
    "zipcode": "21110",
    "name": "Llantapampa",
    "region": "Puno",
    "short_region": "21",
    "lat": "-15.734200",
    "lon": "-70.069800"
  },
  {
    "id": "890311",
    "country": "PE",
    "zipcode": "21110",
    "name": "Cueva",
    "region": "Puno",
    "short_region": "21",
    "lat": "-15.764700",
    "lon": "-70.105000"
  },
  {
    "id": "890312",
    "country": "PE",
    "zipcode": "21110",
    "name": "Corte Estacion Anexo Moro",
    "region": "Puno",
    "short_region": "21",
    "lat": "-15.691700",
    "lon": "-70.065100"
  },
  {
    "id": "890313",
    "country": "PE",
    "zipcode": "21110",
    "name": "Corte Estacion",
    "region": "Puno",
    "short_region": "21",
    "lat": "-15.729600",
    "lon": "-70.046900"
  },
  {
    "id": "890314",
    "country": "PE",
    "zipcode": "21110",
    "name": "Colline",
    "region": "Puno",
    "short_region": "21",
    "lat": "-15.774200",
    "lon": "-70.072900"
  },
  {
    "id": "890315",
    "country": "PE",
    "zipcode": "21110",
    "name": "Collao Muñani",
    "region": "Puno",
    "short_region": "21",
    "lat": "-15.736500",
    "lon": "-70.113500"
  },
  {
    "id": "890316",
    "country": "PE",
    "zipcode": "21110",
    "name": "Colila",
    "region": "Puno",
    "short_region": "21",
    "lat": "-15.731100",
    "lon": "-70.124900"
  },
  {
    "id": "890317",
    "country": "PE",
    "zipcode": "21110",
    "name": "Cojelaca",
    "region": "Puno",
    "short_region": "21",
    "lat": "-15.664200",
    "lon": "-70.055300"
  },
  {
    "id": "890318",
    "country": "PE",
    "zipcode": "21110",
    "name": "Coajata",
    "region": "Puno",
    "short_region": "21",
    "lat": "-15.725000",
    "lon": "-70.072900"
  },
  {
    "id": "890319",
    "country": "PE",
    "zipcode": "21110",
    "name": "Cihuarahueco",
    "region": "Puno",
    "short_region": "21",
    "lat": "-15.783700",
    "lon": "-70.094100"
  },
  {
    "id": "890320",
    "country": "PE",
    "zipcode": "21110",
    "name": "Chulayarapata",
    "region": "Puno",
    "short_region": "21",
    "lat": "-15.750200",
    "lon": "-70.062500"
  },
  {
    "id": "890321",
    "country": "PE",
    "zipcode": "21110",
    "name": "Chularani",
    "region": "Puno",
    "short_region": "21",
    "lat": "-15.754100",
    "lon": "-70.075400"
  },
  {
    "id": "890322",
    "country": "PE",
    "zipcode": "21110",
    "name": "Accopata",
    "region": "Puno",
    "short_region": "21",
    "lat": "-15.662900",
    "lon": "-70.075500"
  },
  {
    "id": "890323",
    "country": "PE",
    "zipcode": "21110",
    "name": "Jucuni",
    "region": "Puno",
    "short_region": "21",
    "lat": "-15.669000",
    "lon": "-70.046000"
  },
  {
    "id": "890324",
    "country": "PE",
    "zipcode": "21110",
    "name": "Chulara",
    "region": "Puno",
    "short_region": "21",
    "lat": "-15.755500",
    "lon": "-70.073500"
  },
  {
    "id": "890325",
    "country": "PE",
    "zipcode": "21110",
    "name": "Chingarani",
    "region": "Puno",
    "short_region": "21",
    "lat": "-15.752800",
    "lon": "-70.148200"
  },
  {
    "id": "890326",
    "country": "PE",
    "zipcode": "21110",
    "name": "Chacomocco",
    "region": "Puno",
    "short_region": "21",
    "lat": "-15.758300",
    "lon": "-70.062100"
  },
  {
    "id": "890327",
    "country": "PE",
    "zipcode": "21110",
    "name": "Ccocotea",
    "region": "Puno",
    "short_region": "21",
    "lat": "-15.737900",
    "lon": "-70.052400"
  },
  {
    "id": "890328",
    "country": "PE",
    "zipcode": "21110",
    "name": "Ccarihuatana Pata",
    "region": "Puno",
    "short_region": "21",
    "lat": "-15.756100",
    "lon": "-70.086000"
  },
  {
    "id": "890329",
    "country": "PE",
    "zipcode": "21110",
    "name": "Cancharani",
    "region": "Puno",
    "short_region": "21",
    "lat": "-15.718100",
    "lon": "-70.060100"
  },
  {
    "id": "890330",
    "country": "PE",
    "zipcode": "21110",
    "name": "Caminaco",
    "region": "Puno",
    "short_region": "21",
    "lat": "-15.680900",
    "lon": "-70.013900"
  },
  {
    "id": "890331",
    "country": "PE",
    "zipcode": "21110",
    "name": "Callanqoma",
    "region": "Puno",
    "short_region": "21",
    "lat": "-15.771000",
    "lon": "-70.090600"
  },
  {
    "id": "890332",
    "country": "PE",
    "zipcode": "21110",
    "name": "Cacapunco",
    "region": "Puno",
    "short_region": "21",
    "lat": "-15.772900",
    "lon": "-70.084400"
  },
  {
    "id": "890333",
    "country": "PE",
    "zipcode": "21110",
    "name": "Bernahuecco",
    "region": "Puno",
    "short_region": "21",
    "lat": "-15.784700",
    "lon": "-70.050900"
  },
  {
    "id": "890334",
    "country": "PE",
    "zipcode": "21110",
    "name": "Antoniane",
    "region": "Puno",
    "short_region": "21",
    "lat": "-15.779600",
    "lon": "-70.091800"
  },
  {
    "id": "890335",
    "country": "PE",
    "zipcode": "21110",
    "name": "Titile",
    "region": "Puno",
    "short_region": "21",
    "lat": "-15.743300",
    "lon": "-70.087600"
  },
  {
    "id": "890336",
    "country": "PE",
    "zipcode": "21110",
    "name": "Sora Occo",
    "region": "Puno",
    "short_region": "21",
    "lat": "-15.772000",
    "lon": "-70.056700"
  },
  {
    "id": "890337",
    "country": "PE",
    "zipcode": "21110",
    "name": "Moro",
    "region": "Puno",
    "short_region": "21",
    "lat": "-15.686200",
    "lon": "-69.959600"
  },
  {
    "id": "890338",
    "country": "PE",
    "zipcode": "21110",
    "name": "Paucarcolla",
    "region": "Puno",
    "short_region": "21",
    "lat": "-15.733300",
    "lon": "-70.050000"
  },
  {
    "id": "890339",
    "country": "PE",
    "zipcode": "21110",
    "name": "Palca",
    "region": "Puno",
    "short_region": "21",
    "lat": "-15.704200",
    "lon": "-70.032200"
  },
  {
    "id": "890340",
    "country": "PE",
    "zipcode": "21110",
    "name": "Cupe",
    "region": "Puno",
    "short_region": "21",
    "lat": "-15.722400",
    "lon": "-70.102900"
  },
  {
    "id": "890341",
    "country": "PE",
    "zipcode": "21110",
    "name": "Chale",
    "region": "Puno",
    "short_region": "21",
    "lat": "-15.728500",
    "lon": "-70.086800"
  },
  {
    "id": "890342",
    "country": "PE",
    "zipcode": "21110",
    "name": "Incañan Pampa",
    "region": "Puno",
    "short_region": "21",
    "lat": "-15.761900",
    "lon": "-70.046600"
  },
  {
    "id": "890343",
    "country": "PE",
    "zipcode": "21110",
    "name": "Chupa Pampa",
    "region": "Puno",
    "short_region": "21",
    "lat": "-15.772100",
    "lon": "-70.073300"
  },
  {
    "id": "890344",
    "country": "PE",
    "zipcode": "21110",
    "name": "Winicunca Belen Totorani",
    "region": "Puno",
    "short_region": "21",
    "lat": "-15.790600",
    "lon": "-70.069300"
  },
  {
    "id": "890345",
    "country": "PE",
    "zipcode": "21110",
    "name": "Yanico Rumini",
    "region": "Puno",
    "short_region": "21",
    "lat": "-15.707700",
    "lon": "-70.098600"
  },
  {
    "id": "890346",
    "country": "PE",
    "zipcode": "21110",
    "name": "Yurac Chupa Ccacapunco",
    "region": "Puno",
    "short_region": "21",
    "lat": "-15.774900",
    "lon": "-70.088500"
  },
  {
    "id": "890347",
    "country": "PE",
    "zipcode": "21110",
    "name": "Yuracchupa (Yuracmocco)",
    "region": "Puno",
    "short_region": "21",
    "lat": "-15.767600",
    "lon": "-70.078800"
  },
  {
    "id": "890348",
    "country": "PE",
    "zipcode": "21110",
    "name": "Illpa Mayopata Quellomocc",
    "region": "Puno",
    "short_region": "21",
    "lat": "-15.697100",
    "lon": "-70.039200"
  },
  {
    "id": "890349",
    "country": "PE",
    "zipcode": "21110",
    "name": "Jilanca",
    "region": "Puno",
    "short_region": "21",
    "lat": "-15.754800",
    "lon": "-70.095300"
  },
  {
    "id": "890350",
    "country": "PE",
    "zipcode": "21110",
    "name": "Lichihuma",
    "region": "Puno",
    "short_region": "21",
    "lat": "-15.730600",
    "lon": "-70.070500"
  },
  {
    "id": "890351",
    "country": "PE",
    "zipcode": "21110",
    "name": "Lifunge",
    "region": "Puno",
    "short_region": "21",
    "lat": "-15.759800",
    "lon": "-70.085500"
  },
  {
    "id": "890352",
    "country": "PE",
    "zipcode": "21110",
    "name": "Llanta Pampa",
    "region": "Puno",
    "short_region": "21",
    "lat": "-15.723900",
    "lon": "-70.049100"
  },
  {
    "id": "890353",
    "country": "PE",
    "zipcode": "21110",
    "name": "Accomarine Alcomarine",
    "region": "Puno",
    "short_region": "21",
    "lat": "-15.705800",
    "lon": "-70.046400"
  },
  {
    "id": "890354",
    "country": "PE",
    "zipcode": "21110",
    "name": "Ajuino",
    "region": "Puno",
    "short_region": "21",
    "lat": "-15.782800",
    "lon": "-70.051200"
  },
  {
    "id": "890355",
    "country": "PE",
    "zipcode": "21110",
    "name": "Alcamarini Belen Totorani",
    "region": "Puno",
    "short_region": "21",
    "lat": "-15.786700",
    "lon": "-70.056800"
  },
  {
    "id": "890356",
    "country": "PE",
    "zipcode": "21110",
    "name": "Allocucho",
    "region": "Puno",
    "short_region": "21",
    "lat": "-15.756700",
    "lon": "-70.051200"
  },
  {
    "id": "890357",
    "country": "PE",
    "zipcode": "21110",
    "name": "Alto Chulara",
    "region": "Puno",
    "short_region": "21",
    "lat": "-15.738600",
    "lon": "-70.076200"
  },
  {
    "id": "890358",
    "country": "PE",
    "zipcode": "21110",
    "name": "Huancarane",
    "region": "Puno",
    "short_region": "21",
    "lat": "-15.716700",
    "lon": "-70.072100"
  },
  {
    "id": "890359",
    "country": "PE",
    "zipcode": "21110",
    "name": "Apacheta",
    "region": "Puno",
    "short_region": "21",
    "lat": "-15.726300",
    "lon": "-70.067100"
  },
  {
    "id": "890360",
    "country": "PE",
    "zipcode": "21113",
    "name": "Atuncolla",
    "region": "Puno",
    "short_region": "21",
    "lat": "-15.683300",
    "lon": "-70.150000"
  },
  {
    "id": "890361",
    "country": "PE",
    "zipcode": "21115",
    "name": "Llungo",
    "region": "Puno",
    "short_region": "21",
    "lat": "-15.698100",
    "lon": "-70.193600"
  },
  {
    "id": "890362",
    "country": "PE",
    "zipcode": "21115",
    "name": "Umayo",
    "region": "Puno",
    "short_region": "21",
    "lat": "-15.723700",
    "lon": "-70.143000"
  },
  {
    "id": "890363",
    "country": "PE",
    "zipcode": "21115",
    "name": "Collana",
    "region": "Puno",
    "short_region": "21",
    "lat": "-15.680300",
    "lon": "-70.170000"
  },
  {
    "id": "890364",
    "country": "PE",
    "zipcode": "21115",
    "name": "Chejollani",
    "region": "Puno",
    "short_region": "21",
    "lat": "-15.503400",
    "lon": "-69.900900"
  },
  {
    "id": "890365",
    "country": "PE",
    "zipcode": "21115",
    "name": "Cabana Mocco Altos Pata",
    "region": "Puno",
    "short_region": "21",
    "lat": "-15.685100",
    "lon": "-70.097600"
  },
  {
    "id": "890366",
    "country": "PE",
    "zipcode": "21115",
    "name": "Chimpa Ullagachi",
    "region": "Puno",
    "short_region": "21",
    "lat": "-15.713100",
    "lon": "-70.198100"
  },
  {
    "id": "890367",
    "country": "PE",
    "zipcode": "21115",
    "name": "Chumilaqui Pata",
    "region": "Puno",
    "short_region": "21",
    "lat": "-15.736700",
    "lon": "-70.147000"
  },
  {
    "id": "890368",
    "country": "PE",
    "zipcode": "21115",
    "name": "San Salvador Buena Vista",
    "region": "Puno",
    "short_region": "21",
    "lat": "-15.652600",
    "lon": "-70.099500"
  },
  {
    "id": "890369",
    "country": "PE",
    "zipcode": "21115",
    "name": "San Geronimo Ullagachi",
    "region": "Puno",
    "short_region": "21",
    "lat": "-15.709400",
    "lon": "-70.208300"
  },
  {
    "id": "890370",
    "country": "PE",
    "zipcode": "21115",
    "name": "Ticani Chupapata",
    "region": "Puno",
    "short_region": "21",
    "lat": "-15.680600",
    "lon": "-70.152700"
  },
  {
    "id": "890371",
    "country": "PE",
    "zipcode": "21115",
    "name": "Ticani Pampa",
    "region": "Puno",
    "short_region": "21",
    "lat": "-15.695300",
    "lon": "-70.112800"
  },
  {
    "id": "890372",
    "country": "PE",
    "zipcode": "21115",
    "name": "Ayrampune",
    "region": "Puno",
    "short_region": "21",
    "lat": "-15.683900",
    "lon": "-70.230100"
  },
  {
    "id": "890373",
    "country": "PE",
    "zipcode": "21115",
    "name": "Asuncion Buenavista",
    "region": "Puno",
    "short_region": "21",
    "lat": "-15.648900",
    "lon": "-70.119100"
  },
  {
    "id": "890374",
    "country": "PE",
    "zipcode": "21115",
    "name": "San Jose Principio",
    "region": "Puno",
    "short_region": "21",
    "lat": "-15.657400",
    "lon": "-70.165900"
  },
  {
    "id": "890375",
    "country": "PE",
    "zipcode": "21115",
    "name": "Quispipata",
    "region": "Puno",
    "short_region": "21",
    "lat": "-15.663800",
    "lon": "-70.117100"
  },
  {
    "id": "890376",
    "country": "PE",
    "zipcode": "21115",
    "name": "San Pedro Patas",
    "region": "Puno",
    "short_region": "21",
    "lat": "-15.711800",
    "lon": "-70.158400"
  },
  {
    "id": "890377",
    "country": "PE",
    "zipcode": "21115",
    "name": "Quillora",
    "region": "Puno",
    "short_region": "21",
    "lat": "-15.713600",
    "lon": "-70.130700"
  },
  {
    "id": "890378",
    "country": "PE",
    "zipcode": "21115",
    "name": "Pukra",
    "region": "Puno",
    "short_region": "21",
    "lat": "-15.701400",
    "lon": "-70.148000"
  },
  {
    "id": "890379",
    "country": "PE",
    "zipcode": "21115",
    "name": "Pucachupa Pampa",
    "region": "Puno",
    "short_region": "21",
    "lat": "-15.705700",
    "lon": "-70.128900"
  },
  {
    "id": "890380",
    "country": "PE",
    "zipcode": "21115",
    "name": "Pata Pujio",
    "region": "Puno",
    "short_region": "21",
    "lat": "-15.694700",
    "lon": "-70.141700"
  },
  {
    "id": "890381",
    "country": "PE",
    "zipcode": "21115",
    "name": "Parani",
    "region": "Puno",
    "short_region": "21",
    "lat": "-15.713700",
    "lon": "-70.168400"
  },
  {
    "id": "890382",
    "country": "PE",
    "zipcode": "21115",
    "name": "Micaela Bastidas de Yanamocco",
    "region": "Puno",
    "short_region": "21",
    "lat": "-15.680300",
    "lon": "-70.100200"
  },
  {
    "id": "890383",
    "country": "PE",
    "zipcode": "21115",
    "name": "Los Angeles Buena Vista",
    "region": "Puno",
    "short_region": "21",
    "lat": "-15.639300",
    "lon": "-70.120400"
  },
  {
    "id": "890384",
    "country": "PE",
    "zipcode": "21115",
    "name": "Llulluchane",
    "region": "Puno",
    "short_region": "21",
    "lat": "-15.671700",
    "lon": "-70.120400"
  },
  {
    "id": "890385",
    "country": "PE",
    "zipcode": "21115",
    "name": "Llantapata",
    "region": "Puno",
    "short_region": "21",
    "lat": "-15.695900",
    "lon": "-70.177300"
  },
  {
    "id": "890386",
    "country": "PE",
    "zipcode": "21115",
    "name": "Juria",
    "region": "Puno",
    "short_region": "21",
    "lat": "-15.700000",
    "lon": "-70.138900"
  },
  {
    "id": "890387",
    "country": "PE",
    "zipcode": "21115",
    "name": "Jipa Grande (Jipa Chico)",
    "region": "Puno",
    "short_region": "21",
    "lat": "-15.666100",
    "lon": "-70.104200"
  },
  {
    "id": "890388",
    "country": "PE",
    "zipcode": "21115",
    "name": "Patacancha",
    "region": "Puno",
    "short_region": "21",
    "lat": "-15.682400",
    "lon": "-70.153400"
  },
  {
    "id": "890389",
    "country": "PE",
    "zipcode": "21115",
    "name": "Isturi",
    "region": "Puno",
    "short_region": "21",
    "lat": "-15.695300",
    "lon": "-70.148800"
  },
  {
    "id": "890390",
    "country": "PE",
    "zipcode": "21115",
    "name": "Illpa Pampa",
    "region": "Puno",
    "short_region": "21",
    "lat": "-15.664100",
    "lon": "-70.081700"
  },
  {
    "id": "890391",
    "country": "PE",
    "zipcode": "21115",
    "name": "Fundicion I",
    "region": "Puno",
    "short_region": "21",
    "lat": "-15.704100",
    "lon": "-70.138600"
  },
  {
    "id": "890392",
    "country": "PE",
    "zipcode": "21115",
    "name": "Epiña Isla",
    "region": "Puno",
    "short_region": "21",
    "lat": "-15.707600",
    "lon": "-70.116900"
  },
  {
    "id": "890393",
    "country": "PE",
    "zipcode": "21115",
    "name": "Colline",
    "region": "Puno",
    "short_region": "21",
    "lat": "-15.722900",
    "lon": "-70.127000"
  },
  {
    "id": "890394",
    "country": "PE",
    "zipcode": "21115",
    "name": "Colca Grande (Colca Chupa)",
    "region": "Puno",
    "short_region": "21",
    "lat": "-15.672200",
    "lon": "-70.137500"
  },
  {
    "id": "890395",
    "country": "PE",
    "zipcode": "21115",
    "name": "Colca",
    "region": "Puno",
    "short_region": "21",
    "lat": "-15.672400",
    "lon": "-70.153700"
  },
  {
    "id": "890396",
    "country": "PE",
    "zipcode": "21115",
    "name": "Chumpihuaru Pampa",
    "region": "Puno",
    "short_region": "21",
    "lat": "-15.682200",
    "lon": "-70.111700"
  },
  {
    "id": "890397",
    "country": "PE",
    "zipcode": "21115",
    "name": "Chumpihuaro",
    "region": "Puno",
    "short_region": "21",
    "lat": "-15.681900",
    "lon": "-70.132200"
  },
  {
    "id": "890398",
    "country": "PE",
    "zipcode": "21115",
    "name": "Virgen Soledad Cochela",
    "region": "Puno",
    "short_region": "21",
    "lat": "-15.659700",
    "lon": "-70.158300"
  },
  {
    "id": "890399",
    "country": "PE",
    "zipcode": "21115",
    "name": "Chimpa Llungo",
    "region": "Puno",
    "short_region": "21",
    "lat": "-15.693500",
    "lon": "-70.204000"
  },
  {
    "id": "890400",
    "country": "PE",
    "zipcode": "21115",
    "name": "Chaqui Mayu Pata Circa Ayamocco",
    "region": "Puno",
    "short_region": "21",
    "lat": "-15.682200",
    "lon": "-70.118100"
  },
  {
    "id": "890401",
    "country": "PE",
    "zipcode": "21115",
    "name": "Challhuayoc Mayo",
    "region": "Puno",
    "short_region": "21",
    "lat": "-15.703300",
    "lon": "-70.149600"
  },
  {
    "id": "890402",
    "country": "PE",
    "zipcode": "21115",
    "name": "Ccomermocco",
    "region": "Puno",
    "short_region": "21",
    "lat": "-15.686500",
    "lon": "-70.115800"
  },
  {
    "id": "890403",
    "country": "PE",
    "zipcode": "21115",
    "name": "Cayllacucho",
    "region": "Puno",
    "short_region": "21",
    "lat": "-15.688100",
    "lon": "-70.141600"
  },
  {
    "id": "890404",
    "country": "PE",
    "zipcode": "21115",
    "name": "Caracora",
    "region": "Puno",
    "short_region": "21",
    "lat": "-15.658000",
    "lon": "-70.112800"
  },
  {
    "id": "890405",
    "country": "PE",
    "zipcode": "21115",
    "name": "Cajonpujio",
    "region": "Puno",
    "short_region": "21",
    "lat": "-15.734200",
    "lon": "-70.138000"
  },
  {
    "id": "890406",
    "country": "PE",
    "zipcode": "21115",
    "name": "Cacsi",
    "region": "Puno",
    "short_region": "21",
    "lat": "-15.722600",
    "lon": "-70.184800"
  },
  {
    "id": "890407",
    "country": "PE",
    "zipcode": "21115",
    "name": "Cruz Chupa",
    "region": "Puno",
    "short_region": "21",
    "lat": "-15.693700",
    "lon": "-70.136400"
  },
  {
    "id": "890408",
    "country": "PE",
    "zipcode": "21115",
    "name": "Yanamocco",
    "region": "Puno",
    "short_region": "21",
    "lat": "-15.674000",
    "lon": "-70.085800"
  },
  {
    "id": "890409",
    "country": "PE",
    "zipcode": "21115",
    "name": "Isla",
    "region": "Puno",
    "short_region": "21",
    "lat": "-15.733500",
    "lon": "-70.165600"
  },
  {
    "id": "890410",
    "country": "PE",
    "zipcode": "21115",
    "name": "Fundicion",
    "region": "Puno",
    "short_region": "21",
    "lat": "-15.675600",
    "lon": "-70.221200"
  },
  {
    "id": "890411",
    "country": "PE",
    "zipcode": "21115",
    "name": "Muyugache",
    "region": "Puno",
    "short_region": "21",
    "lat": "-15.688400",
    "lon": "-70.130100"
  },
  {
    "id": "890412",
    "country": "PE",
    "zipcode": "21115",
    "name": "Aligrande",
    "region": "Puno",
    "short_region": "21",
    "lat": "-15.692100",
    "lon": "-70.145700"
  },
  {
    "id": "890413",
    "country": "PE",
    "zipcode": "21115",
    "name": "Sollata",
    "region": "Puno",
    "short_region": "21",
    "lat": "-15.680900",
    "lon": "-70.195400"
  },
  {
    "id": "890414",
    "country": "PE",
    "zipcode": "21115",
    "name": "Pampilla Ullagachi",
    "region": "Puno",
    "short_region": "21",
    "lat": "-15.709400",
    "lon": "-70.215200"
  },
  {
    "id": "890415",
    "country": "PE",
    "zipcode": "21115",
    "name": "Palcamayo",
    "region": "Puno",
    "short_region": "21",
    "lat": "-15.684200",
    "lon": "-70.117900"
  },
  {
    "id": "890416",
    "country": "PE",
    "zipcode": "21115",
    "name": "Muñani Ullagachi",
    "region": "Puno",
    "short_region": "21",
    "lat": "-15.711900",
    "lon": "-70.209600"
  },
  {
    "id": "890417",
    "country": "PE",
    "zipcode": "21115",
    "name": "Santa Barbara",
    "region": "Puno",
    "short_region": "21",
    "lat": "-15.683900",
    "lon": "-70.149600"
  },
  {
    "id": "890418",
    "country": "PE",
    "zipcode": "21116",
    "name": "Vizcachani",
    "region": "Puno",
    "short_region": "21",
    "lat": "-15.601300",
    "lon": "-69.987400"
  },
  {
    "id": "890419",
    "country": "PE",
    "zipcode": "21116",
    "name": "Tinque Mocco",
    "region": "Puno",
    "short_region": "21",
    "lat": "-15.568400",
    "lon": "-70.000800"
  },
  {
    "id": "890420",
    "country": "PE",
    "zipcode": "21116",
    "name": "Carata",
    "region": "Puno",
    "short_region": "21",
    "lat": "-15.626700",
    "lon": "-69.922400"
  },
  {
    "id": "890421",
    "country": "PE",
    "zipcode": "21116",
    "name": "Crucero Pampa",
    "region": "Puno",
    "short_region": "21",
    "lat": "-15.605900",
    "lon": "-69.957400"
  },
  {
    "id": "890422",
    "country": "PE",
    "zipcode": "21116",
    "name": "Candile",
    "region": "Puno",
    "short_region": "21",
    "lat": "-15.617600",
    "lon": "-69.941000"
  },
  {
    "id": "890423",
    "country": "PE",
    "zipcode": "21116",
    "name": "Uros Titino",
    "region": "Puno",
    "short_region": "21",
    "lat": "-15.656600",
    "lon": "-69.936700"
  },
  {
    "id": "890424",
    "country": "PE",
    "zipcode": "21116",
    "name": "Tufrechaqui",
    "region": "Puno",
    "short_region": "21",
    "lat": "-15.616400",
    "lon": "-69.956000"
  },
  {
    "id": "890425",
    "country": "PE",
    "zipcode": "21116",
    "name": "Tufre",
    "region": "Puno",
    "short_region": "21",
    "lat": "-15.614900",
    "lon": "-69.957500"
  },
  {
    "id": "890426",
    "country": "PE",
    "zipcode": "21116",
    "name": "Llancaco",
    "region": "Puno",
    "short_region": "21",
    "lat": "-15.638500",
    "lon": "-69.954700"
  },
  {
    "id": "890427",
    "country": "PE",
    "zipcode": "21116",
    "name": "Apacheta",
    "region": "Puno",
    "short_region": "21",
    "lat": "-15.610400",
    "lon": "-69.973200"
  },
  {
    "id": "890428",
    "country": "PE",
    "zipcode": "21116",
    "name": "Morro Yasin Mocco",
    "region": "Puno",
    "short_region": "21",
    "lat": "-15.653500",
    "lon": "-69.936100"
  },
  {
    "id": "890429",
    "country": "PE",
    "zipcode": "21116",
    "name": "Negroni",
    "region": "Puno",
    "short_region": "21",
    "lat": "-15.674700",
    "lon": "-69.949500"
  },
  {
    "id": "890430",
    "country": "PE",
    "zipcode": "21116",
    "name": "Paulo Mocco",
    "region": "Puno",
    "short_region": "21",
    "lat": "-15.617200",
    "lon": "-69.998700"
  },
  {
    "id": "890431",
    "country": "PE",
    "zipcode": "21116",
    "name": "Pari Esquina",
    "region": "Puno",
    "short_region": "21",
    "lat": "-15.627300",
    "lon": "-70.011700"
  },
  {
    "id": "890432",
    "country": "PE",
    "zipcode": "21116",
    "name": "Pararani",
    "region": "Puno",
    "short_region": "21",
    "lat": "-15.621700",
    "lon": "-69.978600"
  },
  {
    "id": "890433",
    "country": "PE",
    "zipcode": "21116",
    "name": "Pancha Pampa",
    "region": "Puno",
    "short_region": "21",
    "lat": "-15.640000",
    "lon": "-69.998500"
  },
  {
    "id": "890434",
    "country": "PE",
    "zipcode": "21116",
    "name": "Pachauro",
    "region": "Puno",
    "short_region": "21",
    "lat": "-15.638800",
    "lon": "-69.935800"
  },
  {
    "id": "890435",
    "country": "PE",
    "zipcode": "21116",
    "name": "Ñuñuri",
    "region": "Puno",
    "short_region": "21",
    "lat": "-15.617000",
    "lon": "-69.962400"
  },
  {
    "id": "890436",
    "country": "PE",
    "zipcode": "21116",
    "name": "Corte",
    "region": "Puno",
    "short_region": "21",
    "lat": "-15.570700",
    "lon": "-69.953100"
  },
  {
    "id": "890437",
    "country": "PE",
    "zipcode": "21116",
    "name": "Huanina",
    "region": "Puno",
    "short_region": "21",
    "lat": "-15.634000",
    "lon": "-69.963500"
  },
  {
    "id": "890438",
    "country": "PE",
    "zipcode": "21116",
    "name": "Pillon",
    "region": "Puno",
    "short_region": "21",
    "lat": "-15.683200",
    "lon": "-69.961100"
  },
  {
    "id": "890439",
    "country": "PE",
    "zipcode": "21116",
    "name": "Titino",
    "region": "Puno",
    "short_region": "21",
    "lat": "-15.663400",
    "lon": "-69.940800"
  },
  {
    "id": "890440",
    "country": "PE",
    "zipcode": "21116",
    "name": "Pucamocco",
    "region": "Puno",
    "short_region": "21",
    "lat": "-15.616100",
    "lon": "-70.064400"
  },
  {
    "id": "890441",
    "country": "PE",
    "zipcode": "21116",
    "name": "Acopata",
    "region": "Puno",
    "short_region": "21",
    "lat": "-15.568700",
    "lon": "-70.011400"
  },
  {
    "id": "890442",
    "country": "PE",
    "zipcode": "21116",
    "name": "Airamocco",
    "region": "Puno",
    "short_region": "21",
    "lat": "-15.611900",
    "lon": "-69.978400"
  },
  {
    "id": "890443",
    "country": "PE",
    "zipcode": "21116",
    "name": "Allan Mocco",
    "region": "Puno",
    "short_region": "21",
    "lat": "-15.678700",
    "lon": "-69.971000"
  },
  {
    "id": "890444",
    "country": "PE",
    "zipcode": "21116",
    "name": "Balsero",
    "region": "Puno",
    "short_region": "21",
    "lat": "-15.655200",
    "lon": "-69.936700"
  },
  {
    "id": "890445",
    "country": "PE",
    "zipcode": "21116",
    "name": "Caijano Pata",
    "region": "Puno",
    "short_region": "21",
    "lat": "-15.602600",
    "lon": "-70.009300"
  },
  {
    "id": "890446",
    "country": "PE",
    "zipcode": "21116",
    "name": "Camiñata",
    "region": "Puno",
    "short_region": "21",
    "lat": "-15.609900",
    "lon": "-69.991400"
  },
  {
    "id": "890447",
    "country": "PE",
    "zipcode": "21116",
    "name": "Carcalla",
    "region": "Puno",
    "short_region": "21",
    "lat": "-15.604800",
    "lon": "-69.985200"
  },
  {
    "id": "890448",
    "country": "PE",
    "zipcode": "21116",
    "name": "Cercapampa",
    "region": "Puno",
    "short_region": "21",
    "lat": "-15.612900",
    "lon": "-69.983300"
  },
  {
    "id": "890449",
    "country": "PE",
    "zipcode": "21116",
    "name": "Chihuata",
    "region": "Puno",
    "short_region": "21",
    "lat": "-15.618900",
    "lon": "-70.064200"
  },
  {
    "id": "890450",
    "country": "PE",
    "zipcode": "21116",
    "name": "Chincherpampa",
    "region": "Puno",
    "short_region": "21",
    "lat": "-15.578900",
    "lon": "-69.979200"
  },
  {
    "id": "890451",
    "country": "PE",
    "zipcode": "21116",
    "name": "Chuculla",
    "region": "Puno",
    "short_region": "21",
    "lat": "-15.625900",
    "lon": "-69.964500"
  },
  {
    "id": "890452",
    "country": "PE",
    "zipcode": "21116",
    "name": "Chucuzan",
    "region": "Puno",
    "short_region": "21",
    "lat": "-15.603900",
    "lon": "-69.966700"
  },
  {
    "id": "890453",
    "country": "PE",
    "zipcode": "21116",
    "name": "Chujña Coto",
    "region": "Puno",
    "short_region": "21",
    "lat": "-15.627100",
    "lon": "-69.996000"
  },
  {
    "id": "890454",
    "country": "PE",
    "zipcode": "21116",
    "name": "Quialjachi Chupa",
    "region": "Puno",
    "short_region": "21",
    "lat": "-15.597200",
    "lon": "-69.971000"
  },
  {
    "id": "890455",
    "country": "PE",
    "zipcode": "21116",
    "name": "Yupile",
    "region": "Puno",
    "short_region": "21",
    "lat": "-15.613000",
    "lon": "-69.966300"
  },
  {
    "id": "890456",
    "country": "PE",
    "zipcode": "21116",
    "name": "Yasin",
    "region": "Puno",
    "short_region": "21",
    "lat": "-15.648300",
    "lon": "-69.947400"
  },
  {
    "id": "890457",
    "country": "PE",
    "zipcode": "21116",
    "name": "Yana Mocco Chuño Mocco",
    "region": "Puno",
    "short_region": "21",
    "lat": "-15.682000",
    "lon": "-69.967800"
  },
  {
    "id": "890458",
    "country": "PE",
    "zipcode": "21116",
    "name": "Tinajeros",
    "region": "Puno",
    "short_region": "21",
    "lat": "-15.658000",
    "lon": "-69.941300"
  },
  {
    "id": "890459",
    "country": "PE",
    "zipcode": "21116",
    "name": "Signata",
    "region": "Puno",
    "short_region": "21",
    "lat": "-15.634900",
    "lon": "-69.935700"
  },
  {
    "id": "890460",
    "country": "PE",
    "zipcode": "21116",
    "name": "Sasta Pampa",
    "region": "Puno",
    "short_region": "21",
    "lat": "-15.653700",
    "lon": "-69.990400"
  },
  {
    "id": "890461",
    "country": "PE",
    "zipcode": "21116",
    "name": "Chuquiña",
    "region": "Puno",
    "short_region": "21",
    "lat": "-15.637000",
    "lon": "-69.954100"
  },
  {
    "id": "890462",
    "country": "PE",
    "zipcode": "21116",
    "name": "Sancachi",
    "region": "Puno",
    "short_region": "21",
    "lat": "-15.626100",
    "lon": "-69.990500"
  },
  {
    "id": "890463",
    "country": "PE",
    "zipcode": "21116",
    "name": "Quivillaca",
    "region": "Puno",
    "short_region": "21",
    "lat": "-15.619600",
    "lon": "-70.005400"
  },
  {
    "id": "890464",
    "country": "PE",
    "zipcode": "21116",
    "name": "Quialjachi Pampa",
    "region": "Puno",
    "short_region": "21",
    "lat": "-15.592200",
    "lon": "-69.970100"
  },
  {
    "id": "890465",
    "country": "PE",
    "zipcode": "21116",
    "name": "Cocope",
    "region": "Puno",
    "short_region": "21",
    "lat": "-15.617500",
    "lon": "-69.971600"
  },
  {
    "id": "890466",
    "country": "PE",
    "zipcode": "21116",
    "name": "Corisi",
    "region": "Puno",
    "short_region": "21",
    "lat": "-15.658800",
    "lon": "-69.946700"
  },
  {
    "id": "890467",
    "country": "PE",
    "zipcode": "21116",
    "name": "Crucero Palca Pampa",
    "region": "Puno",
    "short_region": "21",
    "lat": "-15.603200",
    "lon": "-69.962100"
  },
  {
    "id": "890468",
    "country": "PE",
    "zipcode": "21116",
    "name": "Huarijon Pampa",
    "region": "Puno",
    "short_region": "21",
    "lat": "-15.641200",
    "lon": "-69.975200"
  },
  {
    "id": "890469",
    "country": "PE",
    "zipcode": "21116",
    "name": "Jiñari",
    "region": "Puno",
    "short_region": "21",
    "lat": "-15.627500",
    "lon": "-69.971700"
  },
  {
    "id": "890470",
    "country": "PE",
    "zipcode": "21116",
    "name": "Joche",
    "region": "Puno",
    "short_region": "21",
    "lat": "-15.626100",
    "lon": "-69.952900"
  },
  {
    "id": "890471",
    "country": "PE",
    "zipcode": "21116",
    "name": "Jucallata Chaqui",
    "region": "Puno",
    "short_region": "21",
    "lat": "-15.613000",
    "lon": "-69.958800"
  },
  {
    "id": "890472",
    "country": "PE",
    "zipcode": "21116",
    "name": "Juchata",
    "region": "Puno",
    "short_region": "21",
    "lat": "-15.618900",
    "lon": "-69.946400"
  },
  {
    "id": "890473",
    "country": "PE",
    "zipcode": "21116",
    "name": "Juchuy Kapy",
    "region": "Puno",
    "short_region": "21",
    "lat": "-15.661600",
    "lon": "-69.941100"
  },
  {
    "id": "890474",
    "country": "PE",
    "zipcode": "21116",
    "name": "Cruz Cunca",
    "region": "Puno",
    "short_region": "21",
    "lat": "-15.637600",
    "lon": "-69.957800"
  },
  {
    "id": "890475",
    "country": "PE",
    "zipcode": "21116",
    "name": "Puquiani",
    "region": "Puno",
    "short_region": "21",
    "lat": "-15.650200",
    "lon": "-69.963700"
  },
  {
    "id": "890476",
    "country": "PE",
    "zipcode": "21116",
    "name": "Pucarani",
    "region": "Puno",
    "short_region": "21",
    "lat": "-15.608100",
    "lon": "-69.961200"
  },
  {
    "id": "890477",
    "country": "PE",
    "zipcode": "21116",
    "name": "Pojsillin",
    "region": "Puno",
    "short_region": "21",
    "lat": "-15.653200",
    "lon": "-69.969900"
  },
  {
    "id": "890478",
    "country": "PE",
    "zipcode": "21116",
    "name": "Juchuy Moro",
    "region": "Puno",
    "short_region": "21",
    "lat": "-15.666300",
    "lon": "-69.952300"
  },
  {
    "id": "890479",
    "country": "PE",
    "zipcode": "21116",
    "name": "Juchuy Pancha",
    "region": "Puno",
    "short_region": "21",
    "lat": "-15.652900",
    "lon": "-70.000600"
  },
  {
    "id": "890480",
    "country": "PE",
    "zipcode": "21116",
    "name": "Kapice",
    "region": "Puno",
    "short_region": "21",
    "lat": "-15.612800",
    "lon": "-69.975100"
  },
  {
    "id": "890481",
    "country": "PE",
    "zipcode": "21116",
    "name": "Kapy Cruz",
    "region": "Puno",
    "short_region": "21",
    "lat": "-15.678500",
    "lon": "-69.962400"
  },
  {
    "id": "890482",
    "country": "PE",
    "zipcode": "21116",
    "name": "Machasi",
    "region": "Puno",
    "short_region": "21",
    "lat": "-15.650200",
    "lon": "-69.945600"
  },
  {
    "id": "890483",
    "country": "PE",
    "zipcode": "21116",
    "name": "Majano Chico",
    "region": "Puno",
    "short_region": "21",
    "lat": "-15.665400",
    "lon": "-69.943700"
  },
  {
    "id": "890484",
    "country": "PE",
    "zipcode": "21116",
    "name": "Majano Grande",
    "region": "Puno",
    "short_region": "21",
    "lat": "-15.668600",
    "lon": "-69.946000"
  },
  {
    "id": "890485",
    "country": "PE",
    "zipcode": "21116",
    "name": "Manco Capac",
    "region": "Puno",
    "short_region": "21",
    "lat": "-15.657500",
    "lon": "-69.938500"
  },
  {
    "id": "890486",
    "country": "PE",
    "zipcode": "21116",
    "name": "Marca Paque",
    "region": "Puno",
    "short_region": "21",
    "lat": "-15.633100",
    "lon": "-70.066500"
  },
  {
    "id": "890487",
    "country": "PE",
    "zipcode": "21116",
    "name": "Matari",
    "region": "Puno",
    "short_region": "21",
    "lat": "-15.641700",
    "lon": "-69.952700"
  },
  {
    "id": "890488",
    "country": "PE",
    "zipcode": "21116",
    "name": "Moro Viejo",
    "region": "Puno",
    "short_region": "21",
    "lat": "-15.666900",
    "lon": "-69.968400"
  },
  {
    "id": "890489",
    "country": "PE",
    "zipcode": "21117",
    "name": "Huata",
    "region": "Puno",
    "short_region": "21",
    "lat": "-15.616700",
    "lon": "-69.966700"
  },
  {
    "id": "890490",
    "country": "PE",
    "zipcode": "21119",
    "name": "Coata",
    "region": "Puno",
    "short_region": "21",
    "lat": "-15.566700",
    "lon": "-69.950000"
  },
  {
    "id": "890491",
    "country": "PE",
    "zipcode": "21120",
    "name": "Cruz Chupa",
    "region": "Puno",
    "short_region": "21",
    "lat": "-15.579000",
    "lon": "-69.885100"
  },
  {
    "id": "890492",
    "country": "PE",
    "zipcode": "21120",
    "name": "Yanamocco",
    "region": "Puno",
    "short_region": "21",
    "lat": "-15.594400",
    "lon": "-69.920600"
  },
  {
    "id": "890493",
    "country": "PE",
    "zipcode": "21120",
    "name": "Misticachi",
    "region": "Puno",
    "short_region": "21",
    "lat": "-15.526300",
    "lon": "-69.948400"
  },
  {
    "id": "890494",
    "country": "PE",
    "zipcode": "21120",
    "name": "Mamanchile",
    "region": "Puno",
    "short_region": "21",
    "lat": "-15.552800",
    "lon": "-69.955700"
  },
  {
    "id": "890495",
    "country": "PE",
    "zipcode": "21120",
    "name": "Queata",
    "region": "Puno",
    "short_region": "21",
    "lat": "-15.616700",
    "lon": "-69.918700"
  },
  {
    "id": "890496",
    "country": "PE",
    "zipcode": "21120",
    "name": "Umanche Pata",
    "region": "Puno",
    "short_region": "21",
    "lat": "-15.559000",
    "lon": "-69.902100"
  },
  {
    "id": "890497",
    "country": "PE",
    "zipcode": "21120",
    "name": "Ullari",
    "region": "Puno",
    "short_region": "21",
    "lat": "-15.525400",
    "lon": "-69.938100"
  },
  {
    "id": "890498",
    "country": "PE",
    "zipcode": "21120",
    "name": "Tucuni",
    "region": "Puno",
    "short_region": "21",
    "lat": "-15.548100",
    "lon": "-69.906200"
  },
  {
    "id": "890499",
    "country": "PE",
    "zipcode": "21120",
    "name": "Tivina",
    "region": "Puno",
    "short_region": "21",
    "lat": "-15.523500",
    "lon": "-69.949200"
  },
  {
    "id": "890500",
    "country": "PE",
    "zipcode": "21120",
    "name": "Titilino",
    "region": "Puno",
    "short_region": "21",
    "lat": "-15.575100",
    "lon": "-69.874200"
  },
  {
    "id": "890501",
    "country": "PE",
    "zipcode": "21120",
    "name": "Tarizani",
    "region": "Puno",
    "short_region": "21",
    "lat": "-15.544700",
    "lon": "-69.934700"
  },
  {
    "id": "890502",
    "country": "PE",
    "zipcode": "21120",
    "name": "Segundo Camsam",
    "region": "Puno",
    "short_region": "21",
    "lat": "-15.539400",
    "lon": "-69.919100"
  },
  {
    "id": "890503",
    "country": "PE",
    "zipcode": "21120",
    "name": "Santa Cruz de Collana",
    "region": "Puno",
    "short_region": "21",
    "lat": "-15.528600",
    "lon": "-69.946300"
  },