[
  {
    "id": "730001",
    "country": "MX",
    "zipcode": "62843",
    "name": "El Puente",
    "region": "Morelos",
    "short_region": "17",
    "lat": "18.935000",
    "lon": "-98.894500"
  },
  {
    "id": "730002",
    "country": "MX",
    "zipcode": "62843",
    "name": "El Mirador",
    "region": "Morelos",
    "short_region": "17",
    "lat": "18.935000",
    "lon": "-98.894500"
  },
  {
    "id": "730003",
    "country": "MX",
    "zipcode": "62843",
    "name": "Emiliano Zapata",
    "region": "Morelos",
    "short_region": "17",
    "lat": "18.935000",
    "lon": "-98.894500"
  },
  {
    "id": "730004",
    "country": "MX",
    "zipcode": "62844",
    "name": "San Marcos",
    "region": "Morelos",
    "short_region": "17",
    "lat": "18.935000",
    "lon": "-98.894500"
  },
  {
    "id": "730005",
    "country": "MX",
    "zipcode": "62844",
    "name": "Santa Ana",
    "region": "Morelos",
    "short_region": "17",
    "lat": "18.935000",
    "lon": "-98.894500"
  },
  {
    "id": "730006",
    "country": "MX",
    "zipcode": "62844",
    "name": "Hacienda del Rey",
    "region": "Morelos",
    "short_region": "17",
    "lat": "18.926000",
    "lon": "-98.898100"
  },
  {
    "id": "730007",
    "country": "MX",
    "zipcode": "62844",
    "name": "San Andrés",
    "region": "Morelos",
    "short_region": "17",
    "lat": "18.927900",
    "lon": "-98.899800"
  },
  {
    "id": "730008",
    "country": "MX",
    "zipcode": "62844",
    "name": "Guadalupana",
    "region": "Morelos",
    "short_region": "17",
    "lat": "18.924200",
    "lon": "-98.896400"
  },
  {
    "id": "730009",
    "country": "MX",
    "zipcode": "62845",
    "name": "Santa Inés",
    "region": "Morelos",
    "short_region": "17",
    "lat": "18.960300",
    "lon": "-98.871700"
  },
  {
    "id": "730010",
    "country": "MX",
    "zipcode": "62845",
    "name": "El Chilar",
    "region": "Morelos",
    "short_region": "17",
    "lat": "18.935000",
    "lon": "-98.894500"
  },
  {
    "id": "730011",
    "country": "MX",
    "zipcode": "62845",
    "name": "La Cascada",
    "region": "Morelos",
    "short_region": "17",
    "lat": "18.948400",
    "lon": "-98.858100"
  },
  {
    "id": "730012",
    "country": "MX",
    "zipcode": "62845",
    "name": "Centro Asturiano de México",
    "region": "Morelos",
    "short_region": "17",
    "lat": "18.948400",
    "lon": "-98.858100"
  },
  {
    "id": "730013",
    "country": "MX",
    "zipcode": "62845",
    "name": "Pozo Mancera",
    "region": "Morelos",
    "short_region": "17",
    "lat": "18.959200",
    "lon": "-98.870000"
  },
  {
    "id": "730014",
    "country": "MX",
    "zipcode": "62845",
    "name": "Telchicayac (Cabellito)",
    "region": "Morelos",
    "short_region": "17",
    "lat": "18.939900",
    "lon": "-98.885300"
  },
  {
    "id": "730015",
    "country": "MX",
    "zipcode": "62845",
    "name": "Tlaltetelco (San Miguel Tlaltetelco)",
    "region": "Morelos",
    "short_region": "17",
    "lat": "18.952200",
    "lon": "-98.888100"
  },
  {
    "id": "730016",
    "country": "MX",
    "zipcode": "62845",
    "name": "San Diego Tepantongo",
    "region": "Morelos",
    "short_region": "17",
    "lat": "18.978500",
    "lon": "-98.883200"
  },
  {
    "id": "730017",
    "country": "MX",
    "zipcode": "62845",
    "name": "El Oasis",
    "region": "Morelos",
    "short_region": "17",
    "lat": "18.976700",
    "lon": "-98.861900"
  },
  {
    "id": "730018",
    "country": "MX",
    "zipcode": "62845",
    "name": "Rancho Santa Cruz",
    "region": "Morelos",
    "short_region": "17",
    "lat": "18.932800",
    "lon": "-98.883900"
  },
  {
    "id": "730019",
    "country": "MX",
    "zipcode": "62845",
    "name": "El Astillero",
    "region": "Morelos",
    "short_region": "17",
    "lat": "18.969200",
    "lon": "-98.877200"
  },
  {
    "id": "730020",
    "country": "MX",
    "zipcode": "62845",
    "name": "Loma de Malpais",
    "region": "Morelos",
    "short_region": "17",
    "lat": "18.931900",
    "lon": "-98.865300"
  },
  {
    "id": "730021",
    "country": "MX",
    "zipcode": "62845",
    "name": "Hacienda la Alborada",
    "region": "Morelos",
    "short_region": "17",
    "lat": "18.968400",
    "lon": "-98.863300"
  },
  {
    "id": "730022",
    "country": "MX",
    "zipcode": "62846",
    "name": "Los Cerritos",
    "region": "Morelos",
    "short_region": "17",
    "lat": "18.906100",
    "lon": "-98.901400"
  },
  {
    "id": "730023",
    "country": "MX",
    "zipcode": "62846",
    "name": "Framboyanes",
    "region": "Morelos",
    "short_region": "17",
    "lat": "18.908600",
    "lon": "-98.901700"
  },
  {
    "id": "730024",
    "country": "MX",
    "zipcode": "62846",
    "name": "Achititlán",
    "region": "Morelos",
    "short_region": "17",
    "lat": "18.913500",
    "lon": "-98.899800"
  },
  {
    "id": "730025",
    "country": "MX",
    "zipcode": "62846",
    "name": "Punta de Malpais",
    "region": "Morelos",
    "short_region": "17",
    "lat": "18.913500",
    "lon": "-98.899800"
  },
  {
    "id": "730026",
    "country": "MX",
    "zipcode": "62846",
    "name": "Mochomilpa de San Francisco",
    "region": "Morelos",
    "short_region": "17",
    "lat": "18.913500",
    "lon": "-98.899800"
  },
  {
    "id": "730027",
    "country": "MX",
    "zipcode": "62846",
    "name": "La Mohonera",
    "region": "Morelos",
    "short_region": "17",
    "lat": "18.913500",
    "lon": "-98.899800"
  },
  {
    "id": "730028",
    "country": "MX",
    "zipcode": "62846",
    "name": "Kunetzin de los Volcanes",
    "region": "Morelos",
    "short_region": "17",
    "lat": "18.913500",
    "lon": "-98.899800"
  },
  {
    "id": "730029",
    "country": "MX",
    "zipcode": "62846",
    "name": "Juan Antonio",
    "region": "Morelos",
    "short_region": "17",
    "lat": "18.913500",
    "lon": "-98.899800"
  },
  {
    "id": "730030",
    "country": "MX",
    "zipcode": "62846",
    "name": "La Tortuga",
    "region": "Morelos",
    "short_region": "17",
    "lat": "18.929700",
    "lon": "-98.892200"
  },
  {
    "id": "730031",
    "country": "MX",
    "zipcode": "62846",
    "name": "San Francisco",
    "region": "Morelos",
    "short_region": "17",
    "lat": "18.896100",
    "lon": "-98.903600"
  },
  {
    "id": "730032",
    "country": "MX",
    "zipcode": "62846",
    "name": "El Salto",
    "region": "Morelos",
    "short_region": "17",
    "lat": "18.919400",
    "lon": "-98.894200"
  },
  {
    "id": "730033",
    "country": "MX",
    "zipcode": "62846",
    "name": "Telminca",
    "region": "Morelos",
    "short_region": "17",
    "lat": "18.914700",
    "lon": "-98.887500"
  },
  {
    "id": "730034",
    "country": "MX",
    "zipcode": "62846",
    "name": "El Jaral",
    "region": "Morelos",
    "short_region": "17",
    "lat": "18.905300",
    "lon": "-98.929700"
  },
  {
    "id": "730035",
    "country": "MX",
    "zipcode": "62846",
    "name": "Kilómetro 88",
    "region": "Morelos",
    "short_region": "17",
    "lat": "18.928100",
    "lon": "-98.888100"
  },
  {
    "id": "730036",
    "country": "MX",
    "zipcode": "62847",
    "name": "Lomas de Cocoyoc",
    "region": "Morelos",
    "short_region": "17",
    "lat": "18.935000",
    "lon": "-98.894500"
  },
  {
    "id": "730037",
    "country": "MX",
    "zipcode": "62847",
    "name": "Vicente Guerrero",
    "region": "Morelos",
    "short_region": "17",
    "lat": "18.943300",
    "lon": "-98.904200"
  },
  {
    "id": "730038",
    "country": "MX",
    "zipcode": "62847",
    "name": "San Juan Texcalpan",
    "region": "Morelos",
    "short_region": "17",
    "lat": "18.935800",
    "lon": "-98.928900"
  },
  {
    "id": "730039",
    "country": "MX",
    "zipcode": "62847",
    "name": "Lomas de San Juan Texcalpan",
    "region": "Morelos",
    "short_region": "17",
    "lat": "18.928500",
    "lon": "-98.931700"
  },
  {
    "id": "730040",
    "country": "MX",
    "zipcode": "62950",
    "name": "Axochiapan",
    "region": "Morelos",
    "short_region": "17",
    "lat": "18.502500",
    "lon": "-98.753600"
  },
  {
    "id": "730041",
    "country": "MX",
    "zipcode": "62952",
    "name": "Año 2000-Villa Hermosa",
    "region": "Morelos",
    "short_region": "17",
    "lat": "18.507200",
    "lon": "-98.752100"
  },
  {
    "id": "730042",
    "country": "MX",
    "zipcode": "62952",
    "name": "Carrillo Olea",
    "region": "Morelos",
    "short_region": "17",
    "lat": "18.508600",
    "lon": "-98.742200"
  },
  {
    "id": "730043",
    "country": "MX",
    "zipcode": "62952",
    "name": "Industrial",
    "region": "Morelos",
    "short_region": "17",
    "lat": "18.505800",
    "lon": "-98.762000"
  },
  {
    "id": "730044",
    "country": "MX",
    "zipcode": "62952",
    "name": "Arboledas",
    "region": "Morelos",
    "short_region": "17",
    "lat": "18.525200",
    "lon": "-98.752000"
  },
  {
    "id": "730045",
    "country": "MX",
    "zipcode": "62952",
    "name": "Rubén Jaramillo",
    "region": "Morelos",
    "short_region": "17",
    "lat": "18.525200",
    "lon": "-98.752000"
  },
  {
    "id": "730046",
    "country": "MX",
    "zipcode": "62952",
    "name": "Otilio Montaño",
    "region": "Morelos",
    "short_region": "17",
    "lat": "18.525200",
    "lon": "-98.752000"
  },
  {
    "id": "730047",
    "country": "MX",
    "zipcode": "62952",
    "name": "Bugambilias",
    "region": "Morelos",
    "short_region": "17",
    "lat": "18.525200",
    "lon": "-98.752000"
  },
  {
    "id": "730048",
    "country": "MX",
    "zipcode": "62952",
    "name": "Vista Hermosa",
    "region": "Morelos",
    "short_region": "17",
    "lat": "18.525200",
    "lon": "-98.752000"
  },
  {
    "id": "730049",
    "country": "MX",
    "zipcode": "62953",
    "name": "La Luz",
    "region": "Morelos",
    "short_region": "17",
    "lat": "18.525200",
    "lon": "-98.752000"
  },
  {
    "id": "730050",
    "country": "MX",
    "zipcode": "62953",
    "name": "Progreso",
    "region": "Morelos",
    "short_region": "17",
    "lat": "18.525200",
    "lon": "-98.752000"
  },
  {
    "id": "730051",
    "country": "MX",
    "zipcode": "62953",
    "name": "Del Carmen",
    "region": "Morelos",
    "short_region": "17",
    "lat": "18.492600",
    "lon": "-98.751500"
  },
  {
    "id": "730052",
    "country": "MX",
    "zipcode": "62953",
    "name": "Mirador",
    "region": "Morelos",
    "short_region": "17",
    "lat": "18.492600",
    "lon": "-98.751500"
  },
  {
    "id": "730053",
    "country": "MX",
    "zipcode": "62953",
    "name": "Las Ardillas",
    "region": "Morelos",
    "short_region": "17",
    "lat": "18.492600",
    "lon": "-98.751500"
  },
  {
    "id": "730054",
    "country": "MX",
    "zipcode": "62954",
    "name": "Centenario",
    "region": "Morelos",
    "short_region": "17",
    "lat": "18.525200",
    "lon": "-98.752000"
  },
  {
    "id": "730055",
    "country": "MX",
    "zipcode": "62954",
    "name": "Emiliano Zapata",
    "region": "Morelos",
    "short_region": "17",
    "lat": "18.525200",
    "lon": "-98.752000"
  },
  {
    "id": "730056",
    "country": "MX",
    "zipcode": "62954",
    "name": "Biznaga",
    "region": "Morelos",
    "short_region": "17",
    "lat": "18.525200",
    "lon": "-98.752000"
  },
  {
    "id": "730057",
    "country": "MX",
    "zipcode": "62954",
    "name": "San Pablo",
    "region": "Morelos",
    "short_region": "17",
    "lat": "18.525200",
    "lon": "-98.752000"
  },
  {
    "id": "730058",
    "country": "MX",
    "zipcode": "62954",
    "name": "Florida",
    "region": "Morelos",
    "short_region": "17",
    "lat": "18.471400",
    "lon": "-98.750600"
  },
  {
    "id": "730059",
    "country": "MX",
    "zipcode": "62955",
    "name": "Los Linderos",
    "region": "Morelos",
    "short_region": "17",
    "lat": "18.521900",
    "lon": "-98.743100"
  },
  {
    "id": "730060",
    "country": "MX",
    "zipcode": "62955",
    "name": "5 de Mayo",
    "region": "Morelos",
    "short_region": "17",
    "lat": "18.499700",
    "lon": "-98.708900"
  },
  {
    "id": "730061",
    "country": "MX",
    "zipcode": "62955",
    "name": "La Estación",
    "region": "Morelos",
    "short_region": "17",
    "lat": "18.501100",
    "lon": "-98.731100"
  },
  {
    "id": "730062",
    "country": "MX",
    "zipcode": "62955",
    "name": "El C.B.T.A.",
    "region": "Morelos",
    "short_region": "17",
    "lat": "18.508900",
    "lon": "-98.728400"
  },
  {
    "id": "730063",
    "country": "MX",
    "zipcode": "62955",
    "name": "Los Tres Reyes",
    "region": "Morelos",
    "short_region": "17",
    "lat": "18.508900",
    "lon": "-98.728400"
  },
  {
    "id": "730064",
    "country": "MX",
    "zipcode": "62955",
    "name": "Cuauhtémoc",
    "region": "Morelos",
    "short_region": "17",
    "lat": "18.511100",
    "lon": "-98.754700"
  },
  {
    "id": "730065",
    "country": "MX",
    "zipcode": "62955",
    "name": "Las Palmas",
    "region": "Morelos",
    "short_region": "17",
    "lat": "18.525200",
    "lon": "-98.752000"
  },
  {
    "id": "730066",
    "country": "MX",
    "zipcode": "62955",
    "name": "Los Gavilanes",
    "region": "Morelos",
    "short_region": "17",
    "lat": "18.512800",
    "lon": "-98.706400"
  },
  {
    "id": "730067",
    "country": "MX",
    "zipcode": "62955",
    "name": "Rubén Carrillo",
    "region": "Morelos",
    "short_region": "17",
    "lat": "18.511700",
    "lon": "-98.748900"
  },
  {
    "id": "730068",
    "country": "MX",
    "zipcode": "62955",
    "name": "Tlalayo",
    "region": "Morelos",
    "short_region": "17",
    "lat": "18.504200",
    "lon": "-98.705600"
  },
  {
    "id": "730069",
    "country": "MX",
    "zipcode": "62956",
    "name": "Los Laureles",
    "region": "Morelos",
    "short_region": "17",
    "lat": "18.488100",
    "lon": "-98.743100"
  },
  {
    "id": "730070",
    "country": "MX",
    "zipcode": "62956",
    "name": "Cabrera",
    "region": "Morelos",
    "short_region": "17",
    "lat": "18.477300",
    "lon": "-98.748600"
  },
  {
    "id": "730071",
    "country": "MX",
    "zipcode": "62956",
    "name": "Los Limites",
    "region": "Morelos",
    "short_region": "17",
    "lat": "18.477300",
    "lon": "-98.748600"
  },
  {
    "id": "730072",
    "country": "MX",
    "zipcode": "62956",
    "name": "Juan Ortega Sánchez",
    "region": "Morelos",
    "short_region": "17",
    "lat": "18.490800",
    "lon": "-98.758900"
  },
  {
    "id": "730073",
    "country": "MX",
    "zipcode": "62956",
    "name": "Benito Juárez",
    "region": "Morelos",
    "short_region": "17",
    "lat": "18.483600",
    "lon": "-98.760800"
  },
  {
    "id": "730074",
    "country": "MX",
    "zipcode": "62956",
    "name": "El Papagayo",
    "region": "Morelos",
    "short_region": "17",
    "lat": "18.488600",
    "lon": "-98.750000"
  },
  {
    "id": "730075",
    "country": "MX",
    "zipcode": "62956",
    "name": "La Piedra Colorada",
    "region": "Morelos",
    "short_region": "17",
    "lat": "18.445100",
    "lon": "-98.732300"
  },
  {
    "id": "730076",
    "country": "MX",
    "zipcode": "62956",
    "name": "Palo Blanco",
    "region": "Morelos",
    "short_region": "17",
    "lat": "18.466400",
    "lon": "-98.727200"
  },
  {
    "id": "730077",
    "country": "MX",
    "zipcode": "62956",
    "name": "Ahuaxtla",
    "region": "Morelos",
    "short_region": "17",
    "lat": "18.478900",
    "lon": "-98.767800"
  },
  {
    "id": "730078",
    "country": "MX",
    "zipcode": "62956",
    "name": "El Guamúchil",
    "region": "Morelos",
    "short_region": "17",
    "lat": "18.525200",
    "lon": "-98.752000"
  },
  {
    "id": "730079",
    "country": "MX",
    "zipcode": "62957",
    "name": "Jardines del Edén",
    "region": "Morelos",
    "short_region": "17",
    "lat": "18.525200",
    "lon": "-98.752000"
  },
  {
    "id": "730080",
    "country": "MX",
    "zipcode": "62957",
    "name": "La Laguna",
    "region": "Morelos",
    "short_region": "17",
    "lat": "18.506400",
    "lon": "-98.768100"
  },
  {
    "id": "730081",
    "country": "MX",
    "zipcode": "62957",
    "name": "Las Palmas ( Poza del Pajarito )",
    "region": "Morelos",
    "short_region": "17",
    "lat": "18.513300",
    "lon": "-98.792300"
  },
  {
    "id": "730082",
    "country": "MX",
    "zipcode": "62957",
    "name": "Joaquín Camaño",
    "region": "Morelos",
    "short_region": "17",
    "lat": "18.498300",
    "lon": "-98.796400"
  },
  {
    "id": "730083",
    "country": "MX",
    "zipcode": "62957",
    "name": "Quebrantadero",
    "region": "Morelos",
    "short_region": "17",
    "lat": "18.524300",
    "lon": "-98.790200"
  },
  {
    "id": "730084",
    "country": "MX",
    "zipcode": "62957",
    "name": "El Mezquital",
    "region": "Morelos",
    "short_region": "17",
    "lat": "18.520300",
    "lon": "-98.797800"
  },
  {
    "id": "730085",
    "country": "MX",
    "zipcode": "62957",
    "name": "Las Tinajas",
    "region": "Morelos",
    "short_region": "17",
    "lat": "18.517200",
    "lon": "-98.808900"
  },
  {
    "id": "730086",
    "country": "MX",
    "zipcode": "62962",
    "name": "Nueva Esperanza",
    "region": "Morelos",
    "short_region": "17",
    "lat": "18.577300",
    "lon": "-98.723600"
  },
  {
    "id": "730087",
    "country": "MX",
    "zipcode": "62962",
    "name": "Los Carros",
    "region": "Morelos",
    "short_region": "17",
    "lat": "18.604200",
    "lon": "-98.720300"
  },
  {
    "id": "730088",
    "country": "MX",
    "zipcode": "62962",
    "name": "Cayehuacan",
    "region": "Morelos",
    "short_region": "17",
    "lat": "18.578900",
    "lon": "-98.715600"
  },
  {
    "id": "730089",
    "country": "MX",
    "zipcode": "62962",
    "name": "La Nopalera ( Huayacan )",
    "region": "Morelos",
    "short_region": "17",
    "lat": "18.577300",
    "lon": "-98.723600"
  },
  {
    "id": "730090",
    "country": "MX",
    "zipcode": "62962",
    "name": "Marcelino Rodriguez ( San Ignacio )",
    "region": "Morelos",
    "short_region": "17",
    "lat": "18.577300",
    "lon": "-98.723600"
  },
  {
    "id": "730091",
    "country": "MX",
    "zipcode": "62962",
    "name": "La Toma",
    "region": "Morelos",
    "short_region": "17",
    "lat": "18.549000",
    "lon": "-98.734900"
  },
  {
    "id": "730092",
    "country": "MX",
    "zipcode": "62963",
    "name": "Atlacahualoya",
    "region": "Morelos",
    "short_region": "17",
    "lat": "18.540600",
    "lon": "-98.729800"
  },
  {
    "id": "730093",
    "country": "MX",
    "zipcode": "62963",
    "name": "Los Nacahuites",
    "region": "Morelos",
    "short_region": "17",
    "lat": "18.536800",
    "lon": "-98.727100"
  },
  {
    "id": "730094",
    "country": "MX",
    "zipcode": "62963",
    "name": "El Pochote",
    "region": "Morelos",
    "short_region": "17",
    "lat": "18.536800",
    "lon": "-98.727100"
  },
  {
    "id": "730095",
    "country": "MX",
    "zipcode": "62963",
    "name": "Cuayuca de Morelos",
    "region": "Morelos",
    "short_region": "17",
    "lat": "18.536800",
    "lon": "-98.727100"
  },
  {
    "id": "730096",
    "country": "MX",
    "zipcode": "62963",
    "name": "La Joya del Zompa",
    "region": "Morelos",
    "short_region": "17",
    "lat": "18.536800",
    "lon": "-98.727100"
  },
  {
    "id": "730097",
    "country": "MX",
    "zipcode": "62963",
    "name": "La Huerta",
    "region": "Morelos",
    "short_region": "17",
    "lat": "18.533100",
    "lon": "-98.724400"
  },
  {
    "id": "730098",
    "country": "MX",
    "zipcode": "62965",
    "name": "Telixtac",
    "region": "Morelos",
    "short_region": "17",
    "lat": "18.560300",
    "lon": "-98.776200"
  },
  {
    "id": "730099",
    "country": "MX",
    "zipcode": "62700",
    "name": "Puente Blanco",
    "region": "Morelos",
    "short_region": "17",
    "lat": "18.762800",
    "lon": "-98.973900"
  },
  {
    "id": "730100",
    "country": "MX",
    "zipcode": "62700",
    "name": "Ciudad Ayala",
    "region": "Morelos",
    "short_region": "17",
    "lat": "18.766900",
    "lon": "-98.982200"
  },
  {
    "id": "730101",
    "country": "MX",
    "zipcode": "62700",
    "name": "Buenavista",
    "region": "Morelos",
    "short_region": "17",
    "lat": "18.717200",
    "lon": "-98.978000"
  },
  {
    "id": "730102",
    "country": "MX",
    "zipcode": "62704",
    "name": "Cruz Verde",
    "region": "Morelos",
    "short_region": "17",
    "lat": "18.755000",
    "lon": "-98.975300"
  },
  {
    "id": "730103",
    "country": "MX",
    "zipcode": "62710",
    "name": "Anenecuilco Centro",
    "region": "Morelos",
    "short_region": "17",
    "lat": "18.759700",
    "lon": "-98.940100"
  },
  {
    "id": "730104",
    "country": "MX",
    "zipcode": "62713",
    "name": "Marcelino Ortega",
    "region": "Morelos",
    "short_region": "17",
    "lat": "18.765700",
    "lon": "-98.993800"
  },
  {
    "id": "730105",
    "country": "MX",
    "zipcode": "62713",
    "name": "Olintepec",
    "region": "Morelos",
    "short_region": "17",
    "lat": "18.740600",
    "lon": "-98.987200"
  },
  {
    "id": "730106",
    "country": "MX",
    "zipcode": "62713",
    "name": "La Joya Escondida",
    "region": "Morelos",
    "short_region": "17",
    "lat": "18.758900",
    "lon": "-99.003300"
  },
  {
    "id": "730107",
    "country": "MX",
    "zipcode": "62713",
    "name": "Zona Sur Anenecuilco",
    "region": "Morelos",
    "short_region": "17",
    "lat": "18.765700",
    "lon": "-98.993800"
  },
  {
    "id": "730108",
    "country": "MX",
    "zipcode": "62713",
    "name": "Las Flores",
    "region": "Morelos",
    "short_region": "17",
    "lat": "18.765700",
    "lon": "-98.993800"
  },
  {
    "id": "730109",
    "country": "MX",
    "zipcode": "62713",
    "name": "San Miguel",
    "region": "Morelos",
    "short_region": "17",
    "lat": "18.717200",
    "lon": "-98.978000"
  },
  {
    "id": "730110",
    "country": "MX",
    "zipcode": "62713",
    "name": "La Capilla",
    "region": "Morelos",
    "short_region": "17",
    "lat": "18.717200",
    "lon": "-98.978000"
  },
  {
    "id": "730111",
    "country": "MX",
    "zipcode": "62713",
    "name": "El Jagüey",
    "region": "Morelos",
    "short_region": "17",
    "lat": "18.797800",
    "lon": "-98.990800"
  },
  {
    "id": "730112",
    "country": "MX",
    "zipcode": "62714",
    "name": "Mirador",
    "region": "Morelos",
    "short_region": "17",
    "lat": "18.763600",
    "lon": "-98.887800"
  },
  {
    "id": "730113",
    "country": "MX",
    "zipcode": "62714",
    "name": "Rafael Merino",
    "region": "Morelos",
    "short_region": "17",
    "lat": "18.743300",
    "lon": "-98.985000"
  },
  {
    "id": "730114",
    "country": "MX",
    "zipcode": "62714",
    "name": "Cuahuixtla",
    "region": "Morelos",
    "short_region": "17",
    "lat": "18.783300",
    "lon": "-98.950000"
  },
  {
    "id": "730115",
    "country": "MX",
    "zipcode": "62714",
    "name": "Las Arboledas",
    "region": "Morelos",
    "short_region": "17",
    "lat": "18.785300",
    "lon": "-98.939700"
  },
  {
    "id": "730116",
    "country": "MX",
    "zipcode": "62714",
    "name": "Benito Juárez",
    "region": "Morelos",
    "short_region": "17",
    "lat": "18.760600",
    "lon": "-98.958900"
  },
  {
    "id": "730117",
    "country": "MX",
    "zipcode": "62714",
    "name": "Nuevo México ( Los Apaches )",
    "region": "Morelos",
    "short_region": "17",
    "lat": "18.776100",
    "lon": "-98.947900"
  },
  {
    "id": "730118",
    "country": "MX",
    "zipcode": "62714",
    "name": "Niños Héroes Estación",
    "region": "Morelos",
    "short_region": "17",
    "lat": "18.776100",
    "lon": "-98.947900"
  },
  {
    "id": "730119",
    "country": "MX",
    "zipcode": "62714",
    "name": "San Pedro Apatlaco",
    "region": "Morelos",
    "short_region": "17",
    "lat": "18.793100",
    "lon": "-98.959700"
  },
  {
    "id": "730120",
    "country": "MX",
    "zipcode": "62714",
    "name": "La Escopeta",
    "region": "Morelos",
    "short_region": "17",
    "lat": "18.787200",
    "lon": "-98.953900"
  },
  {
    "id": "730121",
    "country": "MX",
    "zipcode": "62714",
    "name": "La Joya",
    "region": "Morelos",
    "short_region": "17",
    "lat": "18.783600",
    "lon": "-98.953300"
  },
  {
    "id": "730122",
    "country": "MX",
    "zipcode": "62714",
    "name": "La Doncella",
    "region": "Morelos",
    "short_region": "17",
    "lat": "18.778300",
    "lon": "-98.956400"
  },
  {
    "id": "730123",
    "country": "MX",
    "zipcode": "62714",
    "name": "Reforma",
    "region": "Morelos",
    "short_region": "17",
    "lat": "18.782200",
    "lon": "-98.934200"
  },
  {
    "id": "730124",
    "country": "MX",
    "zipcode": "62715",
    "name": "Mariano Matamoros",
    "region": "Morelos",
    "short_region": "17",
    "lat": "18.747500",
    "lon": "-98.852200"
  },
  {
    "id": "730125",
    "country": "MX",
    "zipcode": "62715",
    "name": "Islas de Cuautla",
    "region": "Morelos",
    "short_region": "17",
    "lat": "18.747100",
    "lon": "-98.881900"
  },
  {
    "id": "730126",
    "country": "MX",
    "zipcode": "62715",
    "name": "Prados del Sol",
    "region": "Morelos",
    "short_region": "17",
    "lat": "18.747100",
    "lon": "-98.881900"
  },
  {
    "id": "730127",
    "country": "MX",
    "zipcode": "62715",
    "name": "Paraíso Tlahuica",
    "region": "Morelos",
    "short_region": "17",
    "lat": "18.747100",
    "lon": "-98.881900"
  },
  {
    "id": "730128",
    "country": "MX",
    "zipcode": "62715",
    "name": "El Venadito",
    "region": "Morelos",
    "short_region": "17",
    "lat": "18.747100",
    "lon": "-98.881900"
  },
  {
    "id": "730129",
    "country": "MX",
    "zipcode": "62715",
    "name": "Las Llaves",
    "region": "Morelos",
    "short_region": "17",
    "lat": "18.761100",
    "lon": "-98.850300"
  },
  {
    "id": "730130",
    "country": "MX",
    "zipcode": "62715",
    "name": "Parque Industrial Cuautla",
    "region": "Morelos",
    "short_region": "17",
    "lat": "18.751400",
    "lon": "-98.909700"
  },
  {
    "id": "730131",
    "country": "MX",
    "zipcode": "62715",
    "name": "Huertas de Cuautla",
    "region": "Morelos",
    "short_region": "17",
    "lat": "18.764400",
    "lon": "-98.912500"
  },
  {
    "id": "730132",
    "country": "MX",
    "zipcode": "62715",
    "name": "Tlayecac",
    "region": "Morelos",
    "short_region": "17",
    "lat": "18.717200",
    "lon": "-98.978000"
  },
  {
    "id": "730133",
    "country": "MX",
    "zipcode": "62715",
    "name": "10 de Abril",
    "region": "Morelos",
    "short_region": "17",
    "lat": "18.754400",
    "lon": "-98.916100"
  },
  {
    "id": "730134",
    "country": "MX",
    "zipcode": "62715",
    "name": "Citlalli",
    "region": "Morelos",
    "short_region": "17",
    "lat": "18.747100",
    "lon": "-98.881900"
  },
  {
    "id": "730135",
    "country": "MX",
    "zipcode": "62717",
    "name": "El Chivatero",
    "region": "Morelos",
    "short_region": "17",
    "lat": "18.691700",
    "lon": "-98.996400"
  },
  {
    "id": "730136",
    "country": "MX",
    "zipcode": "62717",
    "name": "Moyotepec 2",
    "region": "Morelos",
    "short_region": "17",
    "lat": "18.691700",
    "lon": "-98.996400"
  },
  {
    "id": "730137",
    "country": "MX",
    "zipcode": "62717",
    "name": "General Emiliano Zapata",
    "region": "Morelos",
    "short_region": "17",
    "lat": "18.691700",
    "lon": "-98.996400"
  },
  {
    "id": "730138",
    "country": "MX",
    "zipcode": "62718",
    "name": "Moyotepec",
    "region": "Morelos",
    "short_region": "17",
    "lat": "18.720800",
    "lon": "-98.994700"
  },
  {
    "id": "730139",
    "country": "MX",
    "zipcode": "62720",
    "name": "Jaloxtoc",
    "region": "Morelos",
    "short_region": "17",
    "lat": "18.722500",
    "lon": "-98.898800"
  },
  {
    "id": "730140",
    "country": "MX",
    "zipcode": "62720",
    "name": "El Sifón",
    "region": "Morelos",
    "short_region": "17",
    "lat": "18.742800",
    "lon": "-98.902200"
  },
  {
    "id": "730141",
    "country": "MX",
    "zipcode": "62720",
    "name": "Huitzililla",
    "region": "Morelos",
    "short_region": "17",
    "lat": "18.694300",
    "lon": "-98.896900"
  },
  {
    "id": "730142",
    "country": "MX",
    "zipcode": "62720",
    "name": "Huacatlaco",
    "region": "Morelos",
    "short_region": "17",
    "lat": "18.678900",
    "lon": "-98.907800"
  },
  {
    "id": "730143",
    "country": "MX",
    "zipcode": "62720",
    "name": "Ojo de Agua",
    "region": "Morelos",
    "short_region": "17",
    "lat": "18.717200",
    "lon": "-98.978000"
  },
  {
    "id": "730144",
    "country": "MX",
    "zipcode": "62723",
    "name": "El Vergel",
    "region": "Morelos",
    "short_region": "17",
    "lat": "18.590000",
    "lon": "-99.035300"
  },
  {
    "id": "730145",
    "country": "MX",
    "zipcode": "62723",
    "name": "La Cucaracha",
    "region": "Morelos",
    "short_region": "17",
    "lat": "18.626400",
    "lon": "-98.989700"
  },
  {
    "id": "730146",
    "country": "MX",
    "zipcode": "62723",
    "name": "Guadalupe Victoria",
    "region": "Morelos",
    "short_region": "17",
    "lat": "18.717200",
    "lon": "-98.978000"
  },
  {
    "id": "730147",
    "country": "MX",
    "zipcode": "62723",
    "name": "Piedra Encimada",
    "region": "Morelos",
    "short_region": "17",
    "lat": "18.625900",
    "lon": "-98.992300"
  },
  {
    "id": "730148",
    "country": "MX",
    "zipcode": "62723",
    "name": "Palo Blanco",
    "region": "Morelos",
    "short_region": "17",
    "lat": "18.648900",
    "lon": "-98.946900"
  },
  {
    "id": "730149",
    "country": "MX",
    "zipcode": "62723",
    "name": "Las Joyas",
    "region": "Morelos",
    "short_region": "17",
    "lat": "18.616400",
    "lon": "-98.991400"
  },
  {
    "id": "730150",
    "country": "MX",
    "zipcode": "62723",
    "name": "Tecomalco",
    "region": "Morelos",
    "short_region": "17",
    "lat": "18.651400",
    "lon": "-98.992800"
  },
  {
    "id": "730151",
    "country": "MX",
    "zipcode": "62723",
    "name": "Chinameca",
    "region": "Morelos",
    "short_region": "17",
    "lat": "18.622200",
    "lon": "-98.997700"
  },
  {
    "id": "730152",
    "country": "MX",
    "zipcode": "62724",
    "name": "Buenavista",
    "region": "Morelos",
    "short_region": "17",
    "lat": "18.717200",
    "lon": "-98.978000"
  },
  {
    "id": "730153",
    "country": "MX",
    "zipcode": "62724",
    "name": "El Salitre",
    "region": "Morelos",
    "short_region": "17",
    "lat": "18.675800",
    "lon": "-98.958100"
  },
  {
    "id": "730154",
    "country": "MX",
    "zipcode": "62724",
    "name": "San Vicente de Juárez",
    "region": "Morelos",
    "short_region": "17",
    "lat": "18.683400",
    "lon": "-98.985200"
  },
  {
    "id": "730155",
    "country": "MX",
    "zipcode": "62724",
    "name": "Loma Bonita",
    "region": "Morelos",
    "short_region": "17",
    "lat": "18.712500",
    "lon": "-98.957500"
  },
  {
    "id": "730156",
    "country": "MX",
    "zipcode": "62724",
    "name": "San Juan Ahuehueyo",
    "region": "Morelos",
    "short_region": "17",
    "lat": "18.715000",
    "lon": "-98.932800"
  },
  {
    "id": "730157",
    "country": "MX",
    "zipcode": "62724",
    "name": "La Longaniza",
    "region": "Morelos",
    "short_region": "17",
    "lat": "18.696700",
    "lon": "-98.958400"
  },
  {
    "id": "730158",
    "country": "MX",
    "zipcode": "62725",
    "name": "La Libertad",
    "region": "Morelos",
    "short_region": "17",
    "lat": "18.754800",
    "lon": "-98.956500"
  },
  {
    "id": "730159",
    "country": "MX",
    "zipcode": "62725",
    "name": "Constancio Farfán",
    "region": "Morelos",
    "short_region": "17",
    "lat": "18.741900",
    "lon": "-98.953900"
  },
  {
    "id": "730160",
    "country": "MX",
    "zipcode": "62725",
    "name": "Rafael Merino",
    "region": "Morelos",
    "short_region": "17",
    "lat": "18.743300",
    "lon": "-98.985000"
  },
  {
    "id": "730161",
    "country": "MX",
    "zipcode": "62725",
    "name": "Leopoldo Heredia",
    "region": "Morelos",
    "short_region": "17",
    "lat": "18.726400",
    "lon": "-98.964200"
  },
  {
    "id": "730162",
    "country": "MX",
    "zipcode": "62725",
    "name": "Las Lumbreras",
    "region": "Morelos",
    "short_region": "17",
    "lat": "18.745600",
    "lon": "-98.953100"
  },
  {
    "id": "730163",
    "country": "MX",
    "zipcode": "62725",
    "name": "Tenextepango",
    "region": "Morelos",
    "short_region": "17",
    "lat": "18.728900",
    "lon": "-98.957800"
  },
  {
    "id": "730164",
    "country": "MX",
    "zipcode": "62725",
    "name": "Abelardo L. Rodríguez",
    "region": "Morelos",
    "short_region": "17",
    "lat": "18.737500",
    "lon": "-98.985300"
  },
  {
    "id": "730165",
    "country": "MX",
    "zipcode": "62610",
    "name": "Coatlán del Río",
    "region": "Morelos",
    "short_region": "17",
    "lat": "18.744200",
    "lon": "-99.433200"
  },
  {
    "id": "730166",
    "country": "MX",
    "zipcode": "62613",
    "name": "Tezoquipa",
    "region": "Morelos",
    "short_region": "17",
    "lat": "18.736100",
    "lon": "-99.420300"
  },
  {
    "id": "730167",
    "country": "MX",
    "zipcode": "62613",
    "name": "Buenavista de Aldama",
    "region": "Morelos",
    "short_region": "17",
    "lat": "18.755600",
    "lon": "-99.433400"
  },
  {
    "id": "730168",
    "country": "MX",
    "zipcode": "62613",
    "name": "San José",
    "region": "Morelos",
    "short_region": "17",
    "lat": "18.731800",
    "lon": "-99.445800"
  },
  {
    "id": "730169",
    "country": "MX",
    "zipcode": "62614",
    "name": "Apancingo",
    "region": "Morelos",
    "short_region": "17",
    "lat": "18.679700",
    "lon": "-99.463600"
  },
  {
    "id": "730170",
    "country": "MX",
    "zipcode": "62614",
    "name": "Benito Juárez",
    "region": "Morelos",
    "short_region": "17",
    "lat": "18.663800",
    "lon": "-99.453000"
  },
  {
    "id": "730171",
    "country": "MX",
    "zipcode": "62614",
    "name": "Michapa",
    "region": "Morelos",
    "short_region": "17",
    "lat": "18.702400",
    "lon": "-99.479100"
  },
  {
    "id": "730172",
    "country": "MX",
    "zipcode": "62614",
    "name": "Cuernavaquita",
    "region": "Morelos",
    "short_region": "17",
    "lat": "18.720400",
    "lon": "-99.492800"
  },
  {
    "id": "730173",
    "country": "MX",
    "zipcode": "62614",
    "name": "Chavarría",
    "region": "Morelos",
    "short_region": "17",
    "lat": "18.725700",
    "lon": "-99.468300"
  },
  {
    "id": "730174",
    "country": "MX",
    "zipcode": "62615",
    "name": "Santa Márgara",
    "region": "Morelos",
    "short_region": "17",
    "lat": "18.739400",
    "lon": "-99.448700"
  },
  {
    "id": "730175",
    "country": "MX",
    "zipcode": "62615",
    "name": "El Vado",
    "region": "Morelos",
    "short_region": "17",
    "lat": "18.742500",
    "lon": "-99.436900"
  },
  {
    "id": "730176",
    "country": "MX",
    "zipcode": "62615",
    "name": "Tilancingo",
    "region": "Morelos",
    "short_region": "17",
    "lat": "18.737500",
    "lon": "-99.453900"
  },
  {
    "id": "730177",
    "country": "MX",
    "zipcode": "62615",
    "name": "El Axixintle",
    "region": "Morelos",
    "short_region": "17",
    "lat": "18.740600",
    "lon": "-99.466400"
  },
  {
    "id": "730178",
    "country": "MX",
    "zipcode": "62615",
    "name": "San Antonio",
    "region": "Morelos",
    "short_region": "17",
    "lat": "18.737000",
    "lon": "-99.437700"
  },
  {
    "id": "730179",
    "country": "MX",
    "zipcode": "62616",
    "name": "Puente Arenal",
    "region": "Morelos",
    "short_region": "17",
    "lat": "18.714400",
    "lon": "-99.464700"
  },
  {
    "id": "730180",
    "country": "MX",
    "zipcode": "62616",
    "name": "Cuauhtémoc",
    "region": "Morelos",
    "short_region": "17",
    "lat": "18.752200",
    "lon": "-99.445300"
  },
  {
    "id": "730181",
    "country": "MX",
    "zipcode": "62616",
    "name": "Morelos",
    "region": "Morelos",
    "short_region": "17",
    "lat": "18.745400",
    "lon": "-99.452600"
  },
  {
    "id": "730182",
    "country": "MX",
    "zipcode": "62616",
    "name": "El Cerrito",
    "region": "Morelos",
    "short_region": "17",
    "lat": "18.731800",
    "lon": "-99.445800"
  },
  {
    "id": "730183",
    "country": "MX",
    "zipcode": "62616",
    "name": "El Canelillo",
    "region": "Morelos",
    "short_region": "17",
    "lat": "18.757700",
    "lon": "-99.460100"
  },
  {
    "id": "730184",
    "country": "MX",
    "zipcode": "62616",
    "name": "El Amate",
    "region": "Morelos",
    "short_region": "17",
    "lat": "18.748300",
    "lon": "-99.441900"
  },
  {
    "id": "730185",
    "country": "MX",
    "zipcode": "62616",
    "name": "Cocoyotla",
    "region": "Morelos",
    "short_region": "17",
    "lat": "18.754400",
    "lon": "-99.450700"
  },
  {
    "id": "730186",
    "country": "MX",
    "zipcode": "62740",
    "name": "Centro",
    "region": "Morelos",
    "short_region": "17",
    "lat": "18.831200",
    "lon": "-98.957100"
  },
  {
    "id": "730187",
    "country": "MX",
    "zipcode": "62742",
    "name": "Reforma",
    "region": "Morelos",
    "short_region": "17",
    "lat": "18.782200",
    "lon": "-98.934200"
  },
  {
    "id": "730188",
    "country": "MX",
    "zipcode": "62742",
    "name": "Nueva San José",
    "region": "Morelos",
    "short_region": "17",
    "lat": "18.798300",
    "lon": "-98.951100"
  },
  {
    "id": "730189",
    "country": "MX",
    "zipcode": "62742",
    "name": "Ampliación Casas del Río",
    "region": "Morelos",
    "short_region": "17",
    "lat": "18.798300",
    "lon": "-98.951100"
  },
  {
    "id": "730190",
    "country": "MX",
    "zipcode": "62742",
    "name": "Ampliación Gabriel Tetepa",
    "region": "Morelos",
    "short_region": "17",
    "lat": "18.798300",
    "lon": "-98.951100"
  },
  {
    "id": "730191",
    "country": "MX",
    "zipcode": "62742",
    "name": "Xochitengo",
    "region": "Morelos",
    "short_region": "17",
    "lat": "18.808300",
    "lon": "-98.951900"
  },
  {
    "id": "730192",
    "country": "MX",
    "zipcode": "62742",
    "name": "Casas del Río",
    "region": "Morelos",
    "short_region": "17",
    "lat": "18.801900",
    "lon": "-98.959900"
  },
  {
    "id": "730193",
    "country": "MX",
    "zipcode": "62742",
    "name": "Gabriel Tepepa",
    "region": "Morelos",
    "short_region": "17",
    "lat": "18.791400",
    "lon": "-98.938100"
  },
  {
    "id": "730194",
    "country": "MX",
    "zipcode": "62742",
    "name": "Francisco I Madero",
    "region": "Morelos",
    "short_region": "17",
    "lat": "18.802200",
    "lon": "-98.965300"
  },
  {
    "id": "730195",
    "country": "MX",
    "zipcode": "62742",
    "name": "Pablo Torres Burgos",
    "region": "Morelos",
    "short_region": "17",
    "lat": "18.804000",
    "lon": "-98.957200"
  },
  {
    "id": "730196",
    "country": "MX",
    "zipcode": "62743",
    "name": "Agua Hedionda",
    "region": "Morelos",
    "short_region": "17",
    "lat": "18.815200",
    "lon": "-98.931800"
  },
  {
    "id": "730197",
    "country": "MX",
    "zipcode": "62743",
    "name": "Hermenegildo Galeana",
    "region": "Morelos",
    "short_region": "17",
    "lat": "18.800600",
    "lon": "-98.920200"
  },
  {
    "id": "730198",
    "country": "MX",
    "zipcode": "62743",
    "name": "Niño Artillero",
    "region": "Morelos",
    "short_region": "17",
    "lat": "18.812600",
    "lon": "-98.936500"
  },
  {
    "id": "730199",
    "country": "MX",
    "zipcode": "62743",
    "name": "Ampliación Hermenegildo Galeana",
    "region": "Morelos",
    "short_region": "17",
    "lat": "18.826800",
    "lon": "-98.936500"
  },
  {
    "id": "730200",
    "country": "MX",
    "zipcode": "62743",
    "name": "Ampliación 5 de Febrero",
    "region": "Morelos",
    "short_region": "17",
    "lat": "18.826800",
    "lon": "-98.936500"
  },
  {
    "id": "730201",
    "country": "MX",
    "zipcode": "62743",
    "name": "Ampliación la Bisnaga",
    "region": "Morelos",
    "short_region": "17",
    "lat": "18.826800",
    "lon": "-98.936500"
  },
  {
    "id": "730202",
    "country": "MX",
    "zipcode": "62743",
    "name": "Campo Nuevo",
    "region": "Morelos",
    "short_region": "17",
    "lat": "18.826800",
    "lon": "-98.936500"
  },
  {
    "id": "730203",
    "country": "MX",
    "zipcode": "62743",
    "name": "5 de Febrero",
    "region": "Morelos",
    "short_region": "17",
    "lat": "18.826800",
    "lon": "-98.936500"
  },
  {
    "id": "730204",
    "country": "MX",
    "zipcode": "62743",
    "name": "La Biznaga",
    "region": "Morelos",
    "short_region": "17",
    "lat": "18.826800",
    "lon": "-98.936500"
  },
  {
    "id": "730205",
    "country": "MX",
    "zipcode": "62743",
    "name": "Ampliación Iztaccihuatl",
    "region": "Morelos",
    "short_region": "17",
    "lat": "18.826800",
    "lon": "-98.936500"
  },
  {
    "id": "730206",
    "country": "MX",
    "zipcode": "62743",
    "name": "Paraíso",
    "region": "Morelos",
    "short_region": "17",
    "lat": "18.826800",
    "lon": "-98.936500"
  },
  {
    "id": "730207",
    "country": "MX",
    "zipcode": "62743",
    "name": "Villareal",
    "region": "Morelos",
    "short_region": "17",
    "lat": "18.826800",
    "lon": "-98.936500"
  },
  {
    "id": "730208",
    "country": "MX",
    "zipcode": "62743",
    "name": "La Pedregosa",
    "region": "Morelos",
    "short_region": "17",
    "lat": "18.826800",
    "lon": "-98.936500"
  },
  {
    "id": "730209",
    "country": "MX",
    "zipcode": "62743",
    "name": "Trincheras",
    "region": "Morelos",
    "short_region": "17",
    "lat": "18.826800",
    "lon": "-98.936500"
  },
  {
    "id": "730210",
    "country": "MX",
    "zipcode": "62743",
    "name": "Ampliación Plan de Ayala",
    "region": "Morelos",
    "short_region": "17",
    "lat": "18.826800",
    "lon": "-98.936500"
  },
  {
    "id": "730211",
    "country": "MX",
    "zipcode": "62743",
    "name": "Plan de Ayala",
    "region": "Morelos",
    "short_region": "17",
    "lat": "18.831200",
    "lon": "-98.957100"
  },
  {
    "id": "730212",
    "country": "MX",
    "zipcode": "62743",
    "name": "Los Amates",
    "region": "Morelos",
    "short_region": "17",
    "lat": "18.831200",
    "lon": "-98.957100"
  },
  {
    "id": "730213",
    "country": "MX",
    "zipcode": "62743",
    "name": "Benito Juárez",
    "region": "Morelos",
    "short_region": "17",
    "lat": "18.831200",
    "lon": "-98.957100"
  },
  {
    "id": "730214",
    "country": "MX",
    "zipcode": "62743",
    "name": "Iztaccihuatl",
    "region": "Morelos",
    "short_region": "17",
    "lat": "18.800600",
    "lon": "-98.910200"
  },
  {
    "id": "730215",
    "country": "MX",
    "zipcode": "62744",
    "name": "Ampliación Emiliano Zapata",
    "region": "Morelos",
    "short_region": "17",
    "lat": "18.831200",
    "lon": "-98.957100"
  },
  {
    "id": "730216",
    "country": "MX",
    "zipcode": "62744",
    "name": "Morelos",
    "region": "Morelos",
    "short_region": "17",
    "lat": "18.829900",
    "lon": "-99.055700"
  },
  {
    "id": "730217",
    "country": "MX",
    "zipcode": "62744",
    "name": "Progreso",
    "region": "Morelos",
    "short_region": "17",
    "lat": "18.831200",
    "lon": "-98.957100"
  },
  {
    "id": "730218",
    "country": "MX",
    "zipcode": "62744",
    "name": "Martínez Peña",
    "region": "Morelos",
    "short_region": "17",
    "lat": "18.823600",
    "lon": "-98.980000"
  },
  {
    "id": "730219",
    "country": "MX",
    "zipcode": "62744",
    "name": "10 de Abril",
    "region": "Morelos",
    "short_region": "17",
    "lat": "18.818300",
    "lon": "-98.969300"
  },
  {
    "id": "730220",
    "country": "MX",
    "zipcode": "62744",
    "name": "Héroe de Nacozari",
    "region": "Morelos",
    "short_region": "17",
    "lat": "18.811900",
    "lon": "-98.967200"
  },
  {
    "id": "730221",
    "country": "MX",
    "zipcode": "62744",
    "name": "Emiliano Zapata",
    "region": "Morelos",
    "short_region": "17",
    "lat": "18.831200",
    "lon": "-98.957100"
  },
  {
    "id": "730222",
    "country": "MX",
    "zipcode": "62746",
    "name": "Guadalupe Victoria",
    "region": "Morelos",
    "short_region": "17",
    "lat": "18.831200",
    "lon": "-98.957100"
  },
  {
    "id": "730223",
    "country": "MX",
    "zipcode": "62746",
    "name": "Manantiales",
    "region": "Morelos",
    "short_region": "17",
    "lat": "18.831200",
    "lon": "-98.957100"
  },
  {
    "id": "730224",
    "country": "MX",
    "zipcode": "62746",
    "name": "Agua Blanca",
    "region": "Morelos",
    "short_region": "17",
    "lat": "18.831200",
    "lon": "-98.957100"
  },
  {
    "id": "730225",
    "country": "MX",
    "zipcode": "62746",
    "name": "5 de Diciembre",
    "region": "Morelos",
    "short_region": "17",
    "lat": "18.875500",
    "lon": "-99.053600"
  },
  {
    "id": "730226",
    "country": "MX",
    "zipcode": "62746",
    "name": "Flamingos",
    "region": "Morelos",
    "short_region": "17",
    "lat": "18.875500",
    "lon": "-99.053600"
  },
  {
    "id": "730227",
    "country": "MX",
    "zipcode": "62746",
    "name": "La Cerrillera",
    "region": "Morelos",
    "short_region": "17",
    "lat": "18.875500",
    "lon": "-99.053600"
  },
  {
    "id": "730228",
    "country": "MX",
    "zipcode": "62746",
    "name": "Tepeyac",
    "region": "Morelos",
    "short_region": "17",
    "lat": "18.827500",
    "lon": "-98.933600"
  },
  {
    "id": "730229",
    "country": "MX",
    "zipcode": "62746",
    "name": "Otilio Montaño",
    "region": "Morelos",
    "short_region": "17",
    "lat": "18.831200",
    "lon": "-98.957100"
  },
  {
    "id": "730230",
    "country": "MX",
    "zipcode": "62747",
    "name": "Ampliación Estrella",
    "region": "Morelos",
    "short_region": "17",
    "lat": "18.849000",
    "lon": "-98.947700"
  },
  {
    "id": "730231",
    "country": "MX",
    "zipcode": "62747",
    "name": "Santa Cruz",
    "region": "Morelos",
    "short_region": "17",
    "lat": "18.849000",
    "lon": "-98.947700"
  },
  {
    "id": "730232",
    "country": "MX",
    "zipcode": "62747",
    "name": "Estrella",
    "region": "Morelos",
    "short_region": "17",
    "lat": "18.849000",
    "lon": "-98.947700"
  },
  {
    "id": "730233",
    "country": "MX",
    "zipcode": "62747",
    "name": "Río Verde Infonavit",
    "region": "Morelos",
    "short_region": "17",
    "lat": "18.849000",
    "lon": "-98.947700"
  },
  {
    "id": "730234",
    "country": "MX",
    "zipcode": "62747",
    "name": "Residencial del Bosque",
    "region": "Morelos",
    "short_region": "17",
    "lat": "18.849000",
    "lon": "-98.947700"
  },
  {
    "id": "730235",
    "country": "MX",
    "zipcode": "62747",
    "name": "Ampliación Ignacio Zaragoza",
    "region": "Morelos",
    "short_region": "17",
    "lat": "18.849000",
    "lon": "-98.947700"
  },
  {
    "id": "730236",
    "country": "MX",
    "zipcode": "62747",
    "name": "7 de Noviembre",
    "region": "Morelos",
    "short_region": "17",
    "lat": "18.849000",
    "lon": "-98.947700"
  },
  {
    "id": "730237",
    "country": "MX",
    "zipcode": "62747",
    "name": "La Esperanza",
    "region": "Morelos",
    "short_region": "17",
    "lat": "18.833600",
    "lon": "-98.924700"
  },
  {
    "id": "730238",
    "country": "MX",
    "zipcode": "62747",
    "name": "Araucaria",
    "region": "Morelos",
    "short_region": "17",
    "lat": "18.837000",
    "lon": "-98.939900"
  },
  {
    "id": "730239",
    "country": "MX",
    "zipcode": "62747",
    "name": "Tierra y Libertad",
    "region": "Morelos",
    "short_region": "17",
    "lat": "18.831100",
    "lon": "-98.934700"
  },
  {
    "id": "730240",
    "country": "MX",
    "zipcode": "62747",
    "name": "Ampliación Vicente Guerrero",
    "region": "Morelos",
    "short_region": "17",
    "lat": "18.872800",
    "lon": "-98.981400"
  },
  {
    "id": "730241",
    "country": "MX",
    "zipcode": "62747",
    "name": "Cuautlixco",
    "region": "Morelos",
    "short_region": "17",
    "lat": "18.837100",
    "lon": "-98.943100"
  },
  {
    "id": "730242",
    "country": "MX",
    "zipcode": "62747",
    "name": "Residencial los Arcos",
    "region": "Morelos",
    "short_region": "17",
    "lat": "18.799400",
    "lon": "-98.966900"
  },
  {
    "id": "730243",
    "country": "MX",
    "zipcode": "62747",
    "name": "Ampliación Santa Cruz",
    "region": "Morelos",
    "short_region": "17",
    "lat": "18.835600",
    "lon": "-98.933100"
  },
  {
    "id": "730244",
    "country": "MX",
    "zipcode": "62747",
    "name": "Valle del Sol",
    "region": "Morelos",
    "short_region": "17",
    "lat": "18.831200",
    "lon": "-98.957100"
  },
  {
    "id": "730245",
    "country": "MX",
    "zipcode": "62747",
    "name": "Los Amates",
    "region": "Morelos",
    "short_region": "17",
    "lat": "18.831200",
    "lon": "-98.957100"
  },
  {
    "id": "730246",
    "country": "MX",
    "zipcode": "62747",
    "name": "Los Sabinos",
    "region": "Morelos",
    "short_region": "17",
    "lat": "18.831200",
    "lon": "-98.957100"
  },
  {
    "id": "730247",
    "country": "MX",
    "zipcode": "62747",
    "name": "Vicente Guerrero",
    "region": "Morelos",
    "short_region": "17",
    "lat": "18.831200",
    "lon": "-98.957100"
  },
  {
    "id": "730248",
    "country": "MX",
    "zipcode": "62747",
    "name": "Potrero Verde",
    "region": "Morelos",
    "short_region": "17",
    "lat": "18.831200",
    "lon": "-98.957100"
  },
  {
    "id": "730249",
    "country": "MX",
    "zipcode": "62747",
    "name": "Ignacio Zaragoza",
    "region": "Morelos",
    "short_region": "17",
    "lat": "18.831200",
    "lon": "-98.957100"
  },
  {
    "id": "730250",
    "country": "MX",
    "zipcode": "62747",
    "name": "Los Cerritos",
    "region": "Morelos",
    "short_region": "17",
    "lat": "18.831200",
    "lon": "-98.957100"
  },
  {
    "id": "730251",
    "country": "MX",
    "zipcode": "62747",
    "name": "Santa Rosa",
    "region": "Morelos",
    "short_region": "17",
    "lat": "18.832800",
    "lon": "-98.979400"
  },
  {
    "id": "730252",
    "country": "MX",
    "zipcode": "62747",
    "name": "ISSFAM",
    "region": "Morelos",
    "short_region": "17",
    "lat": "18.848700",
    "lon": "-98.936800"
  },
  {
    "id": "730253",
    "country": "MX",
    "zipcode": "62748",
    "name": "Centenario",
    "region": "Morelos",
    "short_region": "17",
    "lat": "18.852100",
    "lon": "-98.964900"
  },
  {
    "id": "730254",
    "country": "MX",
    "zipcode": "62748",
    "name": "Miguel Hidalgo",
    "region": "Morelos",
    "short_region": "17",
    "lat": "18.831200",
    "lon": "-98.957100"
  },
  {
    "id": "730255",
    "country": "MX",
    "zipcode": "62748",
    "name": "Vicente Guerrero",
    "region": "Morelos",
    "short_region": "17",
    "lat": "18.831200",
    "lon": "-98.957100"
  },
  {
    "id": "730256",
    "country": "MX",
    "zipcode": "62748",
    "name": "Vicente Guerrero 4ta Ampliación",
    "region": "Morelos",
    "short_region": "17",
    "lat": "18.865400",
    "lon": "-98.998800"
  },
  {
    "id": "730257",
    "country": "MX",
    "zipcode": "62748",
    "name": "Antigua del Bosque",
    "region": "Morelos",
    "short_region": "17",
    "lat": "18.865400",
    "lon": "-98.998800"
  },
  {
    "id": "730258",
    "country": "MX",
    "zipcode": "62748",
    "name": "Vicente Guerrero 3a Ampliación",
    "region": "Morelos",
    "short_region": "17",
    "lat": "18.865400",
    "lon": "-98.998800"
  },
  {
    "id": "730259",
    "country": "MX",
    "zipcode": "62748",
    "name": "Vicente Guerrero 2da Ampliación",
    "region": "Morelos",
    "short_region": "17",
    "lat": "18.865400",
    "lon": "-98.998800"
  },
  {
    "id": "730260",
    "country": "MX",
    "zipcode": "62748",
    "name": "La Ciénega",
    "region": "Morelos",
    "short_region": "17",
    "lat": "18.865400",
    "lon": "-98.998800"
  },
  {
    "id": "730261",
    "country": "MX",
    "zipcode": "62748",
    "name": "Casasano 3a Ampliación",
    "region": "Morelos",
    "short_region": "17",
    "lat": "18.865400",
    "lon": "-98.998800"
  },
  {
    "id": "730262",
    "country": "MX",
    "zipcode": "62748",
    "name": "Casasano 2da Ampliación",
    "region": "Morelos",
    "short_region": "17",
    "lat": "18.865400",
    "lon": "-98.998800"
  },
  {
    "id": "730263",
    "country": "MX",
    "zipcode": "62748",
    "name": "Benito Quezada",
    "region": "Morelos",
    "short_region": "17",
    "lat": "18.865400",
    "lon": "-98.998800"
  },
  {
    "id": "730264",
    "country": "MX",
    "zipcode": "62748",
    "name": "Ampliación las Tazas",
    "region": "Morelos",
    "short_region": "17",
    "lat": "18.865400",
    "lon": "-98.998800"
  },
  {
    "id": "730265",
    "country": "MX",
    "zipcode": "62748",
    "name": "Revolución",
    "region": "Morelos",
    "short_region": "17",
    "lat": "18.831200",
    "lon": "-98.957100"
  },
  {
    "id": "730266",
    "country": "MX",
    "zipcode": "62748",
    "name": "Casasano",
    "region": "Morelos",
    "short_region": "17",
    "lat": "18.853900",
    "lon": "-98.956700"
  },
  {
    "id": "730267",
    "country": "MX",
    "zipcode": "62748",
    "name": "Año de Juárez",
    "region": "Morelos",
    "short_region": "17",
    "lat": "18.853200",
    "lon": "-98.945400"
  },
  {
    "id": "730268",
    "country": "MX",
    "zipcode": "62748",
    "name": "Empleado Postal",
    "region": "Morelos",
    "short_region": "17",
    "lat": "18.847300",
    "lon": "-98.939100"
  },
  {
    "id": "730269",
    "country": "MX",
    "zipcode": "62748",
    "name": "Eusebio Jauregui",
    "region": "Morelos",
    "short_region": "17",
    "lat": "18.834100",
    "lon": "-98.960800"
  },
  {
    "id": "730270",
    "country": "MX",
    "zipcode": "62748",
    "name": "Tabachines",
    "region": "Morelos",
    "short_region": "17",
    "lat": "18.831200",
    "lon": "-98.957100"
  },
  {
    "id": "730271",
    "country": "MX",
    "zipcode": "62754",
    "name": "Empleado Municipal",
    "region": "Morelos",
    "short_region": "17",
    "lat": "18.785800",
    "lon": "-98.907200"
  },
  {
    "id": "730272",
    "country": "MX",
    "zipcode": "62755",
    "name": "Santa Inés",
    "region": "Morelos",
    "short_region": "17",
    "lat": "18.831800",
    "lon": "-98.960800"
  },
  {
    "id": "730273",
    "country": "MX",
    "zipcode": "62755",
    "name": "Ampliación 10 de Abril",
    "region": "Morelos",
    "short_region": "17",
    "lat": "18.818300",
    "lon": "-98.969300"
  },
  {
    "id": "730274",
    "country": "MX",
    "zipcode": "62755",
    "name": "Rancho Gómez",
    "region": "Morelos",
    "short_region": "17",
    "lat": "18.821900",
    "lon": "-98.973900"
  },
  {
    "id": "730275",
    "country": "MX",
    "zipcode": "62755",
    "name": "El Hospital",
    "region": "Morelos",
    "short_region": "17",
    "lat": "18.831100",
    "lon": "-98.996700"
  },
  {
    "id": "730276",
    "country": "MX",
    "zipcode": "62755",
    "name": "Francisco I Madero",
    "region": "Morelos",
    "short_region": "17",
    "lat": "18.802200",
    "lon": "-98.965300"
  },
  {
    "id": "730277",
    "country": "MX",
    "zipcode": "62755",
    "name": "El Mirador",
    "region": "Morelos",
    "short_region": "17",
    "lat": "18.818300",
    "lon": "-98.971900"
  },
  {
    "id": "730278",
    "country": "MX",
    "zipcode": "62755",
    "name": "La Esperanza-el Hospital",
    "region": "Morelos",
    "short_region": "17",
    "lat": "18.821900",
    "lon": "-98.973900"
  },
  {
    "id": "730279",
    "country": "MX",
    "zipcode": "62755",
    "name": "La Angostura",
    "region": "Morelos",
    "short_region": "17",
    "lat": "18.834100",
    "lon": "-98.960800"
  },
  {
    "id": "730280",
    "country": "MX",
    "zipcode": "62755",
    "name": "El Sifón",
    "region": "Morelos",
    "short_region": "17",
    "lat": "18.827000",
    "lon": "-98.961100"
  },
  {
    "id": "730281",
    "country": "MX",
    "zipcode": "62755",
    "name": "Puxtla",
    "region": "Morelos",
    "short_region": "17",
    "lat": "18.810000",
    "lon": "-98.982500"
  },
  {
    "id": "730282",
    "country": "MX",
    "zipcode": "62755",
    "name": "3 de Mayo",
    "region": "Morelos",
    "short_region": "17",
    "lat": "18.824200",
    "lon": "-98.996400"
  },
  {
    "id": "730283",
    "country": "MX",
    "zipcode": "62756",
    "name": "Calderón",
    "region": "Morelos",
    "short_region": "17",
    "lat": "18.858300",
    "lon": "-98.978900"
  },
  {
    "id": "730284",
    "country": "MX",
    "zipcode": "62756",
    "name": "19 de Febrero",
    "region": "Morelos",
    "short_region": "17",
    "lat": "18.878100",
    "lon": "-98.963900"
  },
  {
    "id": "730285",
    "country": "MX",
    "zipcode": "62756",
    "name": "Peña Flores",
    "region": "Morelos",
    "short_region": "17",
    "lat": "18.867200",
    "lon": "-98.968300"
  },
  {
    "id": "730286",
    "country": "MX",
    "zipcode": "62756",
    "name": "Narciso Mendoza",
    "region": "Morelos",
    "short_region": "17",
    "lat": "18.874200",
    "lon": "-98.969700"
  },
  {
    "id": "730287",
    "country": "MX",
    "zipcode": "62756",
    "name": "Polvorín",
    "region": "Morelos",
    "short_region": "17",
    "lat": "18.869400",
    "lon": "-98.970200"
  },
  {
    "id": "730288",
    "country": "MX",
    "zipcode": "62756",
    "name": "Sitio del Sol",
    "region": "Morelos",
    "short_region": "17",
    "lat": "18.869400",
    "lon": "-98.970200"
  },
  {
    "id": "730289",
    "country": "MX",
    "zipcode": "62757",
    "name": "Condominios del Bosque",
    "region": "Morelos",
    "short_region": "17",
    "lat": "18.866200",
    "lon": "-98.932500"
  },
  {
    "id": "730290",
    "country": "MX",
    "zipcode": "62757",
    "name": "La Escondida",
    "region": "Morelos",
    "short_region": "17",
    "lat": "18.866200",
    "lon": "-98.932500"
  },
  {
    "id": "730291",
    "country": "MX",
    "zipcode": "62757",
    "name": "Lázaro Cárdenas 2a Ampliación",
    "region": "Morelos",
    "short_region": "17",
    "lat": "18.866200",
    "lon": "-98.932500"
  },
  {
    "id": "730292",
    "country": "MX",
    "zipcode": "62757",
    "name": "Lázaro Cárdenas 3a Ampliacón",
    "region": "Morelos",
    "short_region": "17",
    "lat": "18.866200",
    "lon": "-98.932500"
  },
  {
    "id": "730293",
    "country": "MX",
    "zipcode": "62757",
    "name": "12 de Octubre",
    "region": "Morelos",
    "short_region": "17",
    "lat": "18.866200",
    "lon": "-98.932500"
  },
  {
    "id": "730294",
    "country": "MX",
    "zipcode": "62757",
    "name": "Plaza Solidaridad",
    "region": "Morelos",
    "short_region": "17",
    "lat": "18.866200",
    "lon": "-98.932500"
  },
  {
    "id": "730295",
    "country": "MX",
    "zipcode": "62757",
    "name": "Puerta de Hierro",
    "region": "Morelos",
    "short_region": "17",
    "lat": "18.866200",
    "lon": "-98.932500"
  },
  {
    "id": "730296",
    "country": "MX",
    "zipcode": "62757",
    "name": "2 de Mayo",
    "region": "Morelos",
    "short_region": "17",
    "lat": "18.866200",
    "lon": "-98.932500"
  },
  {
    "id": "730297",
    "country": "MX",
    "zipcode": "62757",
    "name": "Magisterial",
    "region": "Morelos",
    "short_region": "17",
    "lat": "18.866200",
    "lon": "-98.932500"
  },
  {
    "id": "730298",
    "country": "MX",
    "zipcode": "62757",
    "name": "Central de Abastos",
    "region": "Morelos",
    "short_region": "17",
    "lat": "18.866200",
    "lon": "-98.932500"
  },
  {
    "id": "730299",
    "country": "MX",
    "zipcode": "62757",
    "name": "Central de Abastos Ampliación",
    "region": "Morelos",
    "short_region": "17",
    "lat": "18.866200",
    "lon": "-98.932500"
  },
  {
    "id": "730300",
    "country": "MX",
    "zipcode": "62757",
    "name": "Tezahuapan",
    "region": "Morelos",
    "short_region": "17",
    "lat": "18.877400",
    "lon": "-98.933900"
  },
  {
    "id": "730301",
    "country": "MX",
    "zipcode": "62757",
    "name": "Salvador Esquer",
    "region": "Morelos",
    "short_region": "17",
    "lat": "18.870100",
    "lon": "-98.917200"
  },
  {
    "id": "730302",
    "country": "MX",
    "zipcode": "62757",
    "name": "12 de Diciembre",
    "region": "Morelos",
    "short_region": "17",
    "lat": "18.874400",
    "lon": "-98.940100"
  },
  {
    "id": "730303",
    "country": "MX",
    "zipcode": "62757",
    "name": "Brisas de Cuautla",
    "region": "Morelos",
    "short_region": "17",
    "lat": "18.864200",
    "lon": "-98.923000"
  },
  {
    "id": "730304",
    "country": "MX",
    "zipcode": "62757",
    "name": "Volcanes de Cuautla",
    "region": "Morelos",
    "short_region": "17",
    "lat": "18.854400",
    "lon": "-98.933100"
  },
  {
    "id": "730305",
    "country": "MX",
    "zipcode": "62757",
    "name": "Tetelcingo",
    "region": "Morelos",
    "short_region": "17",
    "lat": "18.871600",
    "lon": "-98.933000"
  },
  {
    "id": "730306",
    "country": "MX",
    "zipcode": "62757",
    "name": "Lázaro Cárdenas",
    "region": "Morelos",
    "short_region": "17",
    "lat": "18.831200",
    "lon": "-98.957100"
  },
  {
    "id": "730307",
    "country": "MX",
    "zipcode": "62757",
    "name": "Las Cruces",
    "region": "Morelos",
    "short_region": "17",
    "lat": "18.831200",
    "lon": "-98.957100"
  },
  {
    "id": "730308",
    "country": "MX",
    "zipcode": "62757",
    "name": "Ampliación Lázaro Cárdenas",
    "region": "Morelos",
    "short_region": "17",
    "lat": "18.831200",
    "lon": "-98.957100"
  },
  {
    "id": "730309",
    "country": "MX",
    "zipcode": "62757",
    "name": "Santa Bárbara",
    "region": "Morelos",
    "short_region": "17",
    "lat": "18.831200",
    "lon": "-98.957100"
  },
  {
    "id": "730310",
    "country": "MX",
    "zipcode": "62757",
    "name": "Los Faroles",
    "region": "Morelos",
    "short_region": "17",
    "lat": "18.831200",
    "lon": "-98.957100"
  },
  {
    "id": "730311",
    "country": "MX",
    "zipcode": "62757",
    "name": "Cuauhtémoc",
    "region": "Morelos",
    "short_region": "17",
    "lat": "18.831200",
    "lon": "-98.957100"
  },
  {
    "id": "730312",
    "country": "MX",
    "zipcode": "62757",
    "name": "Piedra Blanca",
    "region": "Morelos",
    "short_region": "17",
    "lat": "18.831200",
    "lon": "-98.957100"
  },
  {
    "id": "730313",
    "country": "MX",
    "zipcode": "62757",
    "name": "Trigo Verde",
    "region": "Morelos",
    "short_region": "17",
    "lat": "18.852800",
    "lon": "-98.931500"
  },
  {
    "id": "730314",
    "country": "MX",
    "zipcode": "62757",
    "name": "Tierra Larga",
    "region": "Morelos",
    "short_region": "17",
    "lat": "18.864400",
    "lon": "-98.948100"
  },
  {
    "id": "730315",
    "country": "MX",
    "zipcode": "62000",
    "name": "Cuernavaca Centro",
    "region": "Morelos",
    "short_region": "17",
    "lat": "18.913500",
    "lon": "-99.235600"
  },
  {
    "id": "730316",
    "country": "MX",
    "zipcode": "62008",
    "name": "Secretaria de Hacienda y Crédito Publico",
    "region": "Morelos",
    "short_region": "17",
    "lat": "18.913500",
    "lon": "-99.235600"
  },
  {
    "id": "730317",
    "country": "MX",
    "zipcode": "62009",
    "name": "Palacio de Gobierno del Estado de Morelos",
    "region": "Morelos",
    "short_region": "17",
    "lat": "18.913500",
    "lon": "-99.235600"
  },
  {
    "id": "730318",
    "country": "MX",
    "zipcode": "62010",
    "name": "Altavista",
    "region": "Morelos",
    "short_region": "17",
    "lat": "18.925400",
    "lon": "-99.249100"
  },
  {
    "id": "730319",
    "country": "MX",
    "zipcode": "62010",
    "name": "Las Piletas",
    "region": "Morelos",
    "short_region": "17",
    "lat": "18.925400",
    "lon": "-99.249100"
  },
  {
    "id": "730320",
    "country": "MX",
    "zipcode": "62017",
    "name": "Margarita Maza de Juárez",
    "region": "Morelos",
    "short_region": "17",
    "lat": "18.916400",
    "lon": "-99.244500"
  },
  {
    "id": "730321",
    "country": "MX",
    "zipcode": "62018",
    "name": "Altavista Barrancas",
    "region": "Morelos",
    "short_region": "17",
    "lat": "18.924300",
    "lon": "-99.248900"
  },
  {
    "id": "730322",
    "country": "MX",
    "zipcode": "62019",
    "name": "Plan de Ayala Barrancas",
    "region": "Morelos",
    "short_region": "17",
    "lat": "18.927700",
    "lon": "-99.250900"
  },
  {
    "id": "730323",
    "country": "MX",
    "zipcode": "62019",
    "name": "Loma Hermosa",
    "region": "Morelos",
    "short_region": "17",
    "lat": "18.927100",
    "lon": "-99.251700"
  },
  {
    "id": "730324",
    "country": "MX",
    "zipcode": "62019",
    "name": "Provinciana",
    "region": "Morelos",
    "short_region": "17",
    "lat": "18.928300",
    "lon": "-99.250200"
  },
  {
    "id": "730325",
    "country": "MX",
    "zipcode": "62019",
    "name": "Tepeyehualco",
    "region": "Morelos",
    "short_region": "17",
    "lat": "18.938900",
    "lon": "-99.263200"
  },
  {
    "id": "730326",
    "country": "MX",
    "zipcode": "62020",
    "name": "José López Portillo",
    "region": "Morelos",
    "short_region": "17",
    "lat": "18.938900",
    "lon": "-99.263200"
  },
  {
    "id": "730327",
    "country": "MX",
    "zipcode": "62020",
    "name": "Sacatierra",
    "region": "Morelos",
    "short_region": "17",
    "lat": "18.913100",
    "lon": "-99.206300"
  },
  {
    "id": "730328",
    "country": "MX",
    "zipcode": "62020",
    "name": "Las Terrazas",
    "region": "Morelos",
    "short_region": "17",
    "lat": "18.913100",
    "lon": "-99.206300"
  },
  {
    "id": "730329",
    "country": "MX",
    "zipcode": "62020",
    "name": "Lomas de San Antón",
    "region": "Morelos",
    "short_region": "17",
    "lat": "18.928000",
    "lon": "-99.246800"
  },
  {
    "id": "730330",
    "country": "MX",
    "zipcode": "62020",
    "name": "Ampliación Sacatierra",
    "region": "Morelos",
    "short_region": "17",
    "lat": "18.913100",
    "lon": "-99.206300"
  },
  {
    "id": "730331",
    "country": "MX",
    "zipcode": "62020",
    "name": "San Antón",
    "region": "Morelos",
    "short_region": "17",
    "lat": "18.921100",
    "lon": "-99.241100"
  },
  {
    "id": "730332",
    "country": "MX",
    "zipcode": "62028",
    "name": "Nueva Santa María",
    "region": "Morelos",
    "short_region": "17",
    "lat": "18.913200",
    "lon": "-99.250300"
  },
  {
    "id": "730333",
    "country": "MX",
    "zipcode": "62028",
    "name": "Santa Fe",
    "region": "Morelos",
    "short_region": "17",
    "lat": "18.913600",
    "lon": "-99.243600"
  },
  {
    "id": "730334",
    "country": "MX",
    "zipcode": "62029",
    "name": "Chulavista",
    "region": "Morelos",
    "short_region": "17",
    "lat": "18.911600",
    "lon": "-99.239800"
  },
  {
    "id": "730335",
    "country": "MX",
    "zipcode": "62030",
    "name": "Club de Golf",
    "region": "Morelos",
    "short_region": "17",
    "lat": "18.901000",
    "lon": "-99.247500"
  },
  {
    "id": "730336",
    "country": "MX",
    "zipcode": "62037",
    "name": "Benito Juárez (Lagunilla)",
    "region": "Morelos",
    "short_region": "17",
    "lat": "18.897900",
    "lon": "-99.249200"
  },
  {
    "id": "730337",
    "country": "MX",
    "zipcode": "62037",
    "name": "Jardines del Edén",
    "region": "Morelos",
    "short_region": "17",
    "lat": "18.900000",
    "lon": "-99.248600"
  },
  {
    "id": "730338",
    "country": "MX",
    "zipcode": "62037",
    "name": "La Unión",
    "region": "Morelos",
    "short_region": "17",
    "lat": "18.895800",
    "lon": "-99.249700"
  },
  {
    "id": "730339",
    "country": "MX",
    "zipcode": "62038",
    "name": "Lagunillas Barrancas",
    "region": "Morelos",
    "short_region": "17",
    "lat": "18.901000",
    "lon": "-99.247500"
  },
  {
    "id": "730340",
    "country": "MX",
    "zipcode": "62039",
    "name": "Lagunilla del Salto",
    "region": "Morelos",
    "short_region": "17",
    "lat": "18.907100",
    "lon": "-99.244200"
  },
  {
    "id": "730341",
    "country": "MX",
    "zipcode": "62040",
    "name": "Miguel Hidalgo",
    "region": "Morelos",
    "short_region": "17",
    "lat": "18.910700",
    "lon": "-99.230900"
  },
  {
    "id": "730342",
    "country": "MX",
    "zipcode": "62050",
    "name": "Benito Juárez (Centro)",
    "region": "Morelos",
    "short_region": "17",
    "lat": "18.905600",
    "lon": "-99.232000"
  },
  {
    "id": "730343",
    "country": "MX",
    "zipcode": "62050",
    "name": "Las Palmas",
    "region": "Morelos",
    "short_region": "17",
    "lat": "18.905600",
    "lon": "-99.232000"
  },
  {
    "id": "730344",
    "country": "MX",
    "zipcode": "62057",
    "name": "Pilares",
    "region": "Morelos",
    "short_region": "17",
    "lat": "18.903600",
    "lon": "-99.233100"
  },
  {
    "id": "730345",
    "country": "MX",
    "zipcode": "62059",
    "name": "Bondies",
    "region": "Morelos",
    "short_region": "17",
    "lat": "18.901600",
    "lon": "-99.234200"
  },
  {
    "id": "730346",
    "country": "MX",
    "zipcode": "62060",
    "name": "Quintana Roo",
    "region": "Morelos",
    "short_region": "17",
    "lat": "18.900800",
    "lon": "-99.228800"
  },
  {
    "id": "730347",
    "country": "MX",
    "zipcode": "62070",
    "name": "Mina Cinco",
    "region": "Morelos",
    "short_region": "17",
    "lat": "18.893600",
    "lon": "-99.227200"
  },
  {
    "id": "730348",
    "country": "MX",
    "zipcode": "62070",
    "name": "Chipitlán",
    "region": "Morelos",
    "short_region": "17",
    "lat": "18.893600",
    "lon": "-99.227200"
  },
  {
    "id": "730349",
    "country": "MX",
    "zipcode": "62076",
    "name": "Adolfo López Mateos (Polvorín)",
    "region": "Morelos",
    "short_region": "17",
    "lat": "18.894900",
    "lon": "-99.224100"
  },
  {
    "id": "730350",
    "country": "MX",
    "zipcode": "62076",
    "name": "Bosques de Palmira",
    "region": "Morelos",
    "short_region": "17",
    "lat": "18.894900",
    "lon": "-99.224100"
  },
  {
    "id": "730351",
    "country": "MX",
    "zipcode": "62076",
    "name": "El Polvorín",
    "region": "Morelos",
    "short_region": "17",
    "lat": "18.938900",
    "lon": "-99.263200"
  },
  {
    "id": "730352",
    "country": "MX",
    "zipcode": "62080",
    "name": "Lázaro Cárdenas",
    "region": "Morelos",
    "short_region": "17",
    "lat": "18.938900",
    "lon": "-99.263200"
  },
  {
    "id": "730353",
    "country": "MX",
    "zipcode": "62080",
    "name": "Loma Bonita",
    "region": "Morelos",
    "short_region": "17",
    "lat": "18.984200",
    "lon": "-99.244300"
  },
  {
    "id": "730354",
    "country": "MX",
    "zipcode": "62083",
    "name": "Lázaro Cárdenas 2da. Ampliación",
    "region": "Morelos",
    "short_region": "17",
    "lat": "18.984200",
    "lon": "-99.244300"
  },
  {
    "id": "730355",
    "country": "MX",
    "zipcode": "62083",
    "name": "Lázaro Cárdenas 1ra. Ampliación",
    "region": "Morelos",
    "short_region": "17",
    "lat": "18.984200",
    "lon": "-99.244300"
  },
  {
    "id": "730356",
    "country": "MX",
    "zipcode": "62084",
    "name": "La Parota",
    "region": "Morelos",
    "short_region": "17",
    "lat": "18.984200",
    "lon": "-99.244300"
  },
  {
    "id": "730357",
    "country": "MX",
    "zipcode": "62100",
    "name": "Santa María Ahuacatitlán",
    "region": "Morelos",
    "short_region": "17",
    "lat": "18.974800",
    "lon": "-99.256300"
  },
  {
    "id": "730358",
    "country": "MX",
    "zipcode": "62103",
    "name": "Santa Elena de La Cruz",
    "region": "Morelos",
    "short_region": "17",
    "lat": "18.978900",
    "lon": "-99.263600"
  },
  {
    "id": "730359",
    "country": "MX",
    "zipcode": "62115",
    "name": "Ocotera",
    "region": "Morelos",
    "short_region": "17",
    "lat": "18.986100",
    "lon": "-99.247300"
  },
  {
    "id": "730360",
    "country": "MX",
    "zipcode": "62115",
    "name": "Independencia",
    "region": "Morelos",
    "short_region": "17",
    "lat": "18.984400",
    "lon": "-99.249300"
  },
  {
    "id": "730361",
    "country": "MX",
    "zipcode": "62115",
    "name": "Adolfo López Mateos",
    "region": "Morelos",
    "short_region": "17",
    "lat": "18.938900",
    "lon": "-99.263200"
  },
  {
    "id": "730362",
    "country": "MX",
    "zipcode": "62115",
    "name": "Loma Bonita",
    "region": "Morelos",
    "short_region": "17",
    "lat": "18.984200",
    "lon": "-99.244300"
  },
  {
    "id": "730363",
    "country": "MX",
    "zipcode": "62115",
    "name": "La Caminera",
    "region": "Morelos",
    "short_region": "17",
    "lat": "18.982100",
    "lon": "-99.247800"
  },
  {
    "id": "730364",
    "country": "MX",
    "zipcode": "62116",
    "name": "Valle Tepuente",
    "region": "Morelos",
    "short_region": "17",
    "lat": "18.987500",
    "lon": "-99.252200"
  },
  {
    "id": "730365",
    "country": "MX",
    "zipcode": "62116",
    "name": "Tepuente",
    "region": "Morelos",
    "short_region": "17",
    "lat": "18.987500",
    "lon": "-99.252200"
  },
  {
    "id": "730366",
    "country": "MX",
    "zipcode": "62116",
    "name": "Paraje de Tepuente",
    "region": "Morelos",
    "short_region": "17",
    "lat": "18.985900",
    "lon": "-99.251200"
  },
  {
    "id": "730367",
    "country": "MX",
    "zipcode": "62116",
    "name": "Cruz de La Misión",
    "region": "Morelos",
    "short_region": "17",
    "lat": "18.985900",
    "lon": "-99.251200"
  },
  {
    "id": "730368",
    "country": "MX",
    "zipcode": "62116",
    "name": "Mirador Universidad",
    "region": "Morelos",
    "short_region": "17",
    "lat": "18.979800",
    "lon": "-99.246800"
  },
  {
    "id": "730369",
    "country": "MX",
    "zipcode": "62116",
    "name": "Cabañas del Valle",
    "region": "Morelos",
    "short_region": "17",
    "lat": "18.985900",
    "lon": "-99.251200"
  },
  {
    "id": "730370",
    "country": "MX",
    "zipcode": "62116",
    "name": "Balcones de Tepuente",
    "region": "Morelos",
    "short_region": "17",
    "lat": "18.988800",
    "lon": "-99.253800"
  },
  {
    "id": "730371",
    "country": "MX",
    "zipcode": "62117",
    "name": "Provincias de Jerusalén",
    "region": "Morelos",
    "short_region": "17",
    "lat": "18.985000",
    "lon": "-99.249200"
  },
  {
    "id": "730372",
    "country": "MX",
    "zipcode": "62120",
    "name": "El Monasterio",
    "region": "Morelos",
    "short_region": "17",
    "lat": "18.965300",
    "lon": "-99.251800"
  },
  {
    "id": "730373",
    "country": "MX",
    "zipcode": "62120",
    "name": "Rancho Cortes",
    "region": "Morelos",
    "short_region": "17",
    "lat": "18.965300",
    "lon": "-99.251800"
  },
  {
    "id": "730374",
    "country": "MX",
    "zipcode": "62123",
    "name": "Ocotitla",
    "region": "Morelos",
    "short_region": "17",
    "lat": "18.965300",
    "lon": "-99.251800"
  },
  {
    "id": "730375",
    "country": "MX",
    "zipcode": "62130",
    "name": "Tetela del Monte",
    "region": "Morelos",
    "short_region": "17",
    "lat": "18.965900",
    "lon": "-99.246500"
  },
  {
    "id": "730376",
    "country": "MX",
    "zipcode": "62130",
    "name": "Jardines de Ahuatlán",
    "region": "Morelos",
    "short_region": "17",
    "lat": "18.959900",
    "lon": "-99.263900"
  },
  {
    "id": "730377",
    "country": "MX",
    "zipcode": "62130",
    "name": "Terrazas Ahuatlán",
    "region": "Morelos",
    "short_region": "17",
    "lat": "18.957000",
    "lon": "-99.262900"
  },
  {
    "id": "730378",
    "country": "MX",
    "zipcode": "62130",
    "name": "Buenavista",
    "region": "Morelos",
    "short_region": "17",
    "lat": "18.944900",
    "lon": "-99.309000"
  },
  {
    "id": "730379",
    "country": "MX",
    "zipcode": "62130",
    "name": "Real de Tetela",
    "region": "Morelos",
    "short_region": "17",
    "lat": "18.962600",
    "lon": "-99.258000"
  },
  {
    "id": "730380",
    "country": "MX",
    "zipcode": "62130",
    "name": "Ahuatlán Tzompantle",
    "region": "Morelos",
    "short_region": "17",
    "lat": "18.951100",
    "lon": "-99.257300"
  },
  {
    "id": "730381",
    "country": "MX",
    "zipcode": "62130",
    "name": "Lomas de Ahuatlán",
    "region": "Morelos",
    "short_region": "17",
    "lat": "18.956900",
    "lon": "-99.266300"
  },
  {
    "id": "730382",
    "country": "MX",
    "zipcode": "62133",
    "name": "Los Tepetates",
    "region": "Morelos",
    "short_region": "17",
    "lat": "18.938900",
    "lon": "-99.263200"
  },
  {
    "id": "730383",
    "country": "MX",
    "zipcode": "62136",
    "name": "Jardín Tetela",
    "region": "Morelos",
    "short_region": "17",
    "lat": "18.951500",
    "lon": "-99.248800"
  },
  {
    "id": "730384",
    "country": "MX",
    "zipcode": "62137",
    "name": "La Mojonera",
    "region": "Morelos",
    "short_region": "17",
    "lat": "18.973600",
    "lon": "-99.244600"
  },
  {
    "id": "730385",
    "country": "MX",
    "zipcode": "62137",
    "name": "Lienzo El Charro",
    "region": "Morelos",
    "short_region": "17",
    "lat": "18.973600",
    "lon": "-99.244600"
  },
  {
    "id": "730386",
    "country": "MX",
    "zipcode": "62139",
    "name": "Loma Linda",
    "region": "Morelos",
    "short_region": "17",
    "lat": "18.969700",
    "lon": "-99.249500"
  },
  {
    "id": "730387",
    "country": "MX",
    "zipcode": "62140",
    "name": "Bellavista",
    "region": "Morelos",
    "short_region": "17",
    "lat": "18.955300",
    "lon": "-99.243300"
  },
  {
    "id": "730388",
    "country": "MX",
    "zipcode": "62143",
    "name": "Zona Militar",
    "region": "Morelos",
    "short_region": "17",
    "lat": "18.962600",
    "lon": "-99.242500"
  },
  {
    "id": "730389",
    "country": "MX",
    "zipcode": "62144",
    "name": "El Ángel",
    "region": "Morelos",
    "short_region": "17",
    "lat": "18.938900",
    "lon": "-99.263200"
  },
  {
    "id": "730390",
    "country": "MX",
    "zipcode": "62144",
    "name": "Trevi III",
    "region": "Morelos",
    "short_region": "17",
    "lat": "18.894800",
    "lon": "-99.008500"
  },
  {
    "id": "730391",
    "country": "MX",
    "zipcode": "62144",
    "name": "Trevi II",
    "region": "Morelos",
    "short_region": "17",
    "lat": "18.894800",
    "lon": "-99.008500"
  },
  {
    "id": "730392",
    "country": "MX",
    "zipcode": "62144",
    "name": "Trevi I",
    "region": "Morelos",
    "short_region": "17",
    "lat": "18.894800",
    "lon": "-99.008500"
  },
  {
    "id": "730393",
    "country": "MX",
    "zipcode": "62144",
    "name": "Condominios Bugambilias",
    "region": "Morelos",
    "short_region": "17",
    "lat": "18.894800",
    "lon": "-99.008500"
  },
  {
    "id": "730394",
    "country": "MX",
    "zipcode": "62145",
    "name": "Lomas de La Selva Norte",
    "region": "Morelos",
    "short_region": "17",
    "lat": "18.937600",
    "lon": "-99.164800"
  },
  {
    "id": "730395",
    "country": "MX",
    "zipcode": "62145",
    "name": "Conjunto Colorines",
    "region": "Morelos",
    "short_region": "17",
    "lat": "18.937600",
    "lon": "-99.164800"
  },
  {
    "id": "730396",
    "country": "MX",
    "zipcode": "62150",
    "name": "Del Bosque",
    "region": "Morelos",
    "short_region": "17",
    "lat": "18.954800",
    "lon": "-99.240500"
  },
  {
    "id": "730397",
    "country": "MX",
    "zipcode": "62153",
    "name": "Club Felicidad",
    "region": "Morelos",
    "short_region": "17",
    "lat": "18.954800",
    "lon": "-99.240500"
  },
  {
    "id": "730398",
    "country": "MX",
    "zipcode": "62154",
    "name": "Lomas del Pinar",
    "region": "Morelos",
    "short_region": "17",
    "lat": "18.954800",
    "lon": "-99.240500"
  },
  {
    "id": "730399",
    "country": "MX",
    "zipcode": "62156",
    "name": "Lomas de Tetela",
    "region": "Morelos",
    "short_region": "17",
    "lat": "18.954800",
    "lon": "-99.240500"
  },
  {
    "id": "730400",
    "country": "MX",
    "zipcode": "62157",
    "name": "Lomas de Zompantle",
    "region": "Morelos",
    "short_region": "17",
    "lat": "18.954800",
    "lon": "-99.240500"
  },
  {
    "id": "730401",
    "country": "MX",
    "zipcode": "62159",
    "name": "Adolfo Ruiz Cortines",
    "region": "Morelos",
    "short_region": "17",
    "lat": "18.954800",
    "lon": "-99.240500"
  },
  {
    "id": "730402",
    "country": "MX",
    "zipcode": "62160",
    "name": "La Cañada",
    "region": "Morelos",
    "short_region": "17",
    "lat": "18.975000",
    "lon": "-99.185600"
  },
  {
    "id": "730403",
    "country": "MX",
    "zipcode": "62160",
    "name": "Hacienda Tetela",
    "region": "Morelos",
    "short_region": "17",
    "lat": "18.944400",
    "lon": "-99.262600"
  },
  {
    "id": "730404",
    "country": "MX",
    "zipcode": "62160",
    "name": "Rancho Tetela",
    "region": "Morelos",
    "short_region": "17",
    "lat": "18.943200",
    "lon": "-99.255800"
  },
  {
    "id": "730405",
    "country": "MX",
    "zipcode": "62163",
    "name": "La Tranca",
    "region": "Morelos",
    "short_region": "17",
    "lat": "18.973700",
    "lon": "-99.268600"
  },
  {
    "id": "730406",
    "country": "MX",
    "zipcode": "62163",
    "name": "Loma Sol",
    "region": "Morelos",
    "short_region": "17",
    "lat": "18.973700",
    "lon": "-99.268600"
  },
  {
    "id": "730407",
    "country": "MX",
    "zipcode": "62164",
    "name": "Tzompantle Norte",
    "region": "Morelos",
    "short_region": "17",
    "lat": "18.954300",
    "lon": "-99.245100"
  },
  {
    "id": "730408",
    "country": "MX",
    "zipcode": "62165",
    "name": "Tonintana",
    "region": "Morelos",
    "short_region": "17",
    "lat": "18.943500",
    "lon": "-99.249700"
  },
  {
    "id": "730409",
    "country": "MX",
    "zipcode": "62165",
    "name": "Lomas de Coyuca",
    "region": "Morelos",
    "short_region": "17",
    "lat": "18.943500",
    "lon": "-99.249700"
  },
  {
    "id": "730410",
    "country": "MX",
    "zipcode": "62166",
    "name": "Analco",
    "region": "Morelos",
    "short_region": "17",
    "lat": "18.946400",
    "lon": "-99.248300"
  },
  {
    "id": "730411",
    "country": "MX",
    "zipcode": "62170",
    "name": "Jiquilpan",
    "region": "Morelos",
    "short_region": "17",
    "lat": "18.945200",
    "lon": "-99.239300"
  },
  {
    "id": "730412",
    "country": "MX",
    "zipcode": "62170",
    "name": "Tlaltenango",
    "region": "Morelos",
    "short_region": "17",
    "lat": "18.944900",
    "lon": "-99.245200"
  },
  {
    "id": "730413",
    "country": "MX",
    "zipcode": "62170",
    "name": "La Pradera",
    "region": "Morelos",
    "short_region": "17",
    "lat": "18.939600",
    "lon": "-99.242400"
  },
  {
    "id": "730414",
    "country": "MX",
    "zipcode": "62173",
    "name": "Jardines de Tlaltenango",
    "region": "Morelos",
    "short_region": "17",
    "lat": "18.948200",
    "lon": "-99.241500"
  },
  {
    "id": "730415",
    "country": "MX",
    "zipcode": "62175",
    "name": "Lomas de La Pradera",
    "region": "Morelos",
    "short_region": "17",
    "lat": "18.944500",
    "lon": "-99.242100"
  },
  {
    "id": "730416",
    "country": "MX",
    "zipcode": "62179",
    "name": "San Jerónimo",
    "region": "Morelos",
    "short_region": "17",
    "lat": "18.938900",
    "lon": "-99.263200"
  },
  {
    "id": "730417",
    "country": "MX",
    "zipcode": "62180",
    "name": "Lomas de Atzingo",
    "region": "Morelos",
    "short_region": "17",
    "lat": "18.935200",
    "lon": "-99.254900"
  },
  {
    "id": "730418",
    "country": "MX",
    "zipcode": "62180",
    "name": "Minas de Atzingo",
    "region": "Morelos",
    "short_region": "17",
    "lat": "18.874100",
    "lon": "-99.206800"
  },
  {
    "id": "730419",
    "country": "MX",
    "zipcode": "62180",
    "name": "Plan de Ayala",
    "region": "Morelos",
    "short_region": "17",
    "lat": "18.929800",
    "lon": "-99.253500"
  },
  {
    "id": "730420",
    "country": "MX",
    "zipcode": "62180",
    "name": "El Tecolote",
    "region": "Morelos",
    "short_region": "17",
    "lat": "18.938900",
    "lon": "-99.263200"
  },
  {
    "id": "730421",
    "country": "MX",
    "zipcode": "62190",
    "name": "La Carolina",
    "region": "Morelos",
    "short_region": "17",
    "lat": "18.954800",
    "lon": "-99.240500"
  },
  {
    "id": "730422",
    "country": "MX",
    "zipcode": "62193",
    "name": "La Esperanza",
    "region": "Morelos",
    "short_region": "17",
    "lat": "18.938900",
    "lon": "-99.263200"
  },
  {
    "id": "730423",
    "country": "MX",
    "zipcode": "62200",
    "name": "Cuauhtémoc",
    "region": "Morelos",
    "short_region": "17",
    "lat": "18.978900",
    "lon": "-99.228900"
  },
  {
    "id": "730424",
    "country": "MX",
    "zipcode": "62200",
    "name": "Insurgentes",
    "region": "Morelos",
    "short_region": "17",
    "lat": "18.975800",
    "lon": "-99.233200"
  },
  {
    "id": "730425",
    "country": "MX",
    "zipcode": "62203",
    "name": "El Ocote",
    "region": "Morelos",
    "short_region": "17",
    "lat": "18.972800",
    "lon": "-99.232400"
  },
  {
    "id": "730426",
    "country": "MX",
    "zipcode": "62203",
    "name": "Salvador Elizarragaz",
    "region": "Morelos",
    "short_region": "17",
    "lat": "18.972800",
    "lon": "-99.232400"
  },
  {
    "id": "730427",
    "country": "MX",
    "zipcode": "62203",
    "name": "Tehuiztitlán",
    "region": "Morelos",
    "short_region": "17",
    "lat": "18.972800",
    "lon": "-99.232400"
  },
  {
    "id": "730428",
    "country": "MX",
    "zipcode": "62204",
    "name": "Tlahuica",
    "region": "Morelos",
    "short_region": "17",
    "lat": "18.938900",
    "lon": "-99.263200"
  },
  {
    "id": "730429",
    "country": "MX",
    "zipcode": "62205",
    "name": "Los Ciruelos",
    "region": "Morelos",
    "short_region": "17",
    "lat": "18.916100",
    "lon": "-99.262200"
  },
  {
    "id": "730430",
    "country": "MX",
    "zipcode": "62209",
    "name": "Universidad Autónoma del Estado de Morelos",
    "region": "Morelos",
    "short_region": "17",
    "lat": "18.983600",
    "lon": "-99.236100"
  },
  {
    "id": "730431",
    "country": "MX",
    "zipcode": "62210",
    "name": "Chamilpa",
    "region": "Morelos",
    "short_region": "17",
    "lat": "18.970800",
    "lon": "-99.236400"
  },
  {
    "id": "730432",
    "country": "MX",
    "zipcode": "62210",
    "name": "Morelos",
    "region": "Morelos",
    "short_region": "17",
    "lat": "18.970800",
    "lon": "-99.236400"
  },
  {
    "id": "730433",
    "country": "MX",
    "zipcode": "62210",
    "name": "Los Aguacates",
    "region": "Morelos",
    "short_region": "17",
    "lat": "18.970800",
    "lon": "-99.236400"
  },
  {
    "id": "730434",
    "country": "MX",
    "zipcode": "62214",
    "name": "Hermanos Rodríguez (Suterm)",
    "region": "Morelos",
    "short_region": "17",
    "lat": "18.977300",
    "lon": "-99.241800"
  },
  {
    "id": "730435",
    "country": "MX",
    "zipcode": "62214",
    "name": "Brisas de Cuernavaca",
    "region": "Morelos",
    "short_region": "17",
    "lat": "18.977300",
    "lon": "-99.241800"
  },
  {
    "id": "730436",
    "country": "MX",
    "zipcode": "62214",
    "name": "Ampliación Chamilpa",
    "region": "Morelos",
    "short_region": "17",
    "lat": "18.977300",
    "lon": "-99.241800"
  },
  {
    "id": "730437",
    "country": "MX",
    "zipcode": "62214",
    "name": "Buenaventura",
    "region": "Morelos",
    "short_region": "17",
    "lat": "18.977300",
    "lon": "-99.241800"
  },
  {
    "id": "730438",
    "country": "MX",
    "zipcode": "62214",
    "name": "Benito Juárez (Chamilpa)",
    "region": "Morelos",
    "short_region": "17",
    "lat": "18.977300",
    "lon": "-99.241800"
  },
  {
    "id": "730439",
    "country": "MX",
    "zipcode": "62215",
    "name": "Blanca Universidad",
    "region": "Morelos",
    "short_region": "17",
    "lat": "18.975000",
    "lon": "-99.244700"
  },
  {
    "id": "730440",
    "country": "MX",
    "zipcode": "62215",
    "name": "Veranda",
    "region": "Morelos",
    "short_region": "17",
    "lat": "18.981000",
    "lon": "-99.243000"
  },
  {
    "id": "730441",
    "country": "MX",
    "zipcode": "62215",
    "name": "Río Balsas",
    "region": "Morelos",
    "short_region": "17",
    "lat": "18.973700",
    "lon": "-99.243200"
  },
  {
    "id": "730442",
    "country": "MX",
    "zipcode": "62215",
    "name": "Universidad",
    "region": "Morelos",
    "short_region": "17",
    "lat": "18.976700",
    "lon": "-99.242500"
  },
  {
    "id": "730443",
    "country": "MX",
    "zipcode": "62217",
    "name": "Lomas de Chamilpa 2a Secc.",
    "region": "Morelos",
    "short_region": "17",
    "lat": "18.977300",
    "lon": "-99.241800"
  },
  {
    "id": "730444",
    "country": "MX",
    "zipcode": "62218",
    "name": "Lomas de Chamilpa",
    "region": "Morelos",
    "short_region": "17",
    "lat": "18.986600",
    "lon": "-99.241200"
  },
  {
    "id": "730445",
    "country": "MX",
    "zipcode": "62219",
    "name": "Centro SCT Morelos",
    "region": "Morelos",
    "short_region": "17",
    "lat": "18.977300",
    "lon": "-99.241800"
  },
  {
    "id": "730446",
    "country": "MX",
    "zipcode": "62220",
    "name": "Ocotepec",
    "region": "Morelos",
    "short_region": "17",
    "lat": "18.973900",
    "lon": "-99.221500"
  },
  {
    "id": "730447",
    "country": "MX",
    "zipcode": "62226",
    "name": "Texcaltepec",
    "region": "Morelos",
    "short_region": "17",
    "lat": "18.962600",
    "lon": "-99.215100"
  },
  {
    "id": "730448",
    "country": "MX",
    "zipcode": "62227",
    "name": "Ampliación Ocotepec",
    "region": "Morelos",
    "short_region": "17",
    "lat": "18.929600",
    "lon": "-99.219000"
  },
  {
    "id": "730449",
    "country": "MX",
    "zipcode": "62228",
    "name": "Conjunto Aries",
    "region": "Morelos",
    "short_region": "17",
    "lat": "18.815600",
    "lon": "-99.209400"
  },
  {
    "id": "730450",
    "country": "MX",
    "zipcode": "62228",
    "name": "Ampliación Emiliano Zapata",
    "region": "Morelos",
    "short_region": "17",
    "lat": "18.938900",
    "lon": "-99.263200"
  },
  {
    "id": "730451",
    "country": "MX",
    "zipcode": "62229",
    "name": "Nogales",
    "region": "Morelos",
    "short_region": "17",
    "lat": "18.966200",
    "lon": "-99.230000"
  },
  {
    "id": "730452",
    "country": "MX",
    "zipcode": "62230",
    "name": "San Cristóbal",
    "region": "Morelos",
    "short_region": "17",
    "lat": "18.961200",
    "lon": "-99.233000"
  },
  {
    "id": "730453",
    "country": "MX",
    "zipcode": "62230",
    "name": "Maravillas",
    "region": "Morelos",
    "short_region": "17",
    "lat": "18.961200",
    "lon": "-99.233000"
  },
  {
    "id": "730454",
    "country": "MX",
    "zipcode": "62233",
    "name": "Tlaltepexco",
    "region": "Morelos",
    "short_region": "17",
    "lat": "18.955400",
    "lon": "-99.233100"
  },
  {
    "id": "730455",
    "country": "MX",
    "zipcode": "62233",
    "name": "La Paloma",
    "region": "Morelos",
    "short_region": "17",
    "lat": "18.955400",
    "lon": "-99.233100"
  },
  {
    "id": "730456",
    "country": "MX",
    "zipcode": "62237",
    "name": "Los Faroles",
    "region": "Morelos",
    "short_region": "17",
    "lat": "18.955900",
    "lon": "-99.234300"
  },
  {
    "id": "730457",
    "country": "MX",
    "zipcode": "62239",
    "name": "Prados de Cuernavaca",
    "region": "Morelos",
    "short_region": "17",
    "lat": "18.949100",
    "lon": "-99.231900"
  },
  {
    "id": "730458",
    "country": "MX",
    "zipcode": "62240",
    "name": "Rincón del Valle",
    "region": "Morelos",
    "short_region": "17",
    "lat": "18.947400",
    "lon": "-99.222200"
  },
  {
    "id": "730459",
    "country": "MX",
    "zipcode": "62240",
    "name": "Lomas de Cortes",
    "region": "Morelos",
    "short_region": "17",
    "lat": "18.953400",
    "lon": "-99.223800"
  },
  {
    "id": "730460",
    "country": "MX",
    "zipcode": "62240",
    "name": "Versalles",
    "region": "Morelos",
    "short_region": "17",
    "lat": "18.950400",
    "lon": "-99.223000"
  },
  {
    "id": "730461",
    "country": "MX",
    "zipcode": "62243",
    "name": "El Veladero",
    "region": "Morelos",
    "short_region": "17",
    "lat": "18.952000",
    "lon": "-99.224300"
  },
  {
    "id": "730462",
    "country": "MX",
    "zipcode": "62243",
    "name": "San Salvador",
    "region": "Morelos",
    "short_region": "17",
    "lat": "18.952000",
    "lon": "-99.224300"
  },
  {
    "id": "730463",
    "country": "MX",
    "zipcode": "62245",
    "name": "Recursos Hidráulicos",
    "region": "Morelos",
    "short_region": "17",
    "lat": "18.948200",
    "lon": "-99.227200"
  },
  {
    "id": "730464",
    "country": "MX",
    "zipcode": "62247",
    "name": "Lomas de Cortes INFONAVIT",
    "region": "Morelos",
    "short_region": "17",
    "lat": "18.951000",
    "lon": "-99.226200"
  },
  {
    "id": "730465",
    "country": "MX",
    "zipcode": "62248",
    "name": "Residencial las Flores",
    "region": "Morelos",
    "short_region": "17",
    "lat": "18.953400",
    "lon": "-99.223800"
  },
  {
    "id": "730466",
    "country": "MX",
    "zipcode": "62248",
    "name": "Lomas del Conde",
    "region": "Morelos",
    "short_region": "17",
    "lat": "18.953400",
    "lon": "-99.223800"
  },
  {
    "id": "730467",
    "country": "MX",
    "zipcode": "62248",
    "name": "Lomas de Cortes",
    "region": "Morelos",
    "short_region": "17",
    "lat": "18.953400",
    "lon": "-99.223800"
  },
  {
    "id": "730468",
    "country": "MX",
    "zipcode": "62249",
    "name": "Tecomulco",
    "region": "Morelos",
    "short_region": "17",
    "lat": "18.958700",
    "lon": "-99.222800"
  },
  {
    "id": "730469",
    "country": "MX",
    "zipcode": "62249",
    "name": "Ixtacpan (Zigapan)",
    "region": "Morelos",
    "short_region": "17",
    "lat": "18.958700",
    "lon": "-99.222800"
  },
  {
    "id": "730470",
    "country": "MX",
    "zipcode": "62250",
    "name": "Del Empleado",
    "region": "Morelos",
    "short_region": "17",
    "lat": "18.943300",
    "lon": "-99.231100"
  },
  {
    "id": "730471",
    "country": "MX",
    "zipcode": "62250",
    "name": "Base Tranquilidad",
    "region": "Morelos",
    "short_region": "17",
    "lat": "18.946400",
    "lon": "-99.231400"
  },
  {
    "id": "730472",
    "country": "MX",
    "zipcode": "62250",
    "name": "Tezontepec",
    "region": "Morelos",
    "short_region": "17",
    "lat": "18.940100",
    "lon": "-99.230700"
  },
  {
    "id": "730473",
    "country": "MX",
    "zipcode": "62253",
    "name": "Lomas de La Selva Oriente",
    "region": "Morelos",
    "short_region": "17",
    "lat": "18.943300",
    "lon": "-99.231100"
  },
  {
    "id": "730474",
    "country": "MX",
    "zipcode": "62253",
    "name": "Pilancón",
    "region": "Morelos",
    "short_region": "17",
    "lat": "18.943300",
    "lon": "-99.231100"
  },
  {
    "id": "730475",
    "country": "MX",
    "zipcode": "62260",
    "name": "Reforma",
    "region": "Morelos",
    "short_region": "17",
    "lat": "18.938900",
    "lon": "-99.263200"
  },
  {
    "id": "730476",
    "country": "MX",
    "zipcode": "62269",
    "name": "Jardines de Reforma",
    "region": "Morelos",
    "short_region": "17",
    "lat": "18.943900",
    "lon": "-99.222300"
  },
  {
    "id": "730477",
    "country": "MX",
    "zipcode": "62269",
    "name": "Valle Sol",
    "region": "Morelos",
    "short_region": "17",
    "lat": "18.943900",
    "lon": "-99.222300"
  },
  {
    "id": "730478",
    "country": "MX",
    "zipcode": "62270",
    "name": "Lomas de Miraval",
    "region": "Morelos",
    "short_region": "17",
    "lat": "18.943900",
    "lon": "-99.237000"
  },
  {
    "id": "730479",
    "country": "MX",
    "zipcode": "62270",
    "name": "Miraval",
    "region": "Morelos",
    "short_region": "17",
    "lat": "18.933700",
    "lon": "-99.236300"
  },
  {
    "id": "730480",
    "country": "MX",
    "zipcode": "62270",
    "name": "Lomas de La Selva",
    "region": "Morelos",
    "short_region": "17",
    "lat": "18.954200",
    "lon": "-99.237600"
  },
  {
    "id": "730481",
    "country": "MX",
    "zipcode": "62280",
    "name": "Gualupita",
    "region": "Morelos",
    "short_region": "17",
    "lat": "18.930000",
    "lon": "-99.233000"
  },
  {
    "id": "730482",
    "country": "MX",
    "zipcode": "62283",
    "name": "La Estación",
    "region": "Morelos",
    "short_region": "17",
    "lat": "18.938900",
    "lon": "-99.263200"
  },
  {
    "id": "730483",
    "country": "MX",
    "zipcode": "62284",
    "name": "Teopanzolco",
    "region": "Morelos",
    "short_region": "17",
    "lat": "18.928500",
    "lon": "-99.221900"
  },
  {
    "id": "730484",
    "country": "MX",
    "zipcode": "62285",
    "name": "Patios de la Estación",
    "region": "Morelos",
    "short_region": "17",
    "lat": "18.929800",
    "lon": "-99.227700"
  },
  {
    "id": "730485",
    "country": "MX",
    "zipcode": "62290",
    "name": "Vista Hermosa",
    "region": "Morelos",
    "short_region": "17",
    "lat": "18.938900",
    "lon": "-99.263200"
  },
  {
    "id": "730486",
    "country": "MX",
    "zipcode": "62293",
    "name": "Lomas de Vista Hermosa",
    "region": "Morelos",
    "short_region": "17",
    "lat": "18.946800",
    "lon": "-99.215400"
  },
  {
    "id": "730487",
    "country": "MX",
    "zipcode": "62293",
    "name": "La Fuente",
    "region": "Morelos",
    "short_region": "17",
    "lat": "18.946800",
    "lon": "-99.215400"
  },
  {
    "id": "730488",
    "country": "MX",
    "zipcode": "62294",
    "name": "Tlalquiltompan",
    "region": "Morelos",
    "short_region": "17",
    "lat": "18.955600",
    "lon": "-99.216000"
  },
  {
    "id": "730489",
    "country": "MX",
    "zipcode": "62294",
    "name": "Providencia",
    "region": "Morelos",
    "short_region": "17",
    "lat": "18.955600",
    "lon": "-99.216000"
  },
  {
    "id": "730490",
    "country": "MX",
    "zipcode": "62294",
    "name": "Federación",
    "region": "Morelos",
    "short_region": "17",
    "lat": "18.955200",
    "lon": "-99.214600"
  },
  {
    "id": "730491",
    "country": "MX",
    "zipcode": "62294",
    "name": "Ahuehuetitla",
    "region": "Morelos",
    "short_region": "17",
    "lat": "18.955900",
    "lon": "-99.217500"
  },
  {
    "id": "730492",
    "country": "MX",
    "zipcode": "62295",
    "name": "Extensión Vista Hermosa",
    "region": "Morelos",
    "short_region": "17",
    "lat": "18.945000",
    "lon": "-99.212500"
  },