[
  {
    "id": "30001",
    "country": "AT",
    "zipcode": "4714",
    "name": "Holzhäuseln bei Hart",
    "region": "Oberösterreich",
    "short_region": "04",
    "lat": "48.243900",
    "lon": "13.795400"
  },
  {
    "id": "30002",
    "country": "AT",
    "zipcode": "4714",
    "name": "Hirm",
    "region": "Oberösterreich",
    "short_region": "04",
    "lat": "48.150000",
    "lon": "13.800000"
  },
  {
    "id": "30003",
    "country": "AT",
    "zipcode": "4714",
    "name": "Holzhäuseln bei Wilhelmsberg",
    "region": "Oberösterreich",
    "short_region": "04",
    "lat": "48.243900",
    "lon": "13.795400"
  },
  {
    "id": "30004",
    "country": "AT",
    "zipcode": "4714",
    "name": "Wilhelmsberg",
    "region": "Oberösterreich",
    "short_region": "04",
    "lat": "48.150000",
    "lon": "13.800000"
  },
  {
    "id": "30005",
    "country": "AT",
    "zipcode": "4714",
    "name": "Wimm",
    "region": "Oberösterreich",
    "short_region": "04",
    "lat": "48.243900",
    "lon": "13.795400"
  },
  {
    "id": "30006",
    "country": "AT",
    "zipcode": "4714",
    "name": "Wald",
    "region": "Oberösterreich",
    "short_region": "04",
    "lat": "48.243900",
    "lon": "13.795400"
  },
  {
    "id": "30007",
    "country": "AT",
    "zipcode": "4714",
    "name": "Straß",
    "region": "Oberösterreich",
    "short_region": "04",
    "lat": "48.243900",
    "lon": "13.795400"
  },
  {
    "id": "30008",
    "country": "AT",
    "zipcode": "4714",
    "name": "Rahof",
    "region": "Oberösterreich",
    "short_region": "04",
    "lat": "48.243900",
    "lon": "13.795400"
  },
  {
    "id": "30009",
    "country": "AT",
    "zipcode": "4714",
    "name": "Radhof",
    "region": "Oberösterreich",
    "short_region": "04",
    "lat": "48.243900",
    "lon": "13.795400"
  },
  {
    "id": "30010",
    "country": "AT",
    "zipcode": "4714",
    "name": "Obergallspach",
    "region": "Oberösterreich",
    "short_region": "04",
    "lat": "48.243900",
    "lon": "13.795400"
  },
  {
    "id": "30011",
    "country": "AT",
    "zipcode": "4714",
    "name": "Niederetnisch",
    "region": "Oberösterreich",
    "short_region": "04",
    "lat": "48.243900",
    "lon": "13.795400"
  },
  {
    "id": "30012",
    "country": "AT",
    "zipcode": "4714",
    "name": "Niederbuch",
    "region": "Oberösterreich",
    "short_region": "04",
    "lat": "48.243900",
    "lon": "13.795400"
  },
  {
    "id": "30013",
    "country": "AT",
    "zipcode": "4714",
    "name": "Hart",
    "region": "Oberösterreich",
    "short_region": "04",
    "lat": "48.243900",
    "lon": "13.795400"
  },
  {
    "id": "30014",
    "country": "AT",
    "zipcode": "4714",
    "name": "Freinberg",
    "region": "Oberösterreich",
    "short_region": "04",
    "lat": "48.243900",
    "lon": "13.795400"
  },
  {
    "id": "30015",
    "country": "AT",
    "zipcode": "4714",
    "name": "Bruckhof",
    "region": "Oberösterreich",
    "short_region": "04",
    "lat": "48.243900",
    "lon": "13.795400"
  },
  {
    "id": "30016",
    "country": "AT",
    "zipcode": "4714",
    "name": "Breitwies",
    "region": "Oberösterreich",
    "short_region": "04",
    "lat": "48.243900",
    "lon": "13.795400"
  },
  {
    "id": "30017",
    "country": "AT",
    "zipcode": "4714",
    "name": "Breinroith",
    "region": "Oberösterreich",
    "short_region": "04",
    "lat": "48.243900",
    "lon": "13.795400"
  },
  {
    "id": "30018",
    "country": "AT",
    "zipcode": "4714",
    "name": "Zwisl",
    "region": "Oberösterreich",
    "short_region": "04",
    "lat": "48.243900",
    "lon": "13.795400"
  },
  {
    "id": "30019",
    "country": "AT",
    "zipcode": "4714",
    "name": "Vornbuch",
    "region": "Oberösterreich",
    "short_region": "04",
    "lat": "48.243900",
    "lon": "13.795400"
  },
  {
    "id": "30020",
    "country": "AT",
    "zipcode": "4714",
    "name": "Trappenhof",
    "region": "Oberösterreich",
    "short_region": "04",
    "lat": "48.243900",
    "lon": "13.795400"
  },
  {
    "id": "30021",
    "country": "AT",
    "zipcode": "4714",
    "name": "Schlatt",
    "region": "Oberösterreich",
    "short_region": "04",
    "lat": "48.243900",
    "lon": "13.795400"
  },
  {
    "id": "30022",
    "country": "AT",
    "zipcode": "4714",
    "name": "Pfarrhofsberg",
    "region": "Oberösterreich",
    "short_region": "04",
    "lat": "48.243900",
    "lon": "13.795400"
  },
  {
    "id": "30023",
    "country": "AT",
    "zipcode": "4714",
    "name": "Oberetnisch",
    "region": "Oberösterreich",
    "short_region": "04",
    "lat": "48.243900",
    "lon": "13.795400"
  },
  {
    "id": "30024",
    "country": "AT",
    "zipcode": "4714",
    "name": "Moos",
    "region": "Oberösterreich",
    "short_region": "04",
    "lat": "48.243900",
    "lon": "13.795400"
  },
  {
    "id": "30025",
    "country": "AT",
    "zipcode": "4714",
    "name": "Langdorf",
    "region": "Oberösterreich",
    "short_region": "04",
    "lat": "48.243900",
    "lon": "13.795400"
  },
  {
    "id": "30026",
    "country": "AT",
    "zipcode": "4714",
    "name": "Kröstlinghof",
    "region": "Oberösterreich",
    "short_region": "04",
    "lat": "48.243900",
    "lon": "13.795400"
  },
  {
    "id": "30027",
    "country": "AT",
    "zipcode": "4714",
    "name": "Kirchberg",
    "region": "Oberösterreich",
    "short_region": "04",
    "lat": "48.243900",
    "lon": "13.795400"
  },
  {
    "id": "30028",
    "country": "AT",
    "zipcode": "4714",
    "name": "Holzackern",
    "region": "Oberösterreich",
    "short_region": "04",
    "lat": "48.243900",
    "lon": "13.795400"
  },
  {
    "id": "30029",
    "country": "AT",
    "zipcode": "4714",
    "name": "Gferet",
    "region": "Oberösterreich",
    "short_region": "04",
    "lat": "48.243900",
    "lon": "13.795400"
  },
  {
    "id": "30030",
    "country": "AT",
    "zipcode": "4714",
    "name": "Felling",
    "region": "Oberösterreich",
    "short_region": "04",
    "lat": "48.243900",
    "lon": "13.795400"
  },
  {
    "id": "30031",
    "country": "AT",
    "zipcode": "4714",
    "name": "Etnischberg",
    "region": "Oberösterreich",
    "short_region": "04",
    "lat": "48.243900",
    "lon": "13.795400"
  },
  {
    "id": "30032",
    "country": "AT",
    "zipcode": "4714",
    "name": "Egg",
    "region": "Oberösterreich",
    "short_region": "04",
    "lat": "48.243900",
    "lon": "13.795400"
  },
  {
    "id": "30033",
    "country": "AT",
    "zipcode": "4714",
    "name": "Oberndorf",
    "region": "Oberösterreich",
    "short_region": "04",
    "lat": "48.160000",
    "lon": "13.784500"
  },
  {
    "id": "30034",
    "country": "AT",
    "zipcode": "4714",
    "name": "Roitham",
    "region": "Oberösterreich",
    "short_region": "04",
    "lat": "48.190500",
    "lon": "13.777900"
  },
  {
    "id": "30035",
    "country": "AT",
    "zipcode": "4714",
    "name": "Inn",
    "region": "Oberösterreich",
    "short_region": "04",
    "lat": "48.164100",
    "lon": "13.794200"
  },
  {
    "id": "30036",
    "country": "AT",
    "zipcode": "4714",
    "name": "Meggenhofen",
    "region": "Oberösterreich",
    "short_region": "04",
    "lat": "48.180200",
    "lon": "13.795800"
  },
  {
    "id": "30037",
    "country": "AT",
    "zipcode": "4715",
    "name": "Oberolzing",
    "region": "Oberösterreich",
    "short_region": "04",
    "lat": "48.266700",
    "lon": "13.700000"
  },
  {
    "id": "30038",
    "country": "AT",
    "zipcode": "4715",
    "name": "Obertrattnach",
    "region": "Oberösterreich",
    "short_region": "04",
    "lat": "48.245700",
    "lon": "13.759800"
  },
  {
    "id": "30039",
    "country": "AT",
    "zipcode": "4715",
    "name": "Niedertrattnach",
    "region": "Oberösterreich",
    "short_region": "04",
    "lat": "48.233300",
    "lon": "13.766700"
  },
  {
    "id": "30040",
    "country": "AT",
    "zipcode": "4715",
    "name": "Widldorf",
    "region": "Oberösterreich",
    "short_region": "04",
    "lat": "48.274000",
    "lon": "13.746900"
  },
  {
    "id": "30041",
    "country": "AT",
    "zipcode": "4715",
    "name": "Taufkirchen an der Trattnach",
    "region": "Oberösterreich",
    "short_region": "04",
    "lat": "48.247300",
    "lon": "13.747700"
  },
  {
    "id": "30042",
    "country": "AT",
    "zipcode": "4715",
    "name": "Unterolzing",
    "region": "Oberösterreich",
    "short_region": "04",
    "lat": "48.267200",
    "lon": "13.726200"
  },
  {
    "id": "30043",
    "country": "AT",
    "zipcode": "4715",
    "name": "Aich",
    "region": "Oberösterreich",
    "short_region": "04",
    "lat": "48.243900",
    "lon": "13.795400"
  },
  {
    "id": "30044",
    "country": "AT",
    "zipcode": "4715",
    "name": "Gstötten",
    "region": "Oberösterreich",
    "short_region": "04",
    "lat": "48.243900",
    "lon": "13.795400"
  },
  {
    "id": "30045",
    "country": "AT",
    "zipcode": "4715",
    "name": "Gries",
    "region": "Oberösterreich",
    "short_region": "04",
    "lat": "48.243900",
    "lon": "13.795400"
  },
  {
    "id": "30046",
    "country": "AT",
    "zipcode": "4715",
    "name": "Fürstling",
    "region": "Oberösterreich",
    "short_region": "04",
    "lat": "48.243900",
    "lon": "13.795400"
  },
  {
    "id": "30047",
    "country": "AT",
    "zipcode": "4715",
    "name": "Erb",
    "region": "Oberösterreich",
    "short_region": "04",
    "lat": "48.243900",
    "lon": "13.795400"
  },
  {
    "id": "30048",
    "country": "AT",
    "zipcode": "4715",
    "name": "Hehenberg",
    "region": "Oberösterreich",
    "short_region": "04",
    "lat": "48.243700",
    "lon": "13.705600"
  },
  {
    "id": "30049",
    "country": "AT",
    "zipcode": "4715",
    "name": "Weidenau",
    "region": "Oberösterreich",
    "short_region": "04",
    "lat": "48.243900",
    "lon": "13.795400"
  },
  {
    "id": "30050",
    "country": "AT",
    "zipcode": "4715",
    "name": "Stockwies",
    "region": "Oberösterreich",
    "short_region": "04",
    "lat": "48.243900",
    "lon": "13.795400"
  },
  {
    "id": "30051",
    "country": "AT",
    "zipcode": "4715",
    "name": "Odlboding",
    "region": "Oberösterreich",
    "short_region": "04",
    "lat": "48.243900",
    "lon": "13.795400"
  },
  {
    "id": "30052",
    "country": "AT",
    "zipcode": "4715",
    "name": "Mödlbach",
    "region": "Oberösterreich",
    "short_region": "04",
    "lat": "48.243900",
    "lon": "13.795400"
  },
  {
    "id": "30053",
    "country": "AT",
    "zipcode": "4715",
    "name": "Holz",
    "region": "Oberösterreich",
    "short_region": "04",
    "lat": "48.243900",
    "lon": "13.795400"
  },
  {
    "id": "30054",
    "country": "AT",
    "zipcode": "4715",
    "name": "Haslau",
    "region": "Oberösterreich",
    "short_region": "04",
    "lat": "48.243900",
    "lon": "13.795400"
  },
  {
    "id": "30055",
    "country": "AT",
    "zipcode": "4715",
    "name": "Grubhof",
    "region": "Oberösterreich",
    "short_region": "04",
    "lat": "48.243900",
    "lon": "13.795400"
  },
  {
    "id": "30056",
    "country": "AT",
    "zipcode": "4715",
    "name": "Fellhof",
    "region": "Oberösterreich",
    "short_region": "04",
    "lat": "48.243900",
    "lon": "13.795400"
  },
  {
    "id": "30057",
    "country": "AT",
    "zipcode": "4715",
    "name": "Adrischendorf",
    "region": "Oberösterreich",
    "short_region": "04",
    "lat": "48.243900",
    "lon": "13.795400"
  },
  {
    "id": "30058",
    "country": "AT",
    "zipcode": "4715",
    "name": "Damberg",
    "region": "Oberösterreich",
    "short_region": "04",
    "lat": "48.243900",
    "lon": "13.795400"
  },
  {
    "id": "30059",
    "country": "AT",
    "zipcode": "4715",
    "name": "Unterstetten",
    "region": "Oberösterreich",
    "short_region": "04",
    "lat": "48.250000",
    "lon": "13.766700"
  },
  {
    "id": "30060",
    "country": "AT",
    "zipcode": "4715",
    "name": "Keneding",
    "region": "Oberösterreich",
    "short_region": "04",
    "lat": "48.243900",
    "lon": "13.795400"
  },
  {
    "id": "30061",
    "country": "AT",
    "zipcode": "4715",
    "name": "Hofmaning",
    "region": "Oberösterreich",
    "short_region": "04",
    "lat": "48.243900",
    "lon": "13.795400"
  },
  {
    "id": "30062",
    "country": "AT",
    "zipcode": "4715",
    "name": "Vatersam",
    "region": "Oberösterreich",
    "short_region": "04",
    "lat": "48.243900",
    "lon": "13.795400"
  },
  {
    "id": "30063",
    "country": "AT",
    "zipcode": "4715",
    "name": "Untertrattbach",
    "region": "Oberösterreich",
    "short_region": "04",
    "lat": "48.243900",
    "lon": "13.795400"
  },
  {
    "id": "30064",
    "country": "AT",
    "zipcode": "4715",
    "name": "Stadlberg",
    "region": "Oberösterreich",
    "short_region": "04",
    "lat": "48.243900",
    "lon": "13.795400"
  },
  {
    "id": "30065",
    "country": "AT",
    "zipcode": "4715",
    "name": "Helmling",
    "region": "Oberösterreich",
    "short_region": "04",
    "lat": "48.243900",
    "lon": "13.795400"
  },
  {
    "id": "30066",
    "country": "AT",
    "zipcode": "4715",
    "name": "Schröttenham",
    "region": "Oberösterreich",
    "short_region": "04",
    "lat": "48.243900",
    "lon": "13.795400"
  },
  {
    "id": "30067",
    "country": "AT",
    "zipcode": "4715",
    "name": "Winkl",
    "region": "Oberösterreich",
    "short_region": "04",
    "lat": "48.243900",
    "lon": "13.795400"
  },
  {
    "id": "30068",
    "country": "AT",
    "zipcode": "4715",
    "name": "Aichet",
    "region": "Oberösterreich",
    "short_region": "04",
    "lat": "48.243900",
    "lon": "13.795400"
  },
  {
    "id": "30069",
    "country": "AT",
    "zipcode": "4715",
    "name": "Reischau",
    "region": "Oberösterreich",
    "short_region": "04",
    "lat": "48.243900",
    "lon": "13.795400"
  },
  {
    "id": "30070",
    "country": "AT",
    "zipcode": "4715",
    "name": "Altenhof",
    "region": "Oberösterreich",
    "short_region": "04",
    "lat": "48.243900",
    "lon": "13.795400"
  },
  {
    "id": "30071",
    "country": "AT",
    "zipcode": "4715",
    "name": "Ragering",
    "region": "Oberösterreich",
    "short_region": "04",
    "lat": "48.243900",
    "lon": "13.795400"
  },
  {
    "id": "30072",
    "country": "AT",
    "zipcode": "4715",
    "name": "Roith",
    "region": "Oberösterreich",
    "short_region": "04",
    "lat": "48.232300",
    "lon": "13.735600"
  },
  {
    "id": "30073",
    "country": "AT",
    "zipcode": "4715",
    "name": "Obertrattbach",
    "region": "Oberösterreich",
    "short_region": "04",
    "lat": "48.243900",
    "lon": "13.795400"
  },
  {
    "id": "30074",
    "country": "AT",
    "zipcode": "4715",
    "name": "Korntnerberg",
    "region": "Oberösterreich",
    "short_region": "04",
    "lat": "48.243900",
    "lon": "13.795400"
  },
  {
    "id": "30075",
    "country": "AT",
    "zipcode": "4715",
    "name": "Eiblhub",
    "region": "Oberösterreich",
    "short_region": "04",
    "lat": "48.243900",
    "lon": "13.795400"
  },
  {
    "id": "30076",
    "country": "AT",
    "zipcode": "4715",
    "name": "Dietensam",
    "region": "Oberösterreich",
    "short_region": "04",
    "lat": "48.243900",
    "lon": "13.795400"
  },
  {
    "id": "30077",
    "country": "AT",
    "zipcode": "4715",
    "name": "Brandstetten",
    "region": "Oberösterreich",
    "short_region": "04",
    "lat": "48.243900",
    "lon": "13.795400"
  },
  {
    "id": "30078",
    "country": "AT",
    "zipcode": "4716",
    "name": "Pichl",
    "region": "Oberösterreich",
    "short_region": "04",
    "lat": "48.243900",
    "lon": "13.795400"
  },
  {
    "id": "30079",
    "country": "AT",
    "zipcode": "4716",
    "name": "Gassen",
    "region": "Oberösterreich",
    "short_region": "04",
    "lat": "48.243900",
    "lon": "13.795400"
  },
  {
    "id": "30080",
    "country": "AT",
    "zipcode": "4716",
    "name": "Jungroith",
    "region": "Oberösterreich",
    "short_region": "04",
    "lat": "48.243900",
    "lon": "13.795400"
  },
  {
    "id": "30081",
    "country": "AT",
    "zipcode": "4716",
    "name": "Hof",
    "region": "Oberösterreich",
    "short_region": "04",
    "lat": "48.243900",
    "lon": "13.795400"
  },
  {
    "id": "30082",
    "country": "AT",
    "zipcode": "4716",
    "name": "Sommerfeld",
    "region": "Oberösterreich",
    "short_region": "04",
    "lat": "48.243900",
    "lon": "13.795400"
  },
  {
    "id": "30083",
    "country": "AT",
    "zipcode": "4716",
    "name": "Sinzing",
    "region": "Oberösterreich",
    "short_region": "04",
    "lat": "48.243900",
    "lon": "13.795400"
  },
  {
    "id": "30084",
    "country": "AT",
    "zipcode": "4716",
    "name": "Weng",
    "region": "Oberösterreich",
    "short_region": "04",
    "lat": "48.228700",
    "lon": "13.756900"
  },
  {
    "id": "30085",
    "country": "AT",
    "zipcode": "4716",
    "name": "Aigen",
    "region": "Oberösterreich",
    "short_region": "04",
    "lat": "48.243900",
    "lon": "13.795400"
  },
  {
    "id": "30086",
    "country": "AT",
    "zipcode": "4716",
    "name": "Brunham",
    "region": "Oberösterreich",
    "short_region": "04",
    "lat": "48.243900",
    "lon": "13.795400"
  },
  {
    "id": "30087",
    "country": "AT",
    "zipcode": "4716",
    "name": "Strötting",
    "region": "Oberösterreich",
    "short_region": "04",
    "lat": "48.223500",
    "lon": "13.732100"
  },
  {
    "id": "30088",
    "country": "AT",
    "zipcode": "4716",
    "name": "Regnersdorf",
    "region": "Oberösterreich",
    "short_region": "04",
    "lat": "48.243900",
    "lon": "13.795400"
  },
  {
    "id": "30089",
    "country": "AT",
    "zipcode": "4716",
    "name": "Schallbach",
    "region": "Oberösterreich",
    "short_region": "04",
    "lat": "48.243900",
    "lon": "13.795400"
  },
  {
    "id": "30090",
    "country": "AT",
    "zipcode": "4716",
    "name": "Panbruck",
    "region": "Oberösterreich",
    "short_region": "04",
    "lat": "48.243900",
    "lon": "13.795400"
  },
  {
    "id": "30091",
    "country": "AT",
    "zipcode": "4716",
    "name": "Ruhringsdorf",
    "region": "Oberösterreich",
    "short_region": "04",
    "lat": "48.205100",
    "lon": "13.735200"
  },
  {
    "id": "30092",
    "country": "AT",
    "zipcode": "4716",
    "name": "Hofkirchen an der Trattnach",
    "region": "Oberösterreich",
    "short_region": "04",
    "lat": "48.219800",
    "lon": "13.739400"
  },
  {
    "id": "30093",
    "country": "AT",
    "zipcode": "4720",
    "name": "Kallham",
    "region": "Oberösterreich",
    "short_region": "04",
    "lat": "48.284900",
    "lon": "13.710900"
  },
  {
    "id": "30094",
    "country": "AT",
    "zipcode": "4720",
    "name": "Oberrühringsdorf",
    "region": "Oberösterreich",
    "short_region": "04",
    "lat": "48.299900",
    "lon": "13.702100"
  },
  {
    "id": "30095",
    "country": "AT",
    "zipcode": "4720",
    "name": "Aschau",
    "region": "Oberösterreich",
    "short_region": "04",
    "lat": "48.305700",
    "lon": "13.714300"
  },
  {
    "id": "30096",
    "country": "AT",
    "zipcode": "4720",
    "name": "Kimpling",
    "region": "Oberösterreich",
    "short_region": "04",
    "lat": "48.268100",
    "lon": "13.668600"
  },
  {
    "id": "30097",
    "country": "AT",
    "zipcode": "4720",
    "name": "Güttling",
    "region": "Oberösterreich",
    "short_region": "04",
    "lat": "48.293600",
    "lon": "13.682700"
  },
  {
    "id": "30098",
    "country": "AT",
    "zipcode": "4720",
    "name": "Neumarkt im Hausruckkreis",
    "region": "Oberösterreich",
    "short_region": "04",
    "lat": "48.272800",
    "lon": "13.728400"
  },
  {
    "id": "30099",
    "country": "AT",
    "zipcode": "4720",
    "name": "Dürrnaschach",
    "region": "Oberösterreich",
    "short_region": "04",
    "lat": "48.373000",
    "lon": "13.741400"
  },
  {
    "id": "30100",
    "country": "AT",
    "zipcode": "4720",
    "name": "Häuseln am Holz",
    "region": "Oberösterreich",
    "short_region": "04",
    "lat": "48.373000",
    "lon": "13.741400"
  },
  {
    "id": "30101",
    "country": "AT",
    "zipcode": "4720",
    "name": "Oberaschach",
    "region": "Oberösterreich",
    "short_region": "04",
    "lat": "48.373000",
    "lon": "13.741400"
  },
  {
    "id": "30102",
    "country": "AT",
    "zipcode": "4720",
    "name": "Itzling",
    "region": "Oberösterreich",
    "short_region": "04",
    "lat": "48.291200",
    "lon": "13.700000"
  },
  {
    "id": "30103",
    "country": "AT",
    "zipcode": "4720",
    "name": "Sumeding",
    "region": "Oberösterreich",
    "short_region": "04",
    "lat": "48.373000",
    "lon": "13.741400"
  },
  {
    "id": "30104",
    "country": "AT",
    "zipcode": "4720",
    "name": "Unternfürth",
    "region": "Oberösterreich",
    "short_region": "04",
    "lat": "48.373000",
    "lon": "13.741400"
  },
  {
    "id": "30105",
    "country": "AT",
    "zipcode": "4720",
    "name": "Oberhof",
    "region": "Oberösterreich",
    "short_region": "04",
    "lat": "48.373000",
    "lon": "13.741400"
  },
  {
    "id": "30106",
    "country": "AT",
    "zipcode": "4720",
    "name": "Obernfürth",
    "region": "Oberösterreich",
    "short_region": "04",
    "lat": "48.373000",
    "lon": "13.741400"
  },
  {
    "id": "30107",
    "country": "AT",
    "zipcode": "4720",
    "name": "Unterrühringsdorf",
    "region": "Oberösterreich",
    "short_region": "04",
    "lat": "48.302700",
    "lon": "13.704700"
  },
  {
    "id": "30108",
    "country": "AT",
    "zipcode": "4720",
    "name": "Frauenhub",
    "region": "Oberösterreich",
    "short_region": "04",
    "lat": "48.373000",
    "lon": "13.741400"
  },
  {
    "id": "30109",
    "country": "AT",
    "zipcode": "4720",
    "name": "Aigen",
    "region": "Oberösterreich",
    "short_region": "04",
    "lat": "48.373000",
    "lon": "13.741400"
  },
  {
    "id": "30110",
    "country": "AT",
    "zipcode": "4720",
    "name": "Au",
    "region": "Oberösterreich",
    "short_region": "04",
    "lat": "48.373000",
    "lon": "13.741400"
  },
  {
    "id": "30111",
    "country": "AT",
    "zipcode": "4720",
    "name": "Auing",
    "region": "Oberösterreich",
    "short_region": "04",
    "lat": "48.373000",
    "lon": "13.741400"
  },
  {
    "id": "30112",
    "country": "AT",
    "zipcode": "4720",
    "name": "Birnsteig",
    "region": "Oberösterreich",
    "short_region": "04",
    "lat": "48.373000",
    "lon": "13.741400"
  },
  {
    "id": "30113",
    "country": "AT",
    "zipcode": "4720",
    "name": "Ebergassen",
    "region": "Oberösterreich",
    "short_region": "04",
    "lat": "48.373000",
    "lon": "13.741400"
  },
  {
    "id": "30114",
    "country": "AT",
    "zipcode": "4720",
    "name": "Endt",
    "region": "Oberösterreich",
    "short_region": "04",
    "lat": "48.373000",
    "lon": "13.741400"
  },
  {
    "id": "30115",
    "country": "AT",
    "zipcode": "4720",
    "name": "Erlach",
    "region": "Oberösterreich",
    "short_region": "04",
    "lat": "48.373000",
    "lon": "13.741400"
  },
  {
    "id": "30116",
    "country": "AT",
    "zipcode": "4720",
    "name": "Flenkengrub",
    "region": "Oberösterreich",
    "short_region": "04",
    "lat": "48.373000",
    "lon": "13.741400"
  },
  {
    "id": "30117",
    "country": "AT",
    "zipcode": "4720",
    "name": "Geßwagen",
    "region": "Oberösterreich",
    "short_region": "04",
    "lat": "48.373000",
    "lon": "13.741400"
  },
  {
    "id": "30118",
    "country": "AT",
    "zipcode": "4720",
    "name": "Hading",
    "region": "Oberösterreich",
    "short_region": "04",
    "lat": "48.373000",
    "lon": "13.741400"
  },
  {
    "id": "30119",
    "country": "AT",
    "zipcode": "4720",
    "name": "Henning",
    "region": "Oberösterreich",
    "short_region": "04",
    "lat": "48.373000",
    "lon": "13.741400"
  },
  {
    "id": "30120",
    "country": "AT",
    "zipcode": "4720",
    "name": "Holzleithen",
    "region": "Oberösterreich",
    "short_region": "04",
    "lat": "48.373000",
    "lon": "13.741400"
  },
  {
    "id": "30121",
    "country": "AT",
    "zipcode": "4720",
    "name": "Kainzing",
    "region": "Oberösterreich",
    "short_region": "04",
    "lat": "48.373000",
    "lon": "13.741400"
  },
  {
    "id": "30122",
    "country": "AT",
    "zipcode": "4720",
    "name": "Kallhamerdorf",
    "region": "Oberösterreich",
    "short_region": "04",
    "lat": "48.373000",
    "lon": "13.741400"
  },
  {
    "id": "30123",
    "country": "AT",
    "zipcode": "4720",
    "name": "Mairhof",
    "region": "Oberösterreich",
    "short_region": "04",
    "lat": "48.373000",
    "lon": "13.741400"
  },
  {
    "id": "30124",
    "country": "AT",
    "zipcode": "4720",
    "name": "Niederleithen",
    "region": "Oberösterreich",
    "short_region": "04",
    "lat": "48.373000",
    "lon": "13.741400"
  },
  {
    "id": "30125",
    "country": "AT",
    "zipcode": "4720",
    "name": "Obereibach",
    "region": "Oberösterreich",
    "short_region": "04",
    "lat": "48.373000",
    "lon": "13.741400"
  },
  {
    "id": "30126",
    "country": "AT",
    "zipcode": "4720",
    "name": "Obersameting",
    "region": "Oberösterreich",
    "short_region": "04",
    "lat": "48.373000",
    "lon": "13.741400"
  },
  {
    "id": "30127",
    "country": "AT",
    "zipcode": "4720",
    "name": "Parzleithen",
    "region": "Oberösterreich",
    "short_region": "04",
    "lat": "48.373000",
    "lon": "13.741400"
  },
  {
    "id": "30128",
    "country": "AT",
    "zipcode": "4720",
    "name": "Pauzenberg",
    "region": "Oberösterreich",
    "short_region": "04",
    "lat": "48.373000",
    "lon": "13.741400"
  },
  {
    "id": "30129",
    "country": "AT",
    "zipcode": "4720",
    "name": "Pehring",
    "region": "Oberösterreich",
    "short_region": "04",
    "lat": "48.373000",
    "lon": "13.741400"
  },
  {
    "id": "30130",
    "country": "AT",
    "zipcode": "4720",
    "name": "Poing",
    "region": "Oberösterreich",
    "short_region": "04",
    "lat": "48.373000",
    "lon": "13.741400"
  },
  {
    "id": "30131",
    "country": "AT",
    "zipcode": "4720",
    "name": "Puchet",
    "region": "Oberösterreich",
    "short_region": "04",
    "lat": "48.373000",
    "lon": "13.741400"
  },
  {
    "id": "30132",
    "country": "AT",
    "zipcode": "4720",
    "name": "Putzenbach",
    "region": "Oberösterreich",
    "short_region": "04",
    "lat": "48.373000",
    "lon": "13.741400"
  },
  {
    "id": "30133",
    "country": "AT",
    "zipcode": "4720",
    "name": "Schildorf",
    "region": "Oberösterreich",
    "short_region": "04",
    "lat": "48.373000",
    "lon": "13.741400"
  },
  {
    "id": "30134",
    "country": "AT",
    "zipcode": "4720",
    "name": "Sixberg",
    "region": "Oberösterreich",
    "short_region": "04",
    "lat": "48.373000",
    "lon": "13.741400"
  },
  {
    "id": "30135",
    "country": "AT",
    "zipcode": "4720",
    "name": "Stockham",
    "region": "Oberösterreich",
    "short_region": "04",
    "lat": "48.373000",
    "lon": "13.741400"
  },
  {
    "id": "30136",
    "country": "AT",
    "zipcode": "4720",
    "name": "Untersameting",
    "region": "Oberösterreich",
    "short_region": "04",
    "lat": "48.373000",
    "lon": "13.741400"
  },
  {
    "id": "30137",
    "country": "AT",
    "zipcode": "4720",
    "name": "Wachling",
    "region": "Oberösterreich",
    "short_region": "04",
    "lat": "48.373000",
    "lon": "13.741400"
  },
  {
    "id": "30138",
    "country": "AT",
    "zipcode": "4720",
    "name": "Weireth",
    "region": "Oberösterreich",
    "short_region": "04",
    "lat": "48.373000",
    "lon": "13.741400"
  },
  {
    "id": "30139",
    "country": "AT",
    "zipcode": "4720",
    "name": "Wies",
    "region": "Oberösterreich",
    "short_region": "04",
    "lat": "48.373000",
    "lon": "13.741400"
  },
  {
    "id": "30140",
    "country": "AT",
    "zipcode": "4720",
    "name": "Wiesing",
    "region": "Oberösterreich",
    "short_region": "04",
    "lat": "48.373000",
    "lon": "13.741400"
  },
  {
    "id": "30141",
    "country": "AT",
    "zipcode": "4720",
    "name": "Würzberg",
    "region": "Oberösterreich",
    "short_region": "04",
    "lat": "48.373000",
    "lon": "13.741400"
  },
  {
    "id": "30142",
    "country": "AT",
    "zipcode": "4720",
    "name": "Albrechtsberg",
    "region": "Oberösterreich",
    "short_region": "04",
    "lat": "48.373000",
    "lon": "13.741400"
  },
  {
    "id": "30143",
    "country": "AT",
    "zipcode": "4720",
    "name": "Aspeth",
    "region": "Oberösterreich",
    "short_region": "04",
    "lat": "48.373000",
    "lon": "13.741400"
  },
  {
    "id": "30144",
    "country": "AT",
    "zipcode": "4720",
    "name": "Baumgarten",
    "region": "Oberösterreich",
    "short_region": "04",
    "lat": "48.373000",
    "lon": "13.741400"
  },
  {
    "id": "30145",
    "country": "AT",
    "zipcode": "4720",
    "name": "Kirchbach",
    "region": "Oberösterreich",
    "short_region": "04",
    "lat": "48.373000",
    "lon": "13.741400"
  },
  {
    "id": "30146",
    "country": "AT",
    "zipcode": "4720",
    "name": "Hof",
    "region": "Oberösterreich",
    "short_region": "04",
    "lat": "48.373000",
    "lon": "13.741400"
  },
  {
    "id": "30147",
    "country": "AT",
    "zipcode": "4720",
    "name": "Holzhäuseln",
    "region": "Oberösterreich",
    "short_region": "04",
    "lat": "48.373000",
    "lon": "13.741400"
  },
  {
    "id": "30148",
    "country": "AT",
    "zipcode": "4720",
    "name": "Kledt",
    "region": "Oberösterreich",
    "short_region": "04",
    "lat": "48.373000",
    "lon": "13.741400"
  },
  {
    "id": "30149",
    "country": "AT",
    "zipcode": "4720",
    "name": "Kronlach",
    "region": "Oberösterreich",
    "short_region": "04",
    "lat": "48.373000",
    "lon": "13.741400"
  },
  {
    "id": "30150",
    "country": "AT",
    "zipcode": "4720",
    "name": "Lehen",
    "region": "Oberösterreich",
    "short_region": "04",
    "lat": "48.373000",
    "lon": "13.741400"
  },
  {
    "id": "30151",
    "country": "AT",
    "zipcode": "4720",
    "name": "Straßhof",
    "region": "Oberösterreich",
    "short_region": "04",
    "lat": "48.373000",
    "lon": "13.741400"
  },
  {
    "id": "30152",
    "country": "AT",
    "zipcode": "4720",
    "name": "Spielmannsberg",
    "region": "Oberösterreich",
    "short_region": "04",
    "lat": "48.373000",
    "lon": "13.741400"
  },
  {
    "id": "30153",
    "country": "AT",
    "zipcode": "4720",
    "name": "Mairdoppl",
    "region": "Oberösterreich",
    "short_region": "04",
    "lat": "48.373000",
    "lon": "13.741400"
  },
  {
    "id": "30154",
    "country": "AT",
    "zipcode": "4720",
    "name": "Moos",
    "region": "Oberösterreich",
    "short_region": "04",
    "lat": "48.373000",
    "lon": "13.741400"
  },
  {
    "id": "30155",
    "country": "AT",
    "zipcode": "4720",
    "name": "Pötting",
    "region": "Oberösterreich",
    "short_region": "04",
    "lat": "48.283300",
    "lon": "13.770600"
  },
  {
    "id": "30156",
    "country": "AT",
    "zipcode": "4720",
    "name": "Rumpfendopl",
    "region": "Oberösterreich",
    "short_region": "04",
    "lat": "48.373000",
    "lon": "13.741400"
  },
  {
    "id": "30157",
    "country": "AT",
    "zipcode": "4720",
    "name": "Penzing",
    "region": "Oberösterreich",
    "short_region": "04",
    "lat": "48.373000",
    "lon": "13.741400"
  },
  {
    "id": "30158",
    "country": "AT",
    "zipcode": "4722",
    "name": "Gschwendthäuser",
    "region": "Oberösterreich",
    "short_region": "04",
    "lat": "48.373000",
    "lon": "13.741400"
  },
  {
    "id": "30159",
    "country": "AT",
    "zipcode": "4722",
    "name": "Haargassen",
    "region": "Oberösterreich",
    "short_region": "04",
    "lat": "48.373000",
    "lon": "13.741400"
  },
  {
    "id": "30160",
    "country": "AT",
    "zipcode": "4722",
    "name": "Greinsfurth",
    "region": "Oberösterreich",
    "short_region": "04",
    "lat": "48.373000",
    "lon": "13.741400"
  },
  {
    "id": "30161",
    "country": "AT",
    "zipcode": "4722",
    "name": "Hub",
    "region": "Oberösterreich",
    "short_region": "04",
    "lat": "48.373000",
    "lon": "13.741400"
  },
  {
    "id": "30162",
    "country": "AT",
    "zipcode": "4722",
    "name": "Hötzmannsberg",
    "region": "Oberösterreich",
    "short_region": "04",
    "lat": "48.373000",
    "lon": "13.741400"
  },
  {
    "id": "30163",
    "country": "AT",
    "zipcode": "4722",
    "name": "Oberweiding",
    "region": "Oberösterreich",
    "short_region": "04",
    "lat": "48.373000",
    "lon": "13.741400"
  },
  {
    "id": "30164",
    "country": "AT",
    "zipcode": "4722",
    "name": "Nußbaum",
    "region": "Oberösterreich",
    "short_region": "04",
    "lat": "48.373000",
    "lon": "13.741400"
  },
  {
    "id": "30165",
    "country": "AT",
    "zipcode": "4722",
    "name": "Oberaching",
    "region": "Oberösterreich",
    "short_region": "04",
    "lat": "48.373000",
    "lon": "13.741400"
  },
  {
    "id": "30166",
    "country": "AT",
    "zipcode": "4722",
    "name": "Oberbubenberg",
    "region": "Oberösterreich",
    "short_region": "04",
    "lat": "48.373000",
    "lon": "13.741400"
  },
  {
    "id": "30167",
    "country": "AT",
    "zipcode": "4722",
    "name": "Niederaching",
    "region": "Oberösterreich",
    "short_region": "04",
    "lat": "48.373000",
    "lon": "13.741400"
  },
  {
    "id": "30168",
    "country": "AT",
    "zipcode": "4722",
    "name": "Niederensfelden",
    "region": "Oberösterreich",
    "short_region": "04",
    "lat": "48.373000",
    "lon": "13.741400"
  },
  {
    "id": "30169",
    "country": "AT",
    "zipcode": "4722",
    "name": "Niederweiding",
    "region": "Oberösterreich",
    "short_region": "04",
    "lat": "48.373000",
    "lon": "13.741400"
  },
  {
    "id": "30170",
    "country": "AT",
    "zipcode": "4722",
    "name": "Kastlingeredt",
    "region": "Oberösterreich",
    "short_region": "04",
    "lat": "48.373000",
    "lon": "13.741400"
  },
  {
    "id": "30171",
    "country": "AT",
    "zipcode": "4722",
    "name": "Schieferhub",
    "region": "Oberösterreich",
    "short_region": "04",
    "lat": "48.373000",
    "lon": "13.741400"
  },
  {
    "id": "30172",
    "country": "AT",
    "zipcode": "4722",
    "name": "Staureth",
    "region": "Oberösterreich",
    "short_region": "04",
    "lat": "48.373000",
    "lon": "13.741400"
  },
  {
    "id": "30173",
    "country": "AT",
    "zipcode": "4722",
    "name": "Steinbruck",
    "region": "Oberösterreich",
    "short_region": "04",
    "lat": "48.373000",
    "lon": "13.741400"
  },
  {
    "id": "30174",
    "country": "AT",
    "zipcode": "4722",
    "name": "Stieglhof",
    "region": "Oberösterreich",
    "short_region": "04",
    "lat": "48.373000",
    "lon": "13.741400"
  },
  {
    "id": "30175",
    "country": "AT",
    "zipcode": "4722",
    "name": "Thomasberg",
    "region": "Oberösterreich",
    "short_region": "04",
    "lat": "48.373000",
    "lon": "13.741400"
  },
  {
    "id": "30176",
    "country": "AT",
    "zipcode": "4722",
    "name": "Steingrüneredt",
    "region": "Oberösterreich",
    "short_region": "04",
    "lat": "48.373000",
    "lon": "13.741400"
  },
  {
    "id": "30177",
    "country": "AT",
    "zipcode": "4722",
    "name": "Unterbubenberg",
    "region": "Oberösterreich",
    "short_region": "04",
    "lat": "48.373000",
    "lon": "13.741400"
  },
  {
    "id": "30178",
    "country": "AT",
    "zipcode": "4722",
    "name": "Untererleinsbach",
    "region": "Oberösterreich",
    "short_region": "04",
    "lat": "48.373000",
    "lon": "13.741400"
  },
  {
    "id": "30179",
    "country": "AT",
    "zipcode": "4722",
    "name": "Unterndobl",
    "region": "Oberösterreich",
    "short_region": "04",
    "lat": "48.373000",
    "lon": "13.741400"
  },
  {
    "id": "30180",
    "country": "AT",
    "zipcode": "4722",
    "name": "Unterheuberg",
    "region": "Oberösterreich",
    "short_region": "04",
    "lat": "48.373000",
    "lon": "13.741400"
  },
  {
    "id": "30181",
    "country": "AT",
    "zipcode": "4722",
    "name": "Untereibach",
    "region": "Oberösterreich",
    "short_region": "04",
    "lat": "48.373000",
    "lon": "13.741400"
  },
  {
    "id": "30182",
    "country": "AT",
    "zipcode": "4722",
    "name": "Untertreßleinsbach",
    "region": "Oberösterreich",
    "short_region": "04",
    "lat": "48.373000",
    "lon": "13.741400"
  },
  {
    "id": "30183",
    "country": "AT",
    "zipcode": "4722",
    "name": "Untwüsten",
    "region": "Oberösterreich",
    "short_region": "04",
    "lat": "48.373000",
    "lon": "13.741400"
  },
  {
    "id": "30184",
    "country": "AT",
    "zipcode": "4722",
    "name": "Urleinsberg",
    "region": "Oberösterreich",
    "short_region": "04",
    "lat": "48.373000",
    "lon": "13.741400"
  },
  {
    "id": "30185",
    "country": "AT",
    "zipcode": "4722",
    "name": "Vest",
    "region": "Oberösterreich",
    "short_region": "04",
    "lat": "48.373000",
    "lon": "13.741400"
  },
  {
    "id": "30186",
    "country": "AT",
    "zipcode": "4722",
    "name": "Weireth",
    "region": "Oberösterreich",
    "short_region": "04",
    "lat": "48.373000",
    "lon": "13.741400"
  },
  {
    "id": "30187",
    "country": "AT",
    "zipcode": "4722",
    "name": "Waasnerau",
    "region": "Oberösterreich",
    "short_region": "04",
    "lat": "48.373000",
    "lon": "13.741400"
  },
  {
    "id": "30188",
    "country": "AT",
    "zipcode": "4722",
    "name": "Windprechting",
    "region": "Oberösterreich",
    "short_region": "04",
    "lat": "48.373000",
    "lon": "13.741400"
  },
  {
    "id": "30189",
    "country": "AT",
    "zipcode": "4722",
    "name": "Fuchshub",
    "region": "Oberösterreich",
    "short_region": "04",
    "lat": "48.373000",
    "lon": "13.741400"
  },
  {
    "id": "30190",
    "country": "AT",
    "zipcode": "4722",
    "name": "Enzing",
    "region": "Oberösterreich",
    "short_region": "04",
    "lat": "48.373000",
    "lon": "13.741400"
  },
  {
    "id": "30191",
    "country": "AT",
    "zipcode": "4722",
    "name": "Winkl",
    "region": "Oberösterreich",
    "short_region": "04",
    "lat": "48.373000",
    "lon": "13.741400"
  },
  {
    "id": "30192",
    "country": "AT",
    "zipcode": "4722",
    "name": "Obererleinsbach",
    "region": "Oberösterreich",
    "short_region": "04",
    "lat": "48.373000",
    "lon": "13.741400"
  },
  {
    "id": "30193",
    "country": "AT",
    "zipcode": "4722",
    "name": "Pühret",
    "region": "Oberösterreich",
    "short_region": "04",
    "lat": "48.373000",
    "lon": "13.741400"
  },
  {
    "id": "30194",
    "country": "AT",
    "zipcode": "4722",
    "name": "Itzling",
    "region": "Oberösterreich",
    "short_region": "04",
    "lat": "48.373000",
    "lon": "13.741400"
  },
  {
    "id": "30195",
    "country": "AT",
    "zipcode": "4722",
    "name": "Höhenstein",
    "region": "Oberösterreich",
    "short_region": "04",
    "lat": "48.373000",
    "lon": "13.741400"
  },
  {
    "id": "30196",
    "country": "AT",
    "zipcode": "4722",
    "name": "Eckartsroith",
    "region": "Oberösterreich",
    "short_region": "04",
    "lat": "48.302500",
    "lon": "13.757900"
  },
  {
    "id": "30197",
    "country": "AT",
    "zipcode": "4722",
    "name": "Achleiten",
    "region": "Oberösterreich",
    "short_region": "04",
    "lat": "48.373000",
    "lon": "13.741400"
  },
  {
    "id": "30198",
    "country": "AT",
    "zipcode": "4722",
    "name": "Besenberg",
    "region": "Oberösterreich",
    "short_region": "04",
    "lat": "48.373000",
    "lon": "13.741400"
  },
  {
    "id": "30199",
    "country": "AT",
    "zipcode": "4722",
    "name": "Holzleithen",
    "region": "Oberösterreich",
    "short_region": "04",
    "lat": "48.373000",
    "lon": "13.741400"
  },
  {
    "id": "30200",
    "country": "AT",
    "zipcode": "4722",
    "name": "Dunkenedt",
    "region": "Oberösterreich",
    "short_region": "04",
    "lat": "48.373000",
    "lon": "13.741400"
  },
  {
    "id": "30201",
    "country": "AT",
    "zipcode": "4722",
    "name": "Breitau",
    "region": "Oberösterreich",
    "short_region": "04",
    "lat": "48.373000",
    "lon": "13.741400"
  },
  {
    "id": "30202",
    "country": "AT",
    "zipcode": "4722",
    "name": "Brandstätten",
    "region": "Oberösterreich",
    "short_region": "04",
    "lat": "48.373000",
    "lon": "13.741400"
  },
  {
    "id": "30203",
    "country": "AT",
    "zipcode": "4722",
    "name": "Blindenau",
    "region": "Oberösterreich",
    "short_region": "04",
    "lat": "48.373000",
    "lon": "13.741400"
  },
  {
    "id": "30204",
    "country": "AT",
    "zipcode": "4722",
    "name": "Aichet",
    "region": "Oberösterreich",
    "short_region": "04",
    "lat": "48.373000",
    "lon": "13.741400"
  },
  {
    "id": "30205",
    "country": "AT",
    "zipcode": "4722",
    "name": "Ort an der Straß",
    "region": "Oberösterreich",
    "short_region": "04",
    "lat": "48.349700",
    "lon": "13.739000"
  },
  {
    "id": "30206",
    "country": "AT",
    "zipcode": "4722",
    "name": "Adenbruck",
    "region": "Oberösterreich",
    "short_region": "04",
    "lat": "48.316700",
    "lon": "13.733300"
  },
  {
    "id": "30207",
    "country": "AT",
    "zipcode": "4722",
    "name": "Parz am Öhlstampf",
    "region": "Oberösterreich",
    "short_region": "04",
    "lat": "48.373000",
    "lon": "13.741400"
  },
  {
    "id": "30208",
    "country": "AT",
    "zipcode": "4722",
    "name": "Sölden an der Straß",
    "region": "Oberösterreich",
    "short_region": "04",
    "lat": "48.373000",
    "lon": "13.741400"
  },
  {
    "id": "30209",
    "country": "AT",
    "zipcode": "4722",
    "name": "Parz bei Gattern",
    "region": "Oberösterreich",
    "short_region": "04",
    "lat": "48.373000",
    "lon": "13.741400"
  },
  {
    "id": "30210",
    "country": "AT",
    "zipcode": "4722",
    "name": "Ratzling",
    "region": "Oberösterreich",
    "short_region": "04",
    "lat": "48.373000",
    "lon": "13.741400"
  },
  {
    "id": "30211",
    "country": "AT",
    "zipcode": "4722",
    "name": "Buch",
    "region": "Oberösterreich",
    "short_region": "04",
    "lat": "48.336200",
    "lon": "13.801900"
  },
  {
    "id": "30212",
    "country": "AT",
    "zipcode": "4722",
    "name": "St. Pius",
    "region": "Oberösterreich",
    "short_region": "04",
    "lat": "48.373000",
    "lon": "13.741400"
  },
  {
    "id": "30213",
    "country": "AT",
    "zipcode": "4722",
    "name": "Köppensteegen",
    "region": "Oberösterreich",
    "short_region": "04",
    "lat": "48.373000",
    "lon": "13.741400"
  },
  {
    "id": "30214",
    "country": "AT",
    "zipcode": "4722",
    "name": "Mühlbrenning",
    "region": "Oberösterreich",
    "short_region": "04",
    "lat": "48.373000",
    "lon": "13.741400"
  },
  {
    "id": "30215",
    "country": "AT",
    "zipcode": "4722",
    "name": "Mittereibach",
    "region": "Oberösterreich",
    "short_region": "04",
    "lat": "48.373000",
    "lon": "13.741400"
  },
  {
    "id": "30216",
    "country": "AT",
    "zipcode": "4722",
    "name": "Ranna",
    "region": "Oberösterreich",
    "short_region": "04",
    "lat": "48.354100",
    "lon": "13.753900"
  },
  {
    "id": "30217",
    "country": "AT",
    "zipcode": "4722",
    "name": "Freiling",
    "region": "Oberösterreich",
    "short_region": "04",
    "lat": "48.373000",
    "lon": "13.741400"
  },
  {
    "id": "30218",
    "country": "AT",
    "zipcode": "4722",
    "name": "Feichten",
    "region": "Oberösterreich",
    "short_region": "04",
    "lat": "48.373000",
    "lon": "13.741400"
  },
  {
    "id": "30219",
    "country": "AT",
    "zipcode": "4722",
    "name": "Kirchenfeld",
    "region": "Oberösterreich",
    "short_region": "04",
    "lat": "48.373000",
    "lon": "13.741400"
  },
  {
    "id": "30220",
    "country": "AT",
    "zipcode": "4722",
    "name": "Oberngrub",
    "region": "Oberösterreich",
    "short_region": "04",
    "lat": "48.373000",
    "lon": "13.741400"
  },
  {
    "id": "30221",
    "country": "AT",
    "zipcode": "4722",
    "name": "Teucht",
    "region": "Oberösterreich",
    "short_region": "04",
    "lat": "48.366700",
    "lon": "13.750000"
  },
  {
    "id": "30222",
    "country": "AT",
    "zipcode": "4722",
    "name": "Krottenthal",
    "region": "Oberösterreich",
    "short_region": "04",
    "lat": "48.373000",
    "lon": "13.741400"
  },
  {
    "id": "30223",
    "country": "AT",
    "zipcode": "4722",
    "name": "Griesbach",
    "region": "Oberösterreich",
    "short_region": "04",
    "lat": "48.373000",
    "lon": "13.741400"
  },
  {
    "id": "30224",
    "country": "AT",
    "zipcode": "4722",
    "name": "Prambeckenhof",
    "region": "Oberösterreich",
    "short_region": "04",
    "lat": "48.373000",
    "lon": "13.741400"
  },
  {
    "id": "30225",
    "country": "AT",
    "zipcode": "4722",
    "name": "Pfarrhofheuberg",
    "region": "Oberösterreich",
    "short_region": "04",
    "lat": "48.373000",
    "lon": "13.741400"
  },
  {
    "id": "30226",
    "country": "AT",
    "zipcode": "4722",
    "name": "Rittberg",
    "region": "Oberösterreich",
    "short_region": "04",
    "lat": "48.373000",
    "lon": "13.741400"
  },
  {
    "id": "30227",
    "country": "AT",
    "zipcode": "4722",
    "name": "Sallet",
    "region": "Oberösterreich",
    "short_region": "04",
    "lat": "48.373000",
    "lon": "13.741400"
  },
  {
    "id": "30228",
    "country": "AT",
    "zipcode": "4722",
    "name": "Spielmannsberg",
    "region": "Oberösterreich",
    "short_region": "04",
    "lat": "48.373000",
    "lon": "13.741400"
  },
  {
    "id": "30229",
    "country": "AT",
    "zipcode": "4722",
    "name": "Bruck an der Aschach",
    "region": "Oberösterreich",
    "short_region": "04",
    "lat": "48.327100",
    "lon": "13.773800"
  },
  {
    "id": "30230",
    "country": "AT",
    "zipcode": "4722",
    "name": "Stefansdorf",
    "region": "Oberösterreich",
    "short_region": "04",
    "lat": "48.306500",
    "lon": "13.791900"
  },
  {
    "id": "30231",
    "country": "AT",
    "zipcode": "4722",
    "name": "Usting",
    "region": "Oberösterreich",
    "short_region": "04",
    "lat": "48.316700",
    "lon": "13.716700"
  },
  {
    "id": "30232",
    "country": "AT",
    "zipcode": "4722",
    "name": "Peuerbach",
    "region": "Oberösterreich",
    "short_region": "04",
    "lat": "48.345300",
    "lon": "13.772000"
  },
  {
    "id": "30233",
    "country": "AT",
    "zipcode": "4722",
    "name": "Waasen",
    "region": "Oberösterreich",
    "short_region": "04",
    "lat": "48.325800",
    "lon": "13.762900"
  },
  {
    "id": "30234",
    "country": "AT",
    "zipcode": "4722",
    "name": "Oberndorf",
    "region": "Oberösterreich",
    "short_region": "04",
    "lat": "48.300000",
    "lon": "13.750000"
  },
  {
    "id": "30235",
    "country": "AT",
    "zipcode": "4722",
    "name": "Erleinsdorf",
    "region": "Oberösterreich",
    "short_region": "04",
    "lat": "48.326500",
    "lon": "13.807900"
  },
  {
    "id": "30236",
    "country": "AT",
    "zipcode": "4722",
    "name": "Langenpeuerbach",
    "region": "Oberösterreich",
    "short_region": "04",
    "lat": "48.360200",
    "lon": "13.738100"
  },
  {
    "id": "30237",
    "country": "AT",
    "zipcode": "4722",
    "name": "Asing",
    "region": "Oberösterreich",
    "short_region": "04",
    "lat": "48.348900",
    "lon": "13.750500"
  },
  {
    "id": "30238",
    "country": "AT",
    "zipcode": "4722",
    "name": "Leithen",
    "region": "Oberösterreich",
    "short_region": "04",
    "lat": "48.366700",
    "lon": "13.783300"
  },
  {
    "id": "30239",
    "country": "AT",
    "zipcode": "4722",
    "name": "Steegen",
    "region": "Oberösterreich",
    "short_region": "04",
    "lat": "48.339100",
    "lon": "13.763600"
  },
  {
    "id": "30240",
    "country": "AT",
    "zipcode": "4723",
    "name": "Untermaggau",
    "region": "Oberösterreich",
    "short_region": "04",
    "lat": "48.406900",
    "lon": "13.724900"
  },
  {
    "id": "30241",
    "country": "AT",
    "zipcode": "4723",
    "name": "Gaisbuchen",
    "region": "Oberösterreich",
    "short_region": "04",
    "lat": "48.401900",
    "lon": "13.694400"
  },
  {
    "id": "30242",
    "country": "AT",
    "zipcode": "4723",
    "name": "Tal",
    "region": "Oberösterreich",
    "short_region": "04",
    "lat": "48.433300",
    "lon": "13.716700"
  },
  {
    "id": "30243",
    "country": "AT",
    "zipcode": "4723",
    "name": "Berndorf",
    "region": "Oberösterreich",
    "short_region": "04",
    "lat": "48.416700",
    "lon": "13.700000"
  },
  {
    "id": "30244",
    "country": "AT",
    "zipcode": "4723",
    "name": "Obertresleinsbach",
    "region": "Oberösterreich",
    "short_region": "04",
    "lat": "48.383300",
    "lon": "13.733300"
  },
  {
    "id": "30245",
    "country": "AT",
    "zipcode": "4723",
    "name": "Baumühl",
    "region": "Oberösterreich",
    "short_region": "04",
    "lat": "48.373000",
    "lon": "13.741400"
  },
  {
    "id": "30246",
    "country": "AT",
    "zipcode": "4723",
    "name": "Oberhörzing",
    "region": "Oberösterreich",
    "short_region": "04",
    "lat": "48.373000",
    "lon": "13.741400"
  },
  {
    "id": "30247",
    "country": "AT",
    "zipcode": "4723",
    "name": "Obermaggau",
    "region": "Oberösterreich",
    "short_region": "04",
    "lat": "48.416700",
    "lon": "13.716700"
  },
  {
    "id": "30248",
    "country": "AT",
    "zipcode": "4723",
    "name": "Natternbach",
    "region": "Oberösterreich",
    "short_region": "04",
    "lat": "48.397300",
    "lon": "13.749600"
  },
  {
    "id": "30249",
    "country": "AT",
    "zipcode": "4723",
    "name": "Bernrad",
    "region": "Oberösterreich",
    "short_region": "04",
    "lat": "48.373000",
    "lon": "13.741400"
  },
  {
    "id": "30250",
    "country": "AT",
    "zipcode": "4723",
    "name": "Reiting",
    "region": "Oberösterreich",
    "short_region": "04",
    "lat": "48.373000",
    "lon": "13.741400"
  },
  {
    "id": "30251",
    "country": "AT",
    "zipcode": "4723",
    "name": "Schmiedparz",
    "region": "Oberösterreich",
    "short_region": "04",
    "lat": "48.373000",
    "lon": "13.741400"
  },
  {
    "id": "30252",
    "country": "AT",
    "zipcode": "4723",
    "name": "Untereck",
    "region": "Oberösterreich",
    "short_region": "04",
    "lat": "48.373000",
    "lon": "13.741400"
  },
  {
    "id": "30253",
    "country": "AT",
    "zipcode": "4723",
    "name": "Hörzingerwald",
    "region": "Oberösterreich",
    "short_region": "04",
    "lat": "48.373000",
    "lon": "13.741400"
  },
  {
    "id": "30254",
    "country": "AT",
    "zipcode": "4723",
    "name": "Au bei Ed",
    "region": "Oberösterreich",
    "short_region": "04",
    "lat": "48.373000",
    "lon": "13.741400"
  },
  {
    "id": "30255",
    "country": "AT",
    "zipcode": "4723",
    "name": "Au bei Natternbach",
    "region": "Oberösterreich",
    "short_region": "04",
    "lat": "48.373000",
    "lon": "13.741400"
  },
  {
    "id": "30256",
    "country": "AT",
    "zipcode": "4723",
    "name": "Kirchberg",
    "region": "Oberösterreich",
    "short_region": "04",
    "lat": "48.373000",
    "lon": "13.741400"
  },
  {
    "id": "30257",
    "country": "AT",
    "zipcode": "4723",
    "name": "Dopl",
    "region": "Oberösterreich",
    "short_region": "04",
    "lat": "48.373000",
    "lon": "13.741400"
  },
  {
    "id": "30258",
    "country": "AT",
    "zipcode": "4723",
    "name": "Pfeneberg",
    "region": "Oberösterreich",
    "short_region": "04",
    "lat": "48.373000",
    "lon": "13.741400"
  },
  {
    "id": "30259",
    "country": "AT",
    "zipcode": "4723",
    "name": "Kreuz",
    "region": "Oberösterreich",
    "short_region": "04",
    "lat": "48.373000",
    "lon": "13.741400"
  },
  {
    "id": "30260",
    "country": "AT",
    "zipcode": "4723",
    "name": "Rittberg",
    "region": "Oberösterreich",
    "short_region": "04",
    "lat": "48.373000",
    "lon": "13.741400"
  },
  {
    "id": "30261",
    "country": "AT",
    "zipcode": "4723",
    "name": "Knotzberg",
    "region": "Oberösterreich",
    "short_region": "04",
    "lat": "48.373000",
    "lon": "13.741400"
  },
  {
    "id": "30262",
    "country": "AT",
    "zipcode": "4723",
    "name": "Eck",
    "region": "Oberösterreich",
    "short_region": "04",
    "lat": "48.373000",
    "lon": "13.741400"
  },
  {
    "id": "30263",
    "country": "AT",
    "zipcode": "4723",
    "name": "Kapping",
    "region": "Oberösterreich",
    "short_region": "04",
    "lat": "48.373000",
    "lon": "13.741400"
  },
  {
    "id": "30264",
    "country": "AT",
    "zipcode": "4723",
    "name": "Hungberg",
    "region": "Oberösterreich",
    "short_region": "04",
    "lat": "48.373000",
    "lon": "13.741400"
  },
  {
    "id": "30265",
    "country": "AT",
    "zipcode": "4723",
    "name": "Hörmating",
    "region": "Oberösterreich",
    "short_region": "04",
    "lat": "48.373000",
    "lon": "13.741400"
  },
  {
    "id": "30266",
    "country": "AT",
    "zipcode": "4723",
    "name": "Hochstraß",
    "region": "Oberösterreich",
    "short_region": "04",
    "lat": "48.373000",
    "lon": "13.741400"
  },
  {
    "id": "30267",
    "country": "AT",
    "zipcode": "4723",
    "name": "Hairet",
    "region": "Oberösterreich",
    "short_region": "04",
    "lat": "48.373000",
    "lon": "13.741400"
  },
  {
    "id": "30268",
    "country": "AT",
    "zipcode": "4723",
    "name": "Traunolding",
    "region": "Oberösterreich",
    "short_region": "04",
    "lat": "48.373000",
    "lon": "13.741400"
  },
  {
    "id": "30269",
    "country": "AT",
    "zipcode": "4723",
    "name": "Unterhörzing",
    "region": "Oberösterreich",
    "short_region": "04",
    "lat": "48.373000",
    "lon": "13.741400"
  },
  {
    "id": "30270",
    "country": "AT",
    "zipcode": "4723",
    "name": "Ed",
    "region": "Oberösterreich",
    "short_region": "04",
    "lat": "48.373000",
    "lon": "13.741400"
  },
  {
    "id": "30271",
    "country": "AT",
    "zipcode": "4723",
    "name": "Haibach",
    "region": "Oberösterreich",
    "short_region": "04",
    "lat": "48.373000",
    "lon": "13.741400"
  },
  {
    "id": "30272",
    "country": "AT",
    "zipcode": "4723",
    "name": "Lichtberg",
    "region": "Oberösterreich",
    "short_region": "04",
    "lat": "48.373000",
    "lon": "13.741400"
  },
  {
    "id": "30273",
    "country": "AT",
    "zipcode": "4723",
    "name": "Gschaid",
    "region": "Oberösterreich",
    "short_region": "04",
    "lat": "48.373000",
    "lon": "13.741400"
  },
  {
    "id": "30274",
    "country": "AT",
    "zipcode": "4723",
    "name": "Wolfgrub",
    "region": "Oberösterreich",
    "short_region": "04",
    "lat": "48.373000",
    "lon": "13.741400"
  },
  {
    "id": "30275",
    "country": "AT",
    "zipcode": "4723",
    "name": "Pötzenau",
    "region": "Oberösterreich",
    "short_region": "04",
    "lat": "48.373000",
    "lon": "13.741400"
  },
  {
    "id": "30276",
    "country": "AT",
    "zipcode": "4723",
    "name": "Moos",
    "region": "Oberösterreich",
    "short_region": "04",
    "lat": "48.373000",
    "lon": "13.741400"
  },
  {
    "id": "30277",
    "country": "AT",
    "zipcode": "4723",
    "name": "Püret",
    "region": "Oberösterreich",
    "short_region": "04",
    "lat": "48.373000",
    "lon": "13.741400"
  },
  {
    "id": "30278",
    "country": "AT",
    "zipcode": "4723",
    "name": "Pötzling",
    "region": "Oberösterreich",
    "short_region": "04",
    "lat": "48.373000",
    "lon": "13.741400"
  },
  {
    "id": "30279",
    "country": "AT",
    "zipcode": "4723",
    "name": "Fronberg",
    "region": "Oberösterreich",
    "short_region": "04",
    "lat": "48.373000",
    "lon": "13.741400"
  },
  {
    "id": "30280",
    "country": "AT",
    "zipcode": "4724",
    "name": "Polstergrub",
    "region": "Oberösterreich",
    "short_region": "04",
    "lat": "48.373000",
    "lon": "13.741400"
  },
  {
    "id": "30281",
    "country": "AT",
    "zipcode": "4724",
    "name": "Zierreit",
    "region": "Oberösterreich",
    "short_region": "04",
    "lat": "48.373000",
    "lon": "13.741400"
  },
  {
    "id": "30282",
    "country": "AT",
    "zipcode": "4724",
    "name": "Winklpoint",
    "region": "Oberösterreich",
    "short_region": "04",
    "lat": "48.373000",
    "lon": "13.741400"
  },
  {
    "id": "30283",
    "country": "AT",
    "zipcode": "4724",
    "name": "Waldbach",
    "region": "Oberösterreich",
    "short_region": "04",
    "lat": "48.373000",
    "lon": "13.741400"
  },
  {
    "id": "30284",
    "country": "AT",
    "zipcode": "4724",
    "name": "Spattenbrunn",
    "region": "Oberösterreich",
    "short_region": "04",
    "lat": "48.373000",
    "lon": "13.741400"
  },
  {
    "id": "30285",
    "country": "AT",
    "zipcode": "4724",
    "name": "Schachen",
    "region": "Oberösterreich",
    "short_region": "04",
    "lat": "48.373000",
    "lon": "13.741400"
  },
  {
    "id": "30286",
    "country": "AT",
    "zipcode": "4724",
    "name": "Salling",
    "region": "Oberösterreich",
    "short_region": "04",
    "lat": "48.373000",
    "lon": "13.741400"
  },
  {
    "id": "30287",
    "country": "AT",
    "zipcode": "4724",
    "name": "Rath",
    "region": "Oberösterreich",
    "short_region": "04",
    "lat": "48.373000",
    "lon": "13.741400"
  },
  {
    "id": "30288",
    "country": "AT",
    "zipcode": "4724",
    "name": "Oberbuchberg",
    "region": "Oberösterreich",
    "short_region": "04",
    "lat": "48.373000",
    "lon": "13.741400"
  },
  {
    "id": "30289",
    "country": "AT",
    "zipcode": "4724",
    "name": "Kirchberg",
    "region": "Oberösterreich",
    "short_region": "04",
    "lat": "48.373000",
    "lon": "13.741400"
  },
  {
    "id": "30290",
    "country": "AT",
    "zipcode": "4724",
    "name": "Hofingerleithen",
    "region": "Oberösterreich",
    "short_region": "04",
    "lat": "48.373000",
    "lon": "13.741400"
  },
  {
    "id": "30291",
    "country": "AT",
    "zipcode": "4724",
    "name": "Hengstberg",
    "region": "Oberösterreich",
    "short_region": "04",
    "lat": "48.373000",
    "lon": "13.741400"
  },
  {
    "id": "30292",
    "country": "AT",
    "zipcode": "4724",
    "name": "Baumgarten",
    "region": "Oberösterreich",
    "short_region": "04",
    "lat": "48.373000",
    "lon": "13.741400"
  },
  {
    "id": "30293",
    "country": "AT",
    "zipcode": "4724",
    "name": "Knotzberg",
    "region": "Oberösterreich",
    "short_region": "04",
    "lat": "48.373000",
    "lon": "13.741400"
  },
  {
    "id": "30294",
    "country": "AT",
    "zipcode": "4724",
    "name": "Aigen",
    "region": "Oberösterreich",
    "short_region": "04",
    "lat": "48.373000",
    "lon": "13.741400"
  },
  {
    "id": "30295",
    "country": "AT",
    "zipcode": "4724",
    "name": "Hungberg",
    "region": "Oberösterreich",
    "short_region": "04",
    "lat": "48.373000",
    "lon": "13.741400"
  },
  {
    "id": "30296",
    "country": "AT",
    "zipcode": "4724",
    "name": "Vorau",
    "region": "Oberösterreich",
    "short_region": "04",
    "lat": "48.373000",
    "lon": "13.741400"
  },
  {
    "id": "30297",
    "country": "AT",
    "zipcode": "4724",
    "name": "Vilzbach",
    "region": "Oberösterreich",
    "short_region": "04",
    "lat": "48.373000",
    "lon": "13.741400"
  },
  {
    "id": "30298",
    "country": "AT",
    "zipcode": "4724",
    "name": "Untergrub",
    "region": "Oberösterreich",
    "short_region": "04",
    "lat": "48.373000",
    "lon": "13.741400"
  },
  {
    "id": "30299",
    "country": "AT",
    "zipcode": "4724",
    "name": "Unterbuchberg",
    "region": "Oberösterreich",
    "short_region": "04",
    "lat": "48.373000",
    "lon": "13.741400"
  },
  {
    "id": "30300",
    "country": "AT",
    "zipcode": "4724",
    "name": "Stocket",
    "region": "Oberösterreich",
    "short_region": "04",
    "lat": "48.373000",
    "lon": "13.741400"
  },
  {
    "id": "30301",
    "country": "AT",
    "zipcode": "4724",
    "name": "Stilzing",
    "region": "Oberösterreich",
    "short_region": "04",
    "lat": "48.373000",
    "lon": "13.741400"
  },
  {
    "id": "30302",
    "country": "AT",
    "zipcode": "4724",
    "name": "Reith",
    "region": "Oberösterreich",
    "short_region": "04",
    "lat": "48.373000",
    "lon": "13.741400"
  },
  {
    "id": "30303",
    "country": "AT",
    "zipcode": "4724",
    "name": "Neubach",
    "region": "Oberösterreich",
    "short_region": "04",
    "lat": "48.373000",
    "lon": "13.741400"
  },
  {
    "id": "30304",
    "country": "AT",
    "zipcode": "4724",
    "name": "Moosau",
    "region": "Oberösterreich",
    "short_region": "04",
    "lat": "48.373000",
    "lon": "13.741400"
  },
  {
    "id": "30305",
    "country": "AT",
    "zipcode": "4724",
    "name": "Mehringerau",
    "region": "Oberösterreich",
    "short_region": "04",
    "lat": "48.373000",
    "lon": "13.741400"
  },
  {
    "id": "30306",
    "country": "AT",
    "zipcode": "4724",
    "name": "Mäusburg",
    "region": "Oberösterreich",
    "short_region": "04",
    "lat": "48.373000",
    "lon": "13.741400"
  },
  {
    "id": "30307",
    "country": "AT",
    "zipcode": "4724",
    "name": "Königshub",
    "region": "Oberösterreich",
    "short_region": "04",
    "lat": "48.373000",
    "lon": "13.741400"
  },
  {
    "id": "30308",
    "country": "AT",
    "zipcode": "4724",
    "name": "Jebing",
    "region": "Oberösterreich",
    "short_region": "04",
    "lat": "48.373000",
    "lon": "13.741400"
  },
  {
    "id": "30309",
    "country": "AT",
    "zipcode": "4724",
    "name": "Inzing",
    "region": "Oberösterreich",
    "short_region": "04",
    "lat": "48.373000",
    "lon": "13.741400"
  },
  {
    "id": "30310",
    "country": "AT",
    "zipcode": "4724",
    "name": "Höllberg",
    "region": "Oberösterreich",
    "short_region": "04",
    "lat": "48.373000",
    "lon": "13.741400"
  },
  {
    "id": "30311",
    "country": "AT",
    "zipcode": "4724",
    "name": "Hofstetten",
    "region": "Oberösterreich",
    "short_region": "04",
    "lat": "48.373000",
    "lon": "13.741400"
  },
  {
    "id": "30312",
    "country": "AT",
    "zipcode": "4724",
    "name": "Hofing",
    "region": "Oberösterreich",
    "short_region": "04",
    "lat": "48.373000",
    "lon": "13.741400"
  },
  {
    "id": "30313",
    "country": "AT",
    "zipcode": "4724",
    "name": "Hech",
    "region": "Oberösterreich",
    "short_region": "04",
    "lat": "48.373000",
    "lon": "13.741400"
  },
  {
    "id": "30314",
    "country": "AT",
    "zipcode": "4724",
    "name": "Hausleithen",
    "region": "Oberösterreich",
    "short_region": "04",
    "lat": "48.373000",
    "lon": "13.741400"
  },
  {
    "id": "30315",
    "country": "AT",
    "zipcode": "4724",
    "name": "Hasledt",
    "region": "Oberösterreich",
    "short_region": "04",
    "lat": "48.373000",
    "lon": "13.741400"
  },
  {
    "id": "30316",
    "country": "AT",
    "zipcode": "4724",
    "name": "Hagenberg",
    "region": "Oberösterreich",
    "short_region": "04",
    "lat": "48.373000",
    "lon": "13.741400"
  },
  {
    "id": "30317",
    "country": "AT",
    "zipcode": "4724",
    "name": "Graspoint",
    "region": "Oberösterreich",
    "short_region": "04",
    "lat": "48.373000",
    "lon": "13.741400"
  },
  {
    "id": "30318",
    "country": "AT",
    "zipcode": "4724",
    "name": "Gferedt",
    "region": "Oberösterreich",
    "short_region": "04",
    "lat": "48.373000",
    "lon": "13.741400"
  },
  {
    "id": "30319",
    "country": "AT",
    "zipcode": "4724",
    "name": "Frankengrub",
    "region": "Oberösterreich",
    "short_region": "04",
    "lat": "48.373000",
    "lon": "13.741400"
  },
  {
    "id": "30320",
    "country": "AT",
    "zipcode": "4724",
    "name": "Feuermühl",
    "region": "Oberösterreich",
    "short_region": "04",
    "lat": "48.373000",
    "lon": "13.741400"
  },
  {
    "id": "30321",
    "country": "AT",
    "zipcode": "4724",
    "name": "Altenberg",
    "region": "Oberösterreich",
    "short_region": "04",
    "lat": "48.373000",
    "lon": "13.741400"
  },
  {
    "id": "30322",
    "country": "AT",
    "zipcode": "4724",
    "name": "Veitsberg",
    "region": "Oberösterreich",
    "short_region": "04",
    "lat": "48.418300",
    "lon": "13.810700"
  },
  {
    "id": "30323",
    "country": "AT",
    "zipcode": "4724",
    "name": "Neukirchen am Walde",
    "region": "Oberösterreich",
    "short_region": "04",
    "lat": "48.405800",
    "lon": "13.781600"
  },
  {
    "id": "30324",
    "country": "AT",
    "zipcode": "4724",
    "name": "Straß bei Sankt Sixt",
    "region": "Oberösterreich",
    "short_region": "04",
    "lat": "48.373000",
    "lon": "13.741400"
  },
  {
    "id": "30325",
    "country": "AT",
    "zipcode": "4724",
    "name": "Eben bei Sankt Sixt",
    "region": "Oberösterreich",
    "short_region": "04",
    "lat": "48.373000",
    "lon": "13.741400"
  },
  {
    "id": "30326",
    "country": "AT",
    "zipcode": "4724",
    "name": "Weibing",
    "region": "Oberösterreich",
    "short_region": "04",
    "lat": "48.413600",
    "lon": "13.753700"
  },
  {
    "id": "30327",
    "country": "AT",
    "zipcode": "4724",
    "name": "Willing",
    "region": "Oberösterreich",
    "short_region": "04",
    "lat": "48.400800",
    "lon": "13.815900"
  },
  {
    "id": "30328",
    "country": "AT",
    "zipcode": "4724",
    "name": "Mehring",
    "region": "Oberösterreich",
    "short_region": "04",
    "lat": "48.426200",
    "lon": "13.747500"
  },
  {
    "id": "30329",
    "country": "AT",
    "zipcode": "4724",
    "name": "Mitteraubach",
    "region": "Oberösterreich",
    "short_region": "04",
    "lat": "48.380900",
    "lon": "13.790600"
  },
  {
    "id": "30330",
    "country": "AT",
    "zipcode": "4724",
    "name": "Untergermating",
    "region": "Oberösterreich",
    "short_region": "04",
    "lat": "48.417200",
    "lon": "13.773300"
  },
  {
    "id": "30331",
    "country": "AT",
    "zipcode": "4724",
    "name": "Oberaubach",
    "region": "Oberösterreich",
    "short_region": "04",
    "lat": "48.383500",
    "lon": "13.782600"
  },
  {
    "id": "30332",
    "country": "AT",
    "zipcode": "4724",
    "name": "Eschenau im Hausruckkreis",
    "region": "Oberösterreich",
    "short_region": "04",
    "lat": "48.389500",
    "lon": "13.820900"
  },
  {
    "id": "30333",
    "country": "AT",
    "zipcode": "4724",
    "name": "Pühret",
    "region": "Oberösterreich",
    "short_region": "04",
    "lat": "48.412800",
    "lon": "13.776000"
  },
  {
    "id": "30334",
    "country": "AT",
    "zipcode": "4724",
    "name": "Unteraubach",
    "region": "Oberösterreich",
    "short_region": "04",
    "lat": "48.378100",
    "lon": "13.796600"
  },
  {
    "id": "30335",
    "country": "AT",
    "zipcode": "4724",
    "name": "Obergermating",
    "region": "Oberösterreich",
    "short_region": "04",
    "lat": "48.420700",
    "lon": "13.769300"
  },
  {
    "id": "30336",
    "country": "AT",
    "zipcode": "4730",
    "name": "Unterviehbach",
    "region": "Oberösterreich",
    "short_region": "04",
    "lat": "48.341000",
    "lon": "13.833800"
  },
  {
    "id": "30337",
    "country": "AT",
    "zipcode": "4730",
    "name": "Dittenbach",
    "region": "Oberösterreich",
    "short_region": "04",
    "lat": "48.333300",
    "lon": "13.900000"
  },
  {
    "id": "30338",
    "country": "AT",
    "zipcode": "4730",
    "name": "Lindbruck",
    "region": "Oberösterreich",
    "short_region": "04",
    "lat": "48.363000",
    "lon": "13.852600"
  },
  {
    "id": "30339",
    "country": "AT",
    "zipcode": "4730",
    "name": "Eitzenberg",
    "region": "Oberösterreich",
    "short_region": "04",
    "lat": "48.355800",
    "lon": "13.895800"
  },
  {
    "id": "30340",
    "country": "AT",
    "zipcode": "4730",
    "name": "Niederndorf",
    "region": "Oberösterreich",
    "short_region": "04",
    "lat": "48.316700",
    "lon": "13.833300"
  },
  {
    "id": "30341",
    "country": "AT",
    "zipcode": "4730",
    "name": "Oberviehbach",
    "region": "Oberösterreich",
    "short_region": "04",
    "lat": "48.334300",
    "lon": "13.828400"
  },
  {
    "id": "30342",
    "country": "AT",
    "zipcode": "4730",
    "name": "Obergschwendt",
    "region": "Oberösterreich",
    "short_region": "04",
    "lat": "48.315200",
    "lon": "13.862300"
  },
  {
    "id": "30343",
    "country": "AT",
    "zipcode": "4730",
    "name": "Inzing",
    "region": "Oberösterreich",
    "short_region": "04",
    "lat": "48.337500",
    "lon": "13.865400"
  },
  {
    "id": "30344",
    "country": "AT",
    "zipcode": "4730",
    "name": "Willersdorf",
    "region": "Oberösterreich",
    "short_region": "04",
    "lat": "48.316700",
    "lon": "13.816700"
  },
  {
    "id": "30345",
    "country": "AT",
    "zipcode": "4730",
    "name": "Esthofen",
    "region": "Oberösterreich",
    "short_region": "04",
    "lat": "48.358900",
    "lon": "13.862400"
  },
  {
    "id": "30346",
    "country": "AT",
    "zipcode": "4730",
    "name": "Steinparz",
    "region": "Oberösterreich",
    "short_region": "04",
    "lat": "48.318700",
    "lon": "13.881200"
  },
  {
    "id": "30347",
    "country": "AT",
    "zipcode": "4730",
    "name": "Thallham",
    "region": "Oberösterreich",
    "short_region": "04",
    "lat": "48.326500",
    "lon": "13.858200"
  },
  {
    "id": "30348",
    "country": "AT",
    "zipcode": "4730",
    "name": "Röckendorferholz",
    "region": "Oberösterreich",
    "short_region": "04",
    "lat": "48.318700",
    "lon": "13.881200"
  },
  {
    "id": "30349",
    "country": "AT",
    "zipcode": "4730",
    "name": "Schurrerprambach",
    "region": "Oberösterreich",
    "short_region": "04",
    "lat": "48.318700",
    "lon": "13.881200"
  },
  {
    "id": "30350",
    "country": "AT",
    "zipcode": "4730",
    "name": "Sittling",
    "region": "Oberösterreich",
    "short_region": "04",
    "lat": "48.318700",
    "lon": "13.881200"
  },
  {
    "id": "30351",
    "country": "AT",
    "zipcode": "4730",
    "name": "Weidenholz",
    "region": "Oberösterreich",
    "short_region": "04",
    "lat": "48.336000",
    "lon": "13.846500"
  },
  {
    "id": "30352",
    "country": "AT",
    "zipcode": "4730",
    "name": "Stroiß",
    "region": "Oberösterreich",
    "short_region": "04",
    "lat": "48.318700",
    "lon": "13.881200"
  },
  {
    "id": "30353",
    "country": "AT",
    "zipcode": "4730",
    "name": "Thall",
    "region": "Oberösterreich",
    "short_region": "04",
    "lat": "48.318700",
    "lon": "13.881200"
  },
  {
    "id": "30354",
    "country": "AT",
    "zipcode": "4730",
    "name": "Waikhartsberg",
    "region": "Oberösterreich",
    "short_region": "04",
    "lat": "48.318700",
    "lon": "13.881200"
  },
  {
    "id": "30355",
    "country": "AT",
    "zipcode": "4730",
    "name": "Weg",
    "region": "Oberösterreich",
    "short_region": "04",
    "lat": "48.318700",
    "lon": "13.881200"
  },
  {
    "id": "30356",
    "country": "AT",
    "zipcode": "4730",
    "name": "Auweidenholz",
    "region": "Oberösterreich",
    "short_region": "04",
    "lat": "48.318700",
    "lon": "13.881200"
  },
  {
    "id": "30357",
    "country": "AT",
    "zipcode": "4730",
    "name": "Bäckenhof",
    "region": "Oberösterreich",
    "short_region": "04",
    "lat": "48.318700",
    "lon": "13.881200"
  },
  {
    "id": "30358",
    "country": "AT",
    "zipcode": "4730",
    "name": "Imperndorf",
    "region": "Oberösterreich",
    "short_region": "04",
    "lat": "48.318700",
    "lon": "13.881200"
  },
  {
    "id": "30359",
    "country": "AT",
    "zipcode": "4730",
    "name": "Purgstall",
    "region": "Oberösterreich",
    "short_region": "04",
    "lat": "48.318700",
    "lon": "13.881200"
  },
  {
    "id": "30360",
    "country": "AT",
    "zipcode": "4730",
    "name": "Unterheuberg",
    "region": "Oberösterreich",
    "short_region": "04",
    "lat": "48.318700",
    "lon": "13.881200"
  },
  {
    "id": "30361",
    "country": "AT",
    "zipcode": "4730",
    "name": "Waldweidenholz",
    "region": "Oberösterreich",
    "short_region": "04",
    "lat": "48.318700",
    "lon": "13.881200"
  },
  {
    "id": "30362",
    "country": "AT",
    "zipcode": "4730",
    "name": "Niederspaching",
    "region": "Oberösterreich",
    "short_region": "04",
    "lat": "48.316700",
    "lon": "13.816700"
  },
  {
    "id": "30363",
    "country": "AT",
    "zipcode": "4730",
    "name": "Untergschwendt",
    "region": "Oberösterreich",
    "short_region": "04",
    "lat": "48.316800",
    "lon": "13.867400"
  },
  {
    "id": "30364",
    "country": "AT",
    "zipcode": "4730",
    "name": "Aschach",
    "region": "Oberösterreich",
    "short_region": "04",
    "lat": "48.327900",
    "lon": "13.838800"
  },
  {
    "id": "30365",
    "country": "AT",
    "zipcode": "4730",
    "name": "Waizenkirchen",
    "region": "Oberösterreich",
    "short_region": "04",
    "lat": "48.330200",
    "lon": "13.857500"
  },
  {
    "id": "30366",
    "country": "AT",
    "zipcode": "4730",
    "name": "Oberwegbach",
    "region": "Oberösterreich",
    "short_region": "04",
    "lat": "48.317500",
    "lon": "13.854700"
  },
  {
    "id": "30367",
    "country": "AT",
    "zipcode": "4730",
    "name": "Stillfüssing",
    "region": "Oberösterreich",
    "short_region": "04",
    "lat": "48.309100",
    "lon": "13.860800"
  },
  {
    "id": "30368",
    "country": "AT",
    "zipcode": "4730",
    "name": "Hueb bei Lindbruck",
    "region": "Oberösterreich",
    "short_region": "04",
    "lat": "48.318700",
    "lon": "13.881200"
  },
  {
    "id": "30369",
    "country": "AT",
    "zipcode": "4730",
    "name": "Hueb bei Manzing",
    "region": "Oberösterreich",
    "short_region": "04",
    "lat": "48.318700",
    "lon": "13.881200"
  },
  {
    "id": "30370",
    "country": "AT",
    "zipcode": "4730",
    "name": "Gewerbepark Süd",
    "region": "Oberösterreich",
    "short_region": "04",
    "lat": "48.318700",
    "lon": "13.881200"
  },
  {
    "id": "30371",
    "country": "AT",
    "zipcode": "4730",
    "name": "Unterwegbach",
    "region": "Oberösterreich",
    "short_region": "04",
    "lat": "48.323300",
    "lon": "13.849100"
  },
  {
    "id": "30372",
    "country": "AT",
    "zipcode": "4730",
    "name": "Moospolling",
    "region": "Oberösterreich",
    "short_region": "04",
    "lat": "48.316700",
    "lon": "13.816700"
  },
  {
    "id": "30373",
    "country": "AT",
    "zipcode": "4730",
    "name": "Anrath",
    "region": "Oberösterreich",
    "short_region": "04",
    "lat": "48.318700",
    "lon": "13.881200"
  },
  {
    "id": "30374",
    "country": "AT",
    "zipcode": "4730",
    "name": "Auwies",
    "region": "Oberösterreich",
    "short_region": "04",
    "lat": "48.318700",
    "lon": "13.881200"
  },
  {
    "id": "30375",
    "country": "AT",
    "zipcode": "4730",
    "name": "Breitwies",
    "region": "Oberösterreich",
    "short_region": "04",
    "lat": "48.318700",
    "lon": "13.881200"
  },
  {
    "id": "30376",
    "country": "AT",
    "zipcode": "4730",
    "name": "Brunnwald",
    "region": "Oberösterreich",
    "short_region": "04",
    "lat": "48.318700",
    "lon": "13.881200"
  },
  {
    "id": "30377",
    "country": "AT",
    "zipcode": "4730",
    "name": "Grillparz",
    "region": "Oberösterreich",
    "short_region": "04",
    "lat": "48.318700",
    "lon": "13.881200"
  },
  {
    "id": "30378",
    "country": "AT",
    "zipcode": "4730",
    "name": "Hausleiten",
    "region": "Oberösterreich",
    "short_region": "04",
    "lat": "48.318700",
    "lon": "13.881200"
  },
  {
    "id": "30379",
    "country": "AT",
    "zipcode": "4730",
    "name": "Hech",
    "region": "Oberösterreich",
    "short_region": "04",
    "lat": "48.318700",
    "lon": "13.881200"
  },
  {
    "id": "30380",
    "country": "AT",
    "zipcode": "4730",
    "name": "Holzing",
    "region": "Oberösterreich",
    "short_region": "04",
    "lat": "48.318700",
    "lon": "13.881200"
  },
  {
    "id": "30381",
    "country": "AT",
    "zipcode": "4730",
    "name": "Keppling",
    "region": "Oberösterreich",
    "short_region": "04",
    "lat": "48.318700",
    "lon": "13.881200"
  },
  {
    "id": "30382",
    "country": "AT",
    "zipcode": "4730",
    "name": "Kollerbichl",
    "region": "Oberösterreich",
    "short_region": "04",
    "lat": "48.318700",
    "lon": "13.881200"
  },
  {
    "id": "30383",
    "country": "AT",
    "zipcode": "4730",
    "name": "Kranabithen",
    "region": "Oberösterreich",
    "short_region": "04",
    "lat": "48.318700",
    "lon": "13.881200"
  },
  {
    "id": "30384",
    "country": "AT",
    "zipcode": "4730",
    "name": "Kropfleiten",
    "region": "Oberösterreich",
    "short_region": "04",
    "lat": "48.318700",
    "lon": "13.881200"
  },
  {
    "id": "30385",
    "country": "AT",
    "zipcode": "4730",
    "name": "Löwengrub",
    "region": "Oberösterreich",
    "short_region": "04",
    "lat": "48.318700",
    "lon": "13.881200"
  },
  {
    "id": "30386",
    "country": "AT",
    "zipcode": "4730",
    "name": "Parzham",
    "region": "Oberösterreich",
    "short_region": "04",
    "lat": "48.318700",
    "lon": "13.881200"
  },
  {
    "id": "30387",
    "country": "AT",
    "zipcode": "4730",
    "name": "Prambacherholz",
    "region": "Oberösterreich",
    "short_region": "04",
    "lat": "48.318700",
    "lon": "13.881200"
  },
  {
    "id": "30388",
    "country": "AT",
    "zipcode": "4730",
    "name": "Punzing",
    "region": "Oberösterreich",
    "short_region": "04",
    "lat": "48.318700",
    "lon": "13.881200"
  },
  {
    "id": "30389",
    "country": "AT",
    "zipcode": "4731",
    "name": "Weinzierlbruck",
    "region": "Oberösterreich",
    "short_region": "04",
    "lat": "48.318700",
    "lon": "13.881200"
  },
  {
    "id": "30390",
    "country": "AT",
    "zipcode": "4731",
    "name": "Gföll",
    "region": "Oberösterreich",
    "short_region": "04",
    "lat": "48.318700",
    "lon": "13.881200"
  },
  {
    "id": "30391",
    "country": "AT",
    "zipcode": "4731",
    "name": "Ritzing",
    "region": "Oberösterreich",
    "short_region": "04",
    "lat": "48.333300",
    "lon": "13.900000"
  },
  {
    "id": "30392",
    "country": "AT",
    "zipcode": "4731",
    "name": "Manzing",
    "region": "Oberösterreich",
    "short_region": "04",
    "lat": "48.318700",
    "lon": "13.881200"
  },
  {
    "id": "30393",
    "country": "AT",
    "zipcode": "4731",
    "name": "Watzenbach",
    "region": "Oberösterreich",
    "short_region": "04",
    "lat": "48.318700",
    "lon": "13.881200"
  },
  {
    "id": "30394",
    "country": "AT",
    "zipcode": "4732",
    "name": "Aigelsberg",
    "region": "Oberösterreich",
    "short_region": "04",
    "lat": "48.318700",
    "lon": "13.881200"
  },
  {
    "id": "30395",
    "country": "AT",
    "zipcode": "4732",
    "name": "Ebenstraß",
    "region": "Oberösterreich",
    "short_region": "04",
    "lat": "48.318700",
    "lon": "13.881200"
  },
  {
    "id": "30396",
    "country": "AT",
    "zipcode": "4732",
    "name": "Eppenedt",
    "region": "Oberösterreich",
    "short_region": "04",
    "lat": "48.318700",
    "lon": "13.881200"
  },
  {
    "id": "30397",
    "country": "AT",
    "zipcode": "4732",
    "name": "Kirnwies",
    "region": "Oberösterreich",
    "short_region": "04",
    "lat": "48.318700",
    "lon": "13.881200"
  },
  {
    "id": "30398",
    "country": "AT",
    "zipcode": "4732",
    "name": "Naichet",
    "region": "Oberösterreich",
    "short_region": "04",
    "lat": "48.318700",
    "lon": "13.881200"
  },
  {
    "id": "30399",
    "country": "AT",
    "zipcode": "4732",
    "name": "Ramesedt",
    "region": "Oberösterreich",
    "short_region": "04",
    "lat": "48.318700",
    "lon": "13.881200"
  },
  {
    "id": "30400",
    "country": "AT",
    "zipcode": "4732",
    "name": "Lameth",
    "region": "Oberösterreich",
    "short_region": "04",
    "lat": "48.318700",
    "lon": "13.881200"
  },
  {
    "id": "30401",
    "country": "AT",
    "zipcode": "4732",
    "name": "Schmidgraben",
    "region": "Oberösterreich",
    "short_region": "04",
    "lat": "48.318700",
    "lon": "13.881200"
  },
  {
    "id": "30402",
    "country": "AT",
    "zipcode": "4732",
    "name": "Straß",
    "region": "Oberösterreich",
    "short_region": "04",
    "lat": "48.318700",
    "lon": "13.881200"
  },
  {
    "id": "30403",
    "country": "AT",
    "zipcode": "4732",
    "name": "Wimm",
    "region": "Oberösterreich",
    "short_region": "04",
    "lat": "48.318700",
    "lon": "13.881200"
  },
  {
    "id": "30404",
    "country": "AT",
    "zipcode": "4732",
    "name": "Sankt Thomas",
    "region": "Oberösterreich",
    "short_region": "04",
    "lat": "48.285100",
    "lon": "13.880600"
  },
  {
    "id": "30405",
    "country": "AT",
    "zipcode": "4732",
    "name": "Oberprambach",
    "region": "Oberösterreich",
    "short_region": "04",
    "lat": "48.294800",
    "lon": "13.896800"
  },
  {
    "id": "30406",
    "country": "AT",
    "zipcode": "4732",
    "name": "Großgerstdopl",
    "region": "Oberösterreich",
    "short_region": "04",
    "lat": "48.281300",
    "lon": "13.881700"
  },
  {
    "id": "30407",
    "country": "AT",
    "zipcode": "4733",
    "name": "Freindorf",
    "region": "Oberösterreich",
    "short_region": "04",
    "lat": "48.348000",
    "lon": "13.820200"
  },
  {
    "id": "30408",
    "country": "AT",
    "zipcode": "4733",
    "name": "Süssenbach",
    "region": "Oberösterreich",
    "short_region": "04",
    "lat": "48.354700",
    "lon": "13.840800"
  },
  {
    "id": "30409",
    "country": "AT",
    "zipcode": "4733",
    "name": "Heiligenberg",
    "region": "Oberösterreich",
    "short_region": "04",
    "lat": "48.354900",
    "lon": "13.820400"
  },
  {
    "id": "30410",
    "country": "AT",
    "zipcode": "4733",
    "name": "Andling",
    "region": "Oberösterreich",
    "short_region": "04",
    "lat": "48.367500",
    "lon": "13.809700"
  },
  {
    "id": "30411",
    "country": "AT",
    "zipcode": "4733",
    "name": "Moos",
    "region": "Oberösterreich",
    "short_region": "04",
    "lat": "48.318700",
    "lon": "13.881200"
  },
  {
    "id": "30412",
    "country": "AT",
    "zipcode": "4733",
    "name": "Haid",
    "region": "Oberösterreich",
    "short_region": "04",
    "lat": "48.318700",
    "lon": "13.881200"
  },
  {
    "id": "30413",
    "country": "AT",
    "zipcode": "4733",
    "name": "Eitzenberg",
    "region": "Oberösterreich",
    "short_region": "04",
    "lat": "48.318700",
    "lon": "13.881200"
  },
  {
    "id": "30414",
    "country": "AT",
    "zipcode": "4733",
    "name": "Wassergraben",
    "region": "Oberösterreich",
    "short_region": "04",
    "lat": "48.318700",
    "lon": "13.881200"
  },
  {
    "id": "30415",
    "country": "AT",
    "zipcode": "4733",
    "name": "Schörgendorf",
    "region": "Oberösterreich",
    "short_region": "04",
    "lat": "48.318700",
    "lon": "13.881200"
  },
  {
    "id": "30416",
    "country": "AT",
    "zipcode": "4733",
    "name": "Oberleiten",
    "region": "Oberösterreich",
    "short_region": "04",
    "lat": "48.318700",
    "lon": "13.881200"
  },
  {
    "id": "30417",
    "country": "AT",
    "zipcode": "4733",
    "name": "Maiden",
    "region": "Oberösterreich",
    "short_region": "04",
    "lat": "48.318700",
    "lon": "13.881200"
  },
  {
    "id": "30418",
    "country": "AT",
    "zipcode": "4733",
    "name": "Laab",
    "region": "Oberösterreich",
    "short_region": "04",
    "lat": "48.318700",
    "lon": "13.881200"
  },
  {
    "id": "30419",
    "country": "AT",
    "zipcode": "4733",
    "name": "Irrenedt",
    "region": "Oberösterreich",
    "short_region": "04",
    "lat": "48.318700",
    "lon": "13.881200"
  },
  {
    "id": "30420",
    "country": "AT",
    "zipcode": "4733",
    "name": "Grub",
    "region": "Oberösterreich",
    "short_region": "04",
    "lat": "48.318700",
    "lon": "13.881200"
  },
  {
    "id": "30421",
    "country": "AT",
    "zipcode": "4733",
    "name": "Bruck",
    "region": "Oberösterreich",
    "short_region": "04",
    "lat": "48.318700",
    "lon": "13.881200"
  },
  {
    "id": "30422",
    "country": "AT",
    "zipcode": "4733",
    "name": "Bach",
    "region": "Oberösterreich",
    "short_region": "04",
    "lat": "48.318700",
    "lon": "13.881200"
  },
  {
    "id": "30423",
    "country": "AT",
    "zipcode": "4733",
    "name": "Au",
    "region": "Oberösterreich",
    "short_region": "04",
    "lat": "48.318700",
    "lon": "13.881200"
  },
  {
    "id": "30424",
    "country": "AT",
    "zipcode": "4741",
    "name": "Weberndorf",
    "region": "Oberösterreich",
    "short_region": "04",
    "lat": "48.232500",
    "lon": "13.617300"
  },
  {
    "id": "30425",
    "country": "AT",
    "zipcode": "4741",
    "name": "Weeg",
    "region": "Oberösterreich",
    "short_region": "04",
    "lat": "48.232500",
    "lon": "13.617300"
  },
  {
    "id": "30426",
    "country": "AT",
    "zipcode": "4741",
    "name": "Hareding",
    "region": "Oberösterreich",
    "short_region": "04",
    "lat": "48.232500",
    "lon": "13.617300"
  },
  {
    "id": "30427",
    "country": "AT",
    "zipcode": "4741",
    "name": "Hub",
    "region": "Oberösterreich",
    "short_region": "04",
    "lat": "48.232500",
    "lon": "13.617300"
  },
  {
    "id": "30428",
    "country": "AT",
    "zipcode": "4741",
    "name": "Oberhof",
    "region": "Oberösterreich",
    "short_region": "04",
    "lat": "48.232500",
    "lon": "13.617300"
  },
  {
    "id": "30429",
    "country": "AT",
    "zipcode": "4741",
    "name": "Oberhöglham",
    "region": "Oberösterreich",
    "short_region": "04",
    "lat": "48.232500",
    "lon": "13.617300"
  },
  {
    "id": "30430",
    "country": "AT",
    "zipcode": "4741",
    "name": "Perndorf",
    "region": "Oberösterreich",
    "short_region": "04",
    "lat": "48.232500",
    "lon": "13.617300"
  },
  {
    "id": "30431",
    "country": "AT",
    "zipcode": "4741",
    "name": "Pauredt",
    "region": "Oberösterreich",
    "short_region": "04",
    "lat": "48.232500",
    "lon": "13.617300"
  },
  {
    "id": "30432",
    "country": "AT",
    "zipcode": "4741",
    "name": "Still",
    "region": "Oberösterreich",
    "short_region": "04",
    "lat": "48.235700",
    "lon": "13.686700"
  },
  {
    "id": "30433",
    "country": "AT",
    "zipcode": "4741",
    "name": "Fellhof",
    "region": "Oberösterreich",
    "short_region": "04",
    "lat": "48.232500",
    "lon": "13.617300"
  },
  {
    "id": "30434",
    "country": "AT",
    "zipcode": "4741",
    "name": "Kubing",
    "region": "Oberösterreich",
    "short_region": "04",
    "lat": "48.232500",
    "lon": "13.617300"
  },
  {
    "id": "30435",
    "country": "AT",
    "zipcode": "4741",
    "name": "Eck",
    "region": "Oberösterreich",
    "short_region": "04",
    "lat": "48.232500",
    "lon": "13.617300"
  },
  {
    "id": "30436",
    "country": "AT",
    "zipcode": "4741",
    "name": "Märzendorf",
    "region": "Oberösterreich",
    "short_region": "04",
    "lat": "48.232500",
    "lon": "13.617300"
  },
  {
    "id": "30437",
    "country": "AT",
    "zipcode": "4741",
    "name": "Lehen",
    "region": "Oberösterreich",
    "short_region": "04",
    "lat": "48.232500",
    "lon": "13.617300"
  },
  {
    "id": "30438",
    "country": "AT",
    "zipcode": "4741",
    "name": "Dötzledt",
    "region": "Oberösterreich",
    "short_region": "04",
    "lat": "48.232500",
    "lon": "13.617300"
  },
  {
    "id": "30439",
    "country": "AT",
    "zipcode": "4741",
    "name": "Gassen",
    "region": "Oberösterreich",
    "short_region": "04",
    "lat": "48.232500",
    "lon": "13.617300"
  },
  {
    "id": "30440",
    "country": "AT",
    "zipcode": "4741",
    "name": "Zupfing",
    "region": "Oberösterreich",
    "short_region": "04",
    "lat": "48.248200",
    "lon": "13.670900"
  },
  {
    "id": "30441",
    "country": "AT",
    "zipcode": "4741",
    "name": "Gugenedt",
    "region": "Oberösterreich",
    "short_region": "04",
    "lat": "48.232500",
    "lon": "13.617300"
  },
  {
    "id": "30442",
    "country": "AT",
    "zipcode": "4741",
    "name": "Penesedt",
    "region": "Oberösterreich",
    "short_region": "04",
    "lat": "48.232500",
    "lon": "13.617300"
  },
  {
    "id": "30443",
    "country": "AT",
    "zipcode": "4741",
    "name": "Rappoltsberg",
    "region": "Oberösterreich",
    "short_region": "04",
    "lat": "48.232500",
    "lon": "13.617300"
  },
  {
    "id": "30444",
    "country": "AT",
    "zipcode": "4741",
    "name": "Unterhöglham",
    "region": "Oberösterreich",
    "short_region": "04",
    "lat": "48.232500",
    "lon": "13.617300"
  },
  {
    "id": "30445",
    "country": "AT",
    "zipcode": "4741",
    "name": "Wendling",
    "region": "Oberösterreich",
    "short_region": "04",
    "lat": "48.231800",
    "lon": "13.666200"
  },
  {
    "id": "30446",
    "country": "AT",
    "zipcode": "4742",
    "name": "Pram",
    "region": "Oberösterreich",
    "short_region": "04",
    "lat": "48.235400",
    "lon": "13.605800"
  },
  {
    "id": "30447",
    "country": "AT",
    "zipcode": "4742",
    "name": "Straß",
    "region": "Oberösterreich",
    "short_region": "04",
    "lat": "48.222000",
    "lon": "13.630900"
  },
  {
    "id": "30448",
    "country": "AT",
    "zipcode": "4742",
    "name": "Irringsdorf",
    "region": "Oberösterreich",
    "short_region": "04",
    "lat": "48.242900",
    "lon": "13.588200"
  },
  {
    "id": "30449",
    "country": "AT",
    "zipcode": "4742",
    "name": "Oberprenning",
    "region": "Oberösterreich",
    "short_region": "04",
    "lat": "48.220500",
    "lon": "13.602500"
  },
  {
    "id": "30450",
    "country": "AT",
    "zipcode": "4742",
    "name": "Rabenthal",
    "region": "Oberösterreich",
    "short_region": "04",
    "lat": "48.232500",
    "lon": "13.617300"
  },
  {
    "id": "30451",
    "country": "AT",
    "zipcode": "4742",
    "name": "Lughof",
    "region": "Oberösterreich",
    "short_region": "04",
    "lat": "48.232500",
    "lon": "13.617300"
  },
  {
    "id": "30452",
    "country": "AT",
    "zipcode": "4742",
    "name": "Forsthub",
    "region": "Oberösterreich",
    "short_region": "04",
    "lat": "48.232500",
    "lon": "13.617300"
  },
  {
    "id": "30453",
    "country": "AT",
    "zipcode": "4742",
    "name": "Wallner",
    "region": "Oberösterreich",
    "short_region": "04",
    "lat": "48.232500",
    "lon": "13.617300"
  },
  {
    "id": "30454",
    "country": "AT",
    "zipcode": "4742",
    "name": "Steinbruck",
    "region": "Oberösterreich",
    "short_region": "04",
    "lat": "48.232500",
    "lon": "13.617300"
  },
  {
    "id": "30455",
    "country": "AT",
    "zipcode": "4742",
    "name": "Schulterzucker",
    "region": "Oberösterreich",
    "short_region": "04",
    "lat": "48.232500",
    "lon": "13.617300"
  },
  {
    "id": "30456",
    "country": "AT",
    "zipcode": "4742",
    "name": "Rotten",
    "region": "Oberösterreich",
    "short_region": "04",
    "lat": "48.232500",
    "lon": "13.617300"
  },
  {
    "id": "30457",
    "country": "AT",
    "zipcode": "4742",
    "name": "Lucka",
    "region": "Oberösterreich",
    "short_region": "04",
    "lat": "48.232500",
    "lon": "13.617300"
  },
  {
    "id": "30458",
    "country": "AT",
    "zipcode": "4742",
    "name": "Hochhub",
    "region": "Oberösterreich",
    "short_region": "04",
    "lat": "48.232500",
    "lon": "13.617300"
  },
  {
    "id": "30459",
    "country": "AT",
    "zipcode": "4742",
    "name": "Gewerbepark",
    "region": "Oberösterreich",
    "short_region": "04",
    "lat": "48.232500",
    "lon": "13.617300"
  },
  {
    "id": "30460",
    "country": "AT",
    "zipcode": "4742",
    "name": "Gerhartsbrunn",
    "region": "Oberösterreich",
    "short_region": "04",
    "lat": "48.232500",
    "lon": "13.617300"
  },
  {
    "id": "30461",
    "country": "AT",
    "zipcode": "4742",
    "name": "Echtsberg",
    "region": "Oberösterreich",
    "short_region": "04",
    "lat": "48.232500",
    "lon": "13.617300"
  },
  {
    "id": "30462",
    "country": "AT",
    "zipcode": "4742",
    "name": "Doppl",
    "region": "Oberösterreich",
    "short_region": "04",
    "lat": "48.232500",
    "lon": "13.617300"
  },
  {
    "id": "30463",
    "country": "AT",
    "zipcode": "4742",
    "name": "Bernhartsleiten",
    "region": "Oberösterreich",
    "short_region": "04",
    "lat": "48.232500",
    "lon": "13.617300"
  },
  {
    "id": "30464",
    "country": "AT",
    "zipcode": "4742",
    "name": "Kornrödt",
    "region": "Oberösterreich",
    "short_region": "04",
    "lat": "48.232500",
    "lon": "13.617300"
  },
  {
    "id": "30465",
    "country": "AT",
    "zipcode": "4742",
    "name": "Klinget",
    "region": "Oberösterreich",
    "short_region": "04",
    "lat": "48.232500",
    "lon": "13.617300"
  },
  {
    "id": "30466",
    "country": "AT",
    "zipcode": "4742",
    "name": "Kleinpoxruck",
    "region": "Oberösterreich",
    "short_region": "04",
    "lat": "48.232500",
    "lon": "13.617300"
  },
  {
    "id": "30467",
    "country": "AT",
    "zipcode": "4742",
    "name": "Hebetsberg",
    "region": "Oberösterreich",
    "short_region": "04",
    "lat": "48.232500",
    "lon": "13.617300"
  },
  {
    "id": "30468",
    "country": "AT",
    "zipcode": "4742",
    "name": "Gstöcket",
    "region": "Oberösterreich",
    "short_region": "04",
    "lat": "48.232500",
    "lon": "13.617300"
  },
  {
    "id": "30469",
    "country": "AT",
    "zipcode": "4742",
    "name": "Grübl",
    "region": "Oberösterreich",
    "short_region": "04",
    "lat": "48.232500",
    "lon": "13.617300"
  },
  {
    "id": "30470",
    "country": "AT",
    "zipcode": "4742",
    "name": "Großpoxruck",
    "region": "Oberösterreich",
    "short_region": "04",
    "lat": "48.232500",
    "lon": "13.617300"
  },
  {
    "id": "30471",
    "country": "AT",
    "zipcode": "4742",
    "name": "Gries",
    "region": "Oberösterreich",
    "short_region": "04",
    "lat": "48.232500",
    "lon": "13.617300"
  },
  {
    "id": "30472",
    "country": "AT",
    "zipcode": "4742",
    "name": "Feldegg",
    "region": "Oberösterreich",
    "short_region": "04",
    "lat": "48.232500",
    "lon": "13.617300"
  },
  {
    "id": "30473",
    "country": "AT",
    "zipcode": "4742",
    "name": "Edt",
    "region": "Oberösterreich",
    "short_region": "04",
    "lat": "48.232500",
    "lon": "13.617300"
  },
  {
    "id": "30474",
    "country": "AT",
    "zipcode": "4742",
    "name": "Durrach",
    "region": "Oberösterreich",
    "short_region": "04",
    "lat": "48.232500",
    "lon": "13.617300"
  },
  {
    "id": "30475",
    "country": "AT",
    "zipcode": "4742",
    "name": "Asbach",
    "region": "Oberösterreich",
    "short_region": "04",
    "lat": "48.232500",
    "lon": "13.617300"
  },
  {
    "id": "30476",
    "country": "AT",
    "zipcode": "4742",
    "name": "Gattring",
    "region": "Oberösterreich",
    "short_region": "04",
    "lat": "48.232500",
    "lon": "13.617300"
  },
  {
    "id": "30477",
    "country": "AT",
    "zipcode": "4742",
    "name": "Wimm",
    "region": "Oberösterreich",
    "short_region": "04",
    "lat": "48.232500",
    "lon": "13.617300"
  },
  {
    "id": "30478",
    "country": "AT",
    "zipcode": "4742",
    "name": "Viertlbach",
    "region": "Oberösterreich",
    "short_region": "04",
    "lat": "48.232500",
    "lon": "13.617300"
  },
  {
    "id": "30479",
    "country": "AT",
    "zipcode": "4742",
    "name": "Unterprenning",
    "region": "Oberösterreich",
    "short_region": "04",
    "lat": "48.224100",
    "lon": "13.602800"
  },
  {
    "id": "30480",
    "country": "AT",
    "zipcode": "4742",
    "name": "Unterleiten",
    "region": "Oberösterreich",
    "short_region": "04",
    "lat": "48.232500",
    "lon": "13.617300"
  },
  {
    "id": "30481",
    "country": "AT",
    "zipcode": "4742",
    "name": "Standharting",
    "region": "Oberösterreich",
    "short_region": "04",
    "lat": "48.232500",
    "lon": "13.617300"
  },
  {
    "id": "30482",
    "country": "AT",
    "zipcode": "4742",
    "name": "Rühring",
    "region": "Oberösterreich",
    "short_region": "04",
    "lat": "48.232500",
    "lon": "13.617300"
  },
  {
    "id": "30483",
    "country": "AT",
    "zipcode": "4742",
    "name": "Renhartsberg",
    "region": "Oberösterreich",
    "short_region": "04",
    "lat": "48.232500",
    "lon": "13.617300"
  },
  {
    "id": "30484",
    "country": "AT",
    "zipcode": "4742",
    "name": "Bruck",
    "region": "Oberösterreich",
    "short_region": "04",
    "lat": "48.232500",
    "lon": "13.617300"
  },
  {
    "id": "30485",
    "country": "AT",
    "zipcode": "4742",
    "name": "Rabenberg",
    "region": "Oberösterreich",
    "short_region": "04",
    "lat": "48.232500",
    "lon": "13.617300"
  },
  {
    "id": "30486",
    "country": "AT",
    "zipcode": "4742",
    "name": "Pramberg",
    "region": "Oberösterreich",
    "short_region": "04",
    "lat": "48.232500",
    "lon": "13.617300"
  },
  {
    "id": "30487",
    "country": "AT",
    "zipcode": "4762",
    "name": "Gschaid",
    "region": "Oberösterreich",
    "short_region": "04",
    "lat": "48.369900",
    "lon": "13.659500"
  },
  {
    "id": "30488",
    "country": "AT",
    "zipcode": "4902",
    "name": "Aferhagen",
    "region": "Oberösterreich",
    "short_region": "04",
    "lat": "48.116400",
    "lon": "13.626300"
  },
  {
    "id": "30489",
    "country": "AT",
    "zipcode": "4421",
    "name": "Pieslwang",
    "region": "Oberösterreich",
    "short_region": "04",
    "lat": "47.992300",
    "lon": "14.289000"
  },
  {
    "id": "30490",
    "country": "AT",
    "zipcode": "4532",
    "name": "Kremsmünster",
    "region": "Oberösterreich",
    "short_region": "04",
    "lat": "48.052900",
    "lon": "14.129200"
  },
  {
    "id": "30491",
    "country": "AT",
    "zipcode": "4540",
    "name": "Kremsmünster",
    "region": "Oberösterreich",
    "short_region": "04",
    "lat": "48.052900",
    "lon": "14.129200"
  },
  {
    "id": "30492",
    "country": "AT",
    "zipcode": "4542",
    "name": "Dauersdorf",
    "region": "Oberösterreich",
    "short_region": "04",
    "lat": "47.961300",
    "lon": "14.136100"
  },
  {
    "id": "30493",
    "country": "AT",
    "zipcode": "4542",
    "name": "Auern",
    "region": "Oberösterreich",
    "short_region": "04",
    "lat": "47.978200",
    "lon": "14.118300"
  },
  {
    "id": "30494",
    "country": "AT",
    "zipcode": "4542",
    "name": "Natzberg",
    "region": "Oberösterreich",
    "short_region": "04",
    "lat": "48.008500",
    "lon": "14.179400"
  },