[
  {
    "id": "120001",
    "country": "DZ",
    "zipcode": "06019",
    "name": "Takhlicht",
    "region": "Bejaia",
    "short_region": "06",
    "lat": "36.833300",
    "lon": "4.716700"
  },
  {
    "id": "120002",
    "country": "DZ",
    "zipcode": "06019",
    "name": "Tasga",
    "region": "Bejaia",
    "short_region": "06",
    "lat": "36.616700",
    "lon": "4.750000"
  },
  {
    "id": "120003",
    "country": "DZ",
    "zipcode": "06019",
    "name": "El Had",
    "region": "Bejaia",
    "short_region": "06",
    "lat": "36.583300",
    "lon": "4.916700"
  },
  {
    "id": "120004",
    "country": "DZ",
    "zipcode": "06019",
    "name": "Taourirt",
    "region": "Bejaia",
    "short_region": "06",
    "lat": "36.443300",
    "lon": "4.682800"
  },
  {
    "id": "120005",
    "country": "DZ",
    "zipcode": "06019",
    "name": "Akabiou",
    "region": "Bejaia",
    "short_region": "06",
    "lat": "36.621000",
    "lon": "4.771400"
  },
  {
    "id": "120006",
    "country": "DZ",
    "zipcode": "06020",
    "name": "Semaoune",
    "region": "Bejaia",
    "short_region": "06",
    "lat": "36.616700",
    "lon": "4.800000"
  },
  {
    "id": "120007",
    "country": "DZ",
    "zipcode": "06020",
    "name": "Tizi Adjissa",
    "region": "Bejaia",
    "short_region": "06",
    "lat": "36.616700",
    "lon": "4.800000"
  },
  {
    "id": "120008",
    "country": "DZ",
    "zipcode": "06020",
    "name": "Tissa",
    "region": "Bejaia",
    "short_region": "06",
    "lat": "36.616700",
    "lon": "4.800000"
  },
  {
    "id": "120009",
    "country": "DZ",
    "zipcode": "06020",
    "name": "Beni Djellil",
    "region": "Bejaia",
    "short_region": "06",
    "lat": "36.616700",
    "lon": "4.800000"
  },
  {
    "id": "120010",
    "country": "DZ",
    "zipcode": "06020",
    "name": "Tizi Senhadja",
    "region": "Bejaia",
    "short_region": "06",
    "lat": "36.616700",
    "lon": "4.800000"
  },
  {
    "id": "120011",
    "country": "DZ",
    "zipcode": "06021",
    "name": "Alitoum",
    "region": "Bejaia",
    "short_region": "06",
    "lat": "36.693100",
    "lon": "4.671500"
  },
  {
    "id": "120012",
    "country": "DZ",
    "zipcode": "06021",
    "name": "Tala Hamdoun",
    "region": "Bejaia",
    "short_region": "06",
    "lat": "36.693100",
    "lon": "4.671500"
  },
  {
    "id": "120013",
    "country": "DZ",
    "zipcode": "06021",
    "name": "Ouanougha",
    "region": "Bejaia",
    "short_region": "06",
    "lat": "36.693100",
    "lon": "4.671500"
  },
  {
    "id": "120014",
    "country": "DZ",
    "zipcode": "06021",
    "name": "Mezdouille",
    "region": "Bejaia",
    "short_region": "06",
    "lat": "36.693100",
    "lon": "4.671500"
  },
  {
    "id": "120015",
    "country": "DZ",
    "zipcode": "06021",
    "name": "Mechnoua",
    "region": "Bejaia",
    "short_region": "06",
    "lat": "36.693100",
    "lon": "4.671500"
  },
  {
    "id": "120016",
    "country": "DZ",
    "zipcode": "06021",
    "name": "Ikhetaben",
    "region": "Bejaia",
    "short_region": "06",
    "lat": "36.693100",
    "lon": "4.671500"
  },
  {
    "id": "120017",
    "country": "DZ",
    "zipcode": "06021",
    "name": "Ighil Kroun",
    "region": "Bejaia",
    "short_region": "06",
    "lat": "36.693100",
    "lon": "4.671500"
  },
  {
    "id": "120018",
    "country": "DZ",
    "zipcode": "06021",
    "name": "Hallafa",
    "region": "Bejaia",
    "short_region": "06",
    "lat": "36.693100",
    "lon": "4.671500"
  },
  {
    "id": "120019",
    "country": "DZ",
    "zipcode": "06021",
    "name": "Timri Mahmoud",
    "region": "Bejaia",
    "short_region": "06",
    "lat": "36.693100",
    "lon": "4.671500"
  },
  {
    "id": "120020",
    "country": "DZ",
    "zipcode": "06021",
    "name": "Adekar",
    "region": "Bejaia",
    "short_region": "06",
    "lat": "36.693100",
    "lon": "4.671500"
  },
  {
    "id": "120021",
    "country": "DZ",
    "zipcode": "06021",
    "name": "Kebouche",
    "region": "Bejaia",
    "short_region": "06",
    "lat": "36.693100",
    "lon": "4.671500"
  },
  {
    "id": "120022",
    "country": "DZ",
    "zipcode": "06022",
    "name": "Tazrout",
    "region": "Bejaia",
    "short_region": "06",
    "lat": "36.653000",
    "lon": "4.967000"
  },
  {
    "id": "120023",
    "country": "DZ",
    "zipcode": "06022",
    "name": "Djenane",
    "region": "Bejaia",
    "short_region": "06",
    "lat": "36.597100",
    "lon": "5.227500"
  },
  {
    "id": "120024",
    "country": "DZ",
    "zipcode": "06022",
    "name": "Takorabt",
    "region": "Bejaia",
    "short_region": "06",
    "lat": "36.591800",
    "lon": "4.835400"
  },
  {
    "id": "120025",
    "country": "DZ",
    "zipcode": "06022",
    "name": "Taguemount",
    "region": "Bejaia",
    "short_region": "06",
    "lat": "36.608600",
    "lon": "4.977400"
  },
  {
    "id": "120026",
    "country": "DZ",
    "zipcode": "06022",
    "name": "Taourirt",
    "region": "Bejaia",
    "short_region": "06",
    "lat": "36.583300",
    "lon": "4.933300"
  },
  {
    "id": "120027",
    "country": "DZ",
    "zipcode": "06022",
    "name": "Berkouk",
    "region": "Bejaia",
    "short_region": "06",
    "lat": "36.619500",
    "lon": "4.954000"
  },
  {
    "id": "120028",
    "country": "DZ",
    "zipcode": "06022",
    "name": "Boumelal",
    "region": "Bejaia",
    "short_region": "06",
    "lat": "36.619500",
    "lon": "4.954000"
  },
  {
    "id": "120029",
    "country": "DZ",
    "zipcode": "06022",
    "name": "Boussadoune",
    "region": "Bejaia",
    "short_region": "06",
    "lat": "36.619500",
    "lon": "4.954000"
  },
  {
    "id": "120030",
    "country": "DZ",
    "zipcode": "06022",
    "name": "Ayaten",
    "region": "Bejaia",
    "short_region": "06",
    "lat": "36.619500",
    "lon": "4.954000"
  },
  {
    "id": "120031",
    "country": "DZ",
    "zipcode": "06022",
    "name": "Aourir Vieux Marche",
    "region": "Bejaia",
    "short_region": "06",
    "lat": "36.619500",
    "lon": "4.954000"
  },
  {
    "id": "120032",
    "country": "DZ",
    "zipcode": "06022",
    "name": "Ait Soula",
    "region": "Bejaia",
    "short_region": "06",
    "lat": "36.619500",
    "lon": "4.954000"
  },
  {
    "id": "120033",
    "country": "DZ",
    "zipcode": "06022",
    "name": "Tissira",
    "region": "Bejaia",
    "short_region": "06",
    "lat": "36.619500",
    "lon": "4.954000"
  },
  {
    "id": "120034",
    "country": "DZ",
    "zipcode": "06022",
    "name": "Tihouna",
    "region": "Bejaia",
    "short_region": "06",
    "lat": "36.619500",
    "lon": "4.954000"
  },
  {
    "id": "120035",
    "country": "DZ",
    "zipcode": "06022",
    "name": "Agueni",
    "region": "Bejaia",
    "short_region": "06",
    "lat": "36.619500",
    "lon": "4.954000"
  },
  {
    "id": "120036",
    "country": "DZ",
    "zipcode": "06022",
    "name": "Tamdjout",
    "region": "Bejaia",
    "short_region": "06",
    "lat": "36.619500",
    "lon": "4.954000"
  },
  {
    "id": "120037",
    "country": "DZ",
    "zipcode": "06022",
    "name": "Larbaa",
    "region": "Bejaia",
    "short_region": "06",
    "lat": "36.619500",
    "lon": "4.954000"
  },
  {
    "id": "120038",
    "country": "DZ",
    "zipcode": "06022",
    "name": "Takhlidjit",
    "region": "Bejaia",
    "short_region": "06",
    "lat": "36.619500",
    "lon": "4.954000"
  },
  {
    "id": "120039",
    "country": "DZ",
    "zipcode": "06022",
    "name": "Ait Aghrah",
    "region": "Bejaia",
    "short_region": "06",
    "lat": "36.619500",
    "lon": "4.954000"
  },
  {
    "id": "120040",
    "country": "DZ",
    "zipcode": "06022",
    "name": "Sidi Yahia",
    "region": "Bejaia",
    "short_region": "06",
    "lat": "36.619500",
    "lon": "4.954000"
  },
  {
    "id": "120041",
    "country": "DZ",
    "zipcode": "06022",
    "name": "Tighilt",
    "region": "Bejaia",
    "short_region": "06",
    "lat": "36.683300",
    "lon": "4.783300"
  },
  {
    "id": "120042",
    "country": "DZ",
    "zipcode": "06022",
    "name": "Sidi Hadj Nassaine",
    "region": "Bejaia",
    "short_region": "06",
    "lat": "36.619500",
    "lon": "4.954000"
  },
  {
    "id": "120043",
    "country": "DZ",
    "zipcode": "06022",
    "name": "Chemini",
    "region": "Bejaia",
    "short_region": "06",
    "lat": "36.619500",
    "lon": "4.954000"
  },
  {
    "id": "120044",
    "country": "DZ",
    "zipcode": "06022",
    "name": "Iabbounene",
    "region": "Bejaia",
    "short_region": "06",
    "lat": "36.619500",
    "lon": "4.954000"
  },
  {
    "id": "120045",
    "country": "DZ",
    "zipcode": "06022",
    "name": "Imaliouene",
    "region": "Bejaia",
    "short_region": "06",
    "lat": "36.619500",
    "lon": "4.954000"
  },
  {
    "id": "120046",
    "country": "DZ",
    "zipcode": "06022",
    "name": "Izarouzene",
    "region": "Bejaia",
    "short_region": "06",
    "lat": "36.619500",
    "lon": "4.954000"
  },
  {
    "id": "120047",
    "country": "DZ",
    "zipcode": "06022",
    "name": "Badjou",
    "region": "Bejaia",
    "short_region": "06",
    "lat": "36.619500",
    "lon": "4.954000"
  },
  {
    "id": "120048",
    "country": "DZ",
    "zipcode": "06023",
    "name": "Tizounguelmim",
    "region": "Bejaia",
    "short_region": "06",
    "lat": "36.583100",
    "lon": "4.990000"
  },
  {
    "id": "120049",
    "country": "DZ",
    "zipcode": "06023",
    "name": "Iboulaouadene",
    "region": "Bejaia",
    "short_region": "06",
    "lat": "36.583100",
    "lon": "4.990000"
  },
  {
    "id": "120050",
    "country": "DZ",
    "zipcode": "06023",
    "name": "Ighil Oubraham",
    "region": "Bejaia",
    "short_region": "06",
    "lat": "36.583100",
    "lon": "4.990000"
  },
  {
    "id": "120051",
    "country": "DZ",
    "zipcode": "06023",
    "name": "Ighil Oubellout",
    "region": "Bejaia",
    "short_region": "06",
    "lat": "36.583100",
    "lon": "4.990000"
  },
  {
    "id": "120052",
    "country": "DZ",
    "zipcode": "06023",
    "name": "Ighil Isly",
    "region": "Bejaia",
    "short_region": "06",
    "lat": "36.583100",
    "lon": "4.990000"
  },
  {
    "id": "120053",
    "country": "DZ",
    "zipcode": "06023",
    "name": "Ighil Igrane",
    "region": "Bejaia",
    "short_region": "06",
    "lat": "36.583100",
    "lon": "4.990000"
  },
  {
    "id": "120054",
    "country": "DZ",
    "zipcode": "06023",
    "name": "Ighil Ahcene",
    "region": "Bejaia",
    "short_region": "06",
    "lat": "36.583100",
    "lon": "4.990000"
  },
  {
    "id": "120055",
    "country": "DZ",
    "zipcode": "06023",
    "name": "Idjermoumene",
    "region": "Bejaia",
    "short_region": "06",
    "lat": "36.583100",
    "lon": "4.990000"
  },
  {
    "id": "120056",
    "country": "DZ",
    "zipcode": "06023",
    "name": "Ihaloufene",
    "region": "Bejaia",
    "short_region": "06",
    "lat": "36.583100",
    "lon": "4.990000"
  },
  {
    "id": "120057",
    "country": "DZ",
    "zipcode": "06023",
    "name": "Ikherazene",
    "region": "Bejaia",
    "short_region": "06",
    "lat": "36.583100",
    "lon": "4.990000"
  },
  {
    "id": "120058",
    "country": "DZ",
    "zipcode": "06023",
    "name": "Imdra",
    "region": "Bejaia",
    "short_region": "06",
    "lat": "36.583100",
    "lon": "4.990000"
  },
  {
    "id": "120059",
    "country": "DZ",
    "zipcode": "06023",
    "name": "Adjelouh",
    "region": "Bejaia",
    "short_region": "06",
    "lat": "36.583100",
    "lon": "4.990000"
  },
  {
    "id": "120060",
    "country": "DZ",
    "zipcode": "06023",
    "name": "Afara",
    "region": "Bejaia",
    "short_region": "06",
    "lat": "36.583100",
    "lon": "4.990000"
  },
  {
    "id": "120061",
    "country": "DZ",
    "zipcode": "06023",
    "name": "Aguemoune",
    "region": "Bejaia",
    "short_region": "06",
    "lat": "36.583100",
    "lon": "4.990000"
  },
  {
    "id": "120062",
    "country": "DZ",
    "zipcode": "06023",
    "name": "Agueni Ouar",
    "region": "Bejaia",
    "short_region": "06",
    "lat": "36.583100",
    "lon": "4.990000"
  },
  {
    "id": "120063",
    "country": "DZ",
    "zipcode": "06023",
    "name": "Ait Djeha",
    "region": "Bejaia",
    "short_region": "06",
    "lat": "36.583100",
    "lon": "4.990000"
  },
  {
    "id": "120064",
    "country": "DZ",
    "zipcode": "06023",
    "name": "Ait El Djaia",
    "region": "Bejaia",
    "short_region": "06",
    "lat": "36.583100",
    "lon": "4.990000"
  },
  {
    "id": "120065",
    "country": "DZ",
    "zipcode": "06023",
    "name": "Ait Hamed",
    "region": "Bejaia",
    "short_region": "06",
    "lat": "36.583100",
    "lon": "4.990000"
  },
  {
    "id": "120066",
    "country": "DZ",
    "zipcode": "06023",
    "name": "Amane Semoumene",
    "region": "Bejaia",
    "short_region": "06",
    "lat": "36.583100",
    "lon": "4.990000"
  },
  {
    "id": "120067",
    "country": "DZ",
    "zipcode": "06023",
    "name": "Imedassene",
    "region": "Bejaia",
    "short_region": "06",
    "lat": "36.583100",
    "lon": "4.990000"
  },
  {
    "id": "120068",
    "country": "DZ",
    "zipcode": "06023",
    "name": "Imougzene",
    "region": "Bejaia",
    "short_region": "06",
    "lat": "36.583100",
    "lon": "4.990000"
  },
  {
    "id": "120069",
    "country": "DZ",
    "zipcode": "06023",
    "name": "Izouman",
    "region": "Bejaia",
    "short_region": "06",
    "lat": "36.583100",
    "lon": "4.990000"
  },
  {
    "id": "120070",
    "country": "DZ",
    "zipcode": "06023",
    "name": "Laarba",
    "region": "Bejaia",
    "short_region": "06",
    "lat": "36.583100",
    "lon": "4.990000"
  },
  {
    "id": "120071",
    "country": "DZ",
    "zipcode": "06023",
    "name": "Lahiout",
    "region": "Bejaia",
    "short_region": "06",
    "lat": "36.583100",
    "lon": "4.990000"
  },
  {
    "id": "120072",
    "country": "DZ",
    "zipcode": "06023",
    "name": "Lainceur",
    "region": "Bejaia",
    "short_region": "06",
    "lat": "36.583100",
    "lon": "4.990000"
  },
  {
    "id": "120073",
    "country": "DZ",
    "zipcode": "06023",
    "name": "Leftel",
    "region": "Bejaia",
    "short_region": "06",
    "lat": "36.583100",
    "lon": "4.990000"
  },
  {
    "id": "120074",
    "country": "DZ",
    "zipcode": "06023",
    "name": "Louiba",
    "region": "Bejaia",
    "short_region": "06",
    "lat": "36.583100",
    "lon": "4.990000"
  },
  {
    "id": "120075",
    "country": "DZ",
    "zipcode": "06023",
    "name": "Mahoui",
    "region": "Bejaia",
    "short_region": "06",
    "lat": "36.583100",
    "lon": "4.990000"
  },
  {
    "id": "120076",
    "country": "DZ",
    "zipcode": "06023",
    "name": "Mazekouane",
    "region": "Bejaia",
    "short_region": "06",
    "lat": "36.583100",
    "lon": "4.990000"
  },
  {
    "id": "120077",
    "country": "DZ",
    "zipcode": "06023",
    "name": "Menkoufa",
    "region": "Bejaia",
    "short_region": "06",
    "lat": "36.583100",
    "lon": "4.990000"
  },
  {
    "id": "120078",
    "country": "DZ",
    "zipcode": "06023",
    "name": "Mouzaia",
    "region": "Bejaia",
    "short_region": "06",
    "lat": "36.583100",
    "lon": "4.990000"
  },
  {
    "id": "120079",
    "country": "DZ",
    "zipcode": "06023",
    "name": "Tablout",
    "region": "Bejaia",
    "short_region": "06",
    "lat": "36.583100",
    "lon": "4.990000"
  },
  {
    "id": "120080",
    "country": "DZ",
    "zipcode": "06023",
    "name": "El Meroudj",
    "region": "Bejaia",
    "short_region": "06",
    "lat": "36.632800",
    "lon": "5.038000"
  },
  {
    "id": "120081",
    "country": "DZ",
    "zipcode": "06023",
    "name": "Taguemount Biou",
    "region": "Bejaia",
    "short_region": "06",
    "lat": "36.583100",
    "lon": "4.990000"
  },
  {
    "id": "120082",
    "country": "DZ",
    "zipcode": "06023",
    "name": "Tahakats",
    "region": "Bejaia",
    "short_region": "06",
    "lat": "36.583100",
    "lon": "4.990000"
  },
  {
    "id": "120083",
    "country": "DZ",
    "zipcode": "06023",
    "name": "Takesrit",
    "region": "Bejaia",
    "short_region": "06",
    "lat": "36.583100",
    "lon": "4.990000"
  },
  {
    "id": "120084",
    "country": "DZ",
    "zipcode": "06023",
    "name": "Barkat",
    "region": "Bejaia",
    "short_region": "06",
    "lat": "36.583100",
    "lon": "4.990000"
  },
  {
    "id": "120085",
    "country": "DZ",
    "zipcode": "06023",
    "name": "Beni Guendou",
    "region": "Bejaia",
    "short_region": "06",
    "lat": "36.583100",
    "lon": "4.990000"
  },
  {
    "id": "120086",
    "country": "DZ",
    "zipcode": "06023",
    "name": "Berber",
    "region": "Bejaia",
    "short_region": "06",
    "lat": "36.583100",
    "lon": "4.990000"
  },
  {
    "id": "120087",
    "country": "DZ",
    "zipcode": "06023",
    "name": "Tikhribt",
    "region": "Bejaia",
    "short_region": "06",
    "lat": "36.583100",
    "lon": "4.990000"
  },
  {
    "id": "120088",
    "country": "DZ",
    "zipcode": "06023",
    "name": "Timenachine",
    "region": "Bejaia",
    "short_region": "06",
    "lat": "36.583100",
    "lon": "4.990000"
  },
  {
    "id": "120089",
    "country": "DZ",
    "zipcode": "06023",
    "name": "Timricht",
    "region": "Bejaia",
    "short_region": "06",
    "lat": "36.583100",
    "lon": "4.990000"
  },
  {
    "id": "120090",
    "country": "DZ",
    "zipcode": "06023",
    "name": "Tiourinine",
    "region": "Bejaia",
    "short_region": "06",
    "lat": "36.583100",
    "lon": "4.990000"
  },
  {
    "id": "120091",
    "country": "DZ",
    "zipcode": "06023",
    "name": "Tizi Ikhlef",
    "region": "Bejaia",
    "short_region": "06",
    "lat": "36.583100",
    "lon": "4.990000"
  },
  {
    "id": "120092",
    "country": "DZ",
    "zipcode": "06023",
    "name": "Bouata",
    "region": "Bejaia",
    "short_region": "06",
    "lat": "36.583100",
    "lon": "4.990000"
  },
  {
    "id": "120093",
    "country": "DZ",
    "zipcode": "06023",
    "name": "Mansouga",
    "region": "Bejaia",
    "short_region": "06",
    "lat": "36.638300",
    "lon": "5.069500"
  },
  {
    "id": "120094",
    "country": "DZ",
    "zipcode": "06023",
    "name": "Acherchour",
    "region": "Bejaia",
    "short_region": "06",
    "lat": "36.583100",
    "lon": "4.990000"
  },
  {
    "id": "120095",
    "country": "DZ",
    "zipcode": "06023",
    "name": "Boukharoubene",
    "region": "Bejaia",
    "short_region": "06",
    "lat": "36.583100",
    "lon": "4.990000"
  },
  {
    "id": "120096",
    "country": "DZ",
    "zipcode": "06023",
    "name": "Boukhelifa",
    "region": "Bejaia",
    "short_region": "06",
    "lat": "36.583100",
    "lon": "4.990000"
  },
  {
    "id": "120097",
    "country": "DZ",
    "zipcode": "06023",
    "name": "Boukoumahdi",
    "region": "Bejaia",
    "short_region": "06",
    "lat": "36.583100",
    "lon": "4.990000"
  },
  {
    "id": "120098",
    "country": "DZ",
    "zipcode": "06023",
    "name": "Bounekach",
    "region": "Bejaia",
    "short_region": "06",
    "lat": "36.583100",
    "lon": "4.990000"
  },
  {
    "id": "120099",
    "country": "DZ",
    "zipcode": "06023",
    "name": "Timsedekt",
    "region": "Bejaia",
    "short_region": "06",
    "lat": "36.583100",
    "lon": "4.990000"
  },
  {
    "id": "120100",
    "country": "DZ",
    "zipcode": "06023",
    "name": "Boussoumar",
    "region": "Bejaia",
    "short_region": "06",
    "lat": "36.583100",
    "lon": "4.990000"
  },
  {
    "id": "120101",
    "country": "DZ",
    "zipcode": "06023",
    "name": "Bout M'Loul",
    "region": "Bejaia",
    "short_region": "06",
    "lat": "36.583100",
    "lon": "4.990000"
  },
  {
    "id": "120102",
    "country": "DZ",
    "zipcode": "06023",
    "name": "Chereh",
    "region": "Bejaia",
    "short_region": "06",
    "lat": "36.583100",
    "lon": "4.990000"
  },
  {
    "id": "120103",
    "country": "DZ",
    "zipcode": "06023",
    "name": "Dar Mohand",
    "region": "Bejaia",
    "short_region": "06",
    "lat": "36.583100",
    "lon": "4.990000"
  },
  {
    "id": "120104",
    "country": "DZ",
    "zipcode": "06023",
    "name": "Djebira",
    "region": "Bejaia",
    "short_region": "06",
    "lat": "36.583100",
    "lon": "4.990000"
  },
  {
    "id": "120105",
    "country": "DZ",
    "zipcode": "06023",
    "name": "Djoua",
    "region": "Bejaia",
    "short_region": "06",
    "lat": "36.583100",
    "lon": "4.990000"
  },
  {
    "id": "120106",
    "country": "DZ",
    "zipcode": "06023",
    "name": "El Hit",
    "region": "Bejaia",
    "short_region": "06",
    "lat": "36.583100",
    "lon": "4.990000"
  },
  {
    "id": "120107",
    "country": "DZ",
    "zipcode": "06023",
    "name": "El Medene",
    "region": "Bejaia",
    "short_region": "06",
    "lat": "36.583100",
    "lon": "4.990000"
  },
  {
    "id": "120108",
    "country": "DZ",
    "zipcode": "06023",
    "name": "El Mizab",
    "region": "Bejaia",
    "short_region": "06",
    "lat": "36.583100",
    "lon": "4.990000"
  },
  {
    "id": "120109",
    "country": "DZ",
    "zipcode": "06023",
    "name": "Takhamnour",
    "region": "Bejaia",
    "short_region": "06",
    "lat": "36.583100",
    "lon": "4.990000"
  },
  {
    "id": "120110",
    "country": "DZ",
    "zipcode": "06023",
    "name": "Tala Hadj",
    "region": "Bejaia",
    "short_region": "06",
    "lat": "36.583100",
    "lon": "4.990000"
  },
  {
    "id": "120111",
    "country": "DZ",
    "zipcode": "06023",
    "name": "Tala Hiani",
    "region": "Bejaia",
    "short_region": "06",
    "lat": "36.583100",
    "lon": "4.990000"
  },
  {
    "id": "120112",
    "country": "DZ",
    "zipcode": "06023",
    "name": "Tala Melouk",
    "region": "Bejaia",
    "short_region": "06",
    "lat": "36.583100",
    "lon": "4.990000"
  },
  {
    "id": "120113",
    "country": "DZ",
    "zipcode": "06023",
    "name": "Ghenaia",
    "region": "Bejaia",
    "short_region": "06",
    "lat": "36.583100",
    "lon": "4.990000"
  },
  {
    "id": "120114",
    "country": "DZ",
    "zipcode": "06023",
    "name": "Tala Melout",
    "region": "Bejaia",
    "short_region": "06",
    "lat": "36.583100",
    "lon": "4.990000"
  },
  {
    "id": "120115",
    "country": "DZ",
    "zipcode": "06023",
    "name": "Tala Oudrar",
    "region": "Bejaia",
    "short_region": "06",
    "lat": "36.583100",
    "lon": "4.990000"
  },
  {
    "id": "120116",
    "country": "DZ",
    "zipcode": "06023",
    "name": "Taount",
    "region": "Bejaia",
    "short_region": "06",
    "lat": "36.583100",
    "lon": "4.990000"
  },
  {
    "id": "120117",
    "country": "DZ",
    "zipcode": "06023",
    "name": "Taourirt Ikhlafene",
    "region": "Bejaia",
    "short_region": "06",
    "lat": "36.583100",
    "lon": "4.990000"
  },
  {
    "id": "120118",
    "country": "DZ",
    "zipcode": "06023",
    "name": "Taourirt N'Tghidet",
    "region": "Bejaia",
    "short_region": "06",
    "lat": "36.583100",
    "lon": "4.990000"
  },
  {
    "id": "120119",
    "country": "DZ",
    "zipcode": "06023",
    "name": "Taourirt Ouberane",
    "region": "Bejaia",
    "short_region": "06",
    "lat": "36.583100",
    "lon": "4.990000"
  },
  {
    "id": "120120",
    "country": "DZ",
    "zipcode": "06023",
    "name": "Taourit",
    "region": "Bejaia",
    "short_region": "06",
    "lat": "36.583100",
    "lon": "4.990000"
  },
  {
    "id": "120121",
    "country": "DZ",
    "zipcode": "06023",
    "name": "Igueradouane",
    "region": "Bejaia",
    "short_region": "06",
    "lat": "36.583100",
    "lon": "4.990000"
  },
  {
    "id": "120122",
    "country": "DZ",
    "zipcode": "06023",
    "name": "Iaedounene",
    "region": "Bejaia",
    "short_region": "06",
    "lat": "36.583100",
    "lon": "4.990000"
  },
  {
    "id": "120123",
    "country": "DZ",
    "zipcode": "06023",
    "name": "Targa",
    "region": "Bejaia",
    "short_region": "06",
    "lat": "36.583100",
    "lon": "4.990000"
  },
  {
    "id": "120124",
    "country": "DZ",
    "zipcode": "06023",
    "name": "Tazibt Biou",
    "region": "Bejaia",
    "short_region": "06",
    "lat": "36.583100",
    "lon": "4.990000"
  },
  {
    "id": "120125",
    "country": "DZ",
    "zipcode": "06023",
    "name": "Tignitine",
    "region": "Bejaia",
    "short_region": "06",
    "lat": "36.583100",
    "lon": "4.990000"
  },
  {
    "id": "120126",
    "country": "DZ",
    "zipcode": "06023",
    "name": "Ibekarene",
    "region": "Bejaia",
    "short_region": "06",
    "lat": "36.583100",
    "lon": "4.990000"
  },
  {
    "id": "120127",
    "country": "DZ",
    "zipcode": "06023",
    "name": "Tichi",
    "region": "Bejaia",
    "short_region": "06",
    "lat": "36.666700",
    "lon": "5.166700"
  },
  {
    "id": "120128",
    "country": "DZ",
    "zipcode": "06023",
    "name": "Tagouba",
    "region": "Bejaia",
    "short_region": "06",
    "lat": "36.588300",
    "lon": "5.144700"
  },
  {
    "id": "120129",
    "country": "DZ",
    "zipcode": "06023",
    "name": "Talendjast",
    "region": "Bejaia",
    "short_region": "06",
    "lat": "36.685900",
    "lon": "5.106000"
  },
  {
    "id": "120130",
    "country": "DZ",
    "zipcode": "06023",
    "name": "Tagma",
    "region": "Bejaia",
    "short_region": "06",
    "lat": "36.550000",
    "lon": "4.883300"
  },
  {
    "id": "120131",
    "country": "DZ",
    "zipcode": "06023",
    "name": "Aourir",
    "region": "Bejaia",
    "short_region": "06",
    "lat": "36.347800",
    "lon": "4.689400"
  },
  {
    "id": "120132",
    "country": "DZ",
    "zipcode": "06023",
    "name": "Tizi Ahmed",
    "region": "Bejaia",
    "short_region": "06",
    "lat": "36.655000",
    "lon": "5.162500"
  },
  {
    "id": "120133",
    "country": "DZ",
    "zipcode": "06023",
    "name": "Amalou",
    "region": "Bejaia",
    "short_region": "06",
    "lat": "36.483300",
    "lon": "4.650000"
  },
  {
    "id": "120134",
    "country": "DZ",
    "zipcode": "06024",
    "name": "Tizert",
    "region": "Bejaia",
    "short_region": "06",
    "lat": "36.492200",
    "lon": "4.735200"
  },
  {
    "id": "120135",
    "country": "DZ",
    "zipcode": "06024",
    "name": "Djabia",
    "region": "Bejaia",
    "short_region": "06",
    "lat": "36.480300",
    "lon": "4.780900"
  },
  {
    "id": "120136",
    "country": "DZ",
    "zipcode": "06024",
    "name": "M'Zita",
    "region": "Bejaia",
    "short_region": "06",
    "lat": "36.486200",
    "lon": "4.758100"
  },
  {
    "id": "120137",
    "country": "DZ",
    "zipcode": "06024",
    "name": "Akour",
    "region": "Bejaia",
    "short_region": "06",
    "lat": "36.486200",
    "lon": "4.758100"
  },
  {
    "id": "120138",
    "country": "DZ",
    "zipcode": "06024",
    "name": "Lazib Sidi Sadek",
    "region": "Bejaia",
    "short_region": "06",
    "lat": "36.486200",
    "lon": "4.758100"
  },
  {
    "id": "120139",
    "country": "DZ",
    "zipcode": "06024",
    "name": "Kalta Ben Khiar",
    "region": "Bejaia",
    "short_region": "06",
    "lat": "36.486200",
    "lon": "4.758100"
  },
  {
    "id": "120140",
    "country": "DZ",
    "zipcode": "06024",
    "name": "Trouna (Village)",
    "region": "Bejaia",
    "short_region": "06",
    "lat": "36.486200",
    "lon": "4.758100"
  },
  {
    "id": "120141",
    "country": "DZ",
    "zipcode": "06024",
    "name": "Trouna (Centre)",
    "region": "Bejaia",
    "short_region": "06",
    "lat": "36.486200",
    "lon": "4.758100"
  },
  {
    "id": "120142",
    "country": "DZ",
    "zipcode": "06024",
    "name": "Beni Maouche",
    "region": "Bejaia",
    "short_region": "06",
    "lat": "36.486200",
    "lon": "4.758100"
  },
  {
    "id": "120143",
    "country": "DZ",
    "zipcode": "06024",
    "name": "Boubirek",
    "region": "Bejaia",
    "short_region": "06",
    "lat": "36.486200",
    "lon": "4.758100"
  },
  {
    "id": "120144",
    "country": "DZ",
    "zipcode": "06024",
    "name": "Bouikini",
    "region": "Bejaia",
    "short_region": "06",
    "lat": "36.486200",
    "lon": "4.758100"
  },
  {
    "id": "120145",
    "country": "DZ",
    "zipcode": "06024",
    "name": "Tala Timzar",
    "region": "Bejaia",
    "short_region": "06",
    "lat": "36.486200",
    "lon": "4.758100"
  },
  {
    "id": "120146",
    "country": "DZ",
    "zipcode": "06024",
    "name": "Ait Moudjella",
    "region": "Bejaia",
    "short_region": "06",
    "lat": "36.486200",
    "lon": "4.758100"
  },
  {
    "id": "120147",
    "country": "DZ",
    "zipcode": "06024",
    "name": "Bourirak",
    "region": "Bejaia",
    "short_region": "06",
    "lat": "36.486200",
    "lon": "4.758100"
  },
  {
    "id": "120148",
    "country": "DZ",
    "zipcode": "06024",
    "name": "Tagounit Ighil",
    "region": "Bejaia",
    "short_region": "06",
    "lat": "36.486200",
    "lon": "4.758100"
  },
  {
    "id": "120149",
    "country": "DZ",
    "zipcode": "06024",
    "name": "Ighzer Oubelout",
    "region": "Bejaia",
    "short_region": "06",
    "lat": "36.486200",
    "lon": "4.758100"
  },
  {
    "id": "120150",
    "country": "DZ",
    "zipcode": "06024",
    "name": "Ighil Ouatou",
    "region": "Bejaia",
    "short_region": "06",
    "lat": "36.486200",
    "lon": "4.758100"
  },
  {
    "id": "120151",
    "country": "DZ",
    "zipcode": "06024",
    "name": "Igdarene",
    "region": "Bejaia",
    "short_region": "06",
    "lat": "36.486200",
    "lon": "4.758100"
  },
  {
    "id": "120152",
    "country": "DZ",
    "zipcode": "06024",
    "name": "Ibazizene",
    "region": "Bejaia",
    "short_region": "06",
    "lat": "36.486200",
    "lon": "4.758100"
  },
  {
    "id": "120153",
    "country": "DZ",
    "zipcode": "06024",
    "name": "Tioual",
    "region": "Bejaia",
    "short_region": "06",
    "lat": "36.486200",
    "lon": "4.758100"
  },
  {
    "id": "120154",
    "country": "DZ",
    "zipcode": "06024",
    "name": "Iamarane",
    "region": "Bejaia",
    "short_region": "06",
    "lat": "36.486200",
    "lon": "4.758100"
  },
  {
    "id": "120155",
    "country": "DZ",
    "zipcode": "06025",
    "name": "Ait Achour",
    "region": "Bejaia",
    "short_region": "06",
    "lat": "36.347800",
    "lon": "4.689400"
  },
  {
    "id": "120156",
    "country": "DZ",
    "zipcode": "06025",
    "name": "Tagroudja",
    "region": "Bejaia",
    "short_region": "06",
    "lat": "36.347800",
    "lon": "4.689400"
  },
  {
    "id": "120157",
    "country": "DZ",
    "zipcode": "06025",
    "name": "Ait Mahiou",
    "region": "Bejaia",
    "short_region": "06",
    "lat": "36.347800",
    "lon": "4.689400"
  },
  {
    "id": "120158",
    "country": "DZ",
    "zipcode": "06025",
    "name": "Ait Nara",
    "region": "Bejaia",
    "short_region": "06",
    "lat": "36.347800",
    "lon": "4.689400"
  },
  {
    "id": "120159",
    "country": "DZ",
    "zipcode": "06025",
    "name": "Tabount",
    "region": "Bejaia",
    "short_region": "06",
    "lat": "36.347800",
    "lon": "4.689400"
  },
  {
    "id": "120160",
    "country": "DZ",
    "zipcode": "06025",
    "name": "Tioui",
    "region": "Bejaia",
    "short_region": "06",
    "lat": "36.347800",
    "lon": "4.689400"
  },
  {
    "id": "120161",
    "country": "DZ",
    "zipcode": "06025",
    "name": "Rezag",
    "region": "Bejaia",
    "short_region": "06",
    "lat": "36.347800",
    "lon": "4.689400"
  },
  {
    "id": "120162",
    "country": "DZ",
    "zipcode": "06025",
    "name": "Zirni",
    "region": "Bejaia",
    "short_region": "06",
    "lat": "36.347800",
    "lon": "4.689400"
  },
  {
    "id": "120163",
    "country": "DZ",
    "zipcode": "06025",
    "name": "Taourit",
    "region": "Bejaia",
    "short_region": "06",
    "lat": "36.347800",
    "lon": "4.689400"
  },
  {
    "id": "120164",
    "country": "DZ",
    "zipcode": "06025",
    "name": "Tosga",
    "region": "Bejaia",
    "short_region": "06",
    "lat": "36.347800",
    "lon": "4.689400"
  },
  {
    "id": "120165",
    "country": "DZ",
    "zipcode": "06025",
    "name": "Akfadou",
    "region": "Bejaia",
    "short_region": "06",
    "lat": "36.347800",
    "lon": "4.689400"
  },
  {
    "id": "120166",
    "country": "DZ",
    "zipcode": "06025",
    "name": "Ferhoune",
    "region": "Bejaia",
    "short_region": "06",
    "lat": "36.347800",
    "lon": "4.689400"
  },
  {
    "id": "120167",
    "country": "DZ",
    "zipcode": "06025",
    "name": "Ait Allouane",
    "region": "Bejaia",
    "short_region": "06",
    "lat": "36.347800",
    "lon": "4.689400"
  },
  {
    "id": "120168",
    "country": "DZ",
    "zipcode": "06025",
    "name": "Inoghdocine",
    "region": "Bejaia",
    "short_region": "06",
    "lat": "36.347800",
    "lon": "4.689400"
  },
  {
    "id": "120169",
    "country": "DZ",
    "zipcode": "06025",
    "name": "Ait Sada",
    "region": "Bejaia",
    "short_region": "06",
    "lat": "36.347800",
    "lon": "4.689400"
  },
  {
    "id": "120170",
    "country": "DZ",
    "zipcode": "06025",
    "name": "Mezouara",
    "region": "Bejaia",
    "short_region": "06",
    "lat": "36.347800",
    "lon": "4.689400"
  },
  {
    "id": "120171",
    "country": "DZ",
    "zipcode": "06025",
    "name": "Aguerni Tezgui",
    "region": "Bejaia",
    "short_region": "06",
    "lat": "36.347800",
    "lon": "4.689400"
  },
  {
    "id": "120172",
    "country": "DZ",
    "zipcode": "06025",
    "name": "Tizamourine",
    "region": "Bejaia",
    "short_region": "06",
    "lat": "36.347800",
    "lon": "4.689400"
  },
  {
    "id": "120173",
    "country": "DZ",
    "zipcode": "06025",
    "name": "Aourir",
    "region": "Bejaia",
    "short_region": "06",
    "lat": "36.347800",
    "lon": "4.689400"
  },
  {
    "id": "120174",
    "country": "DZ",
    "zipcode": "06026",
    "name": "Hamda",
    "region": "Bejaia",
    "short_region": "06",
    "lat": "36.321400",
    "lon": "4.434700"
  },
  {
    "id": "120175",
    "country": "DZ",
    "zipcode": "06026",
    "name": "Ouled Assane",
    "region": "Bejaia",
    "short_region": "06",
    "lat": "36.321400",
    "lon": "4.434700"
  },
  {
    "id": "120176",
    "country": "DZ",
    "zipcode": "06026",
    "name": "Metchik",
    "region": "Bejaia",
    "short_region": "06",
    "lat": "36.321400",
    "lon": "4.434700"
  },
  {
    "id": "120177",
    "country": "DZ",
    "zipcode": "06026",
    "name": "Beni Ouihdane",
    "region": "Bejaia",
    "short_region": "06",
    "lat": "36.321400",
    "lon": "4.434700"
  },
  {
    "id": "120178",
    "country": "DZ",
    "zipcode": "06026",
    "name": "Beni Mansour",
    "region": "Bejaia",
    "short_region": "06",
    "lat": "36.321400",
    "lon": "4.434700"
  },
  {
    "id": "120179",
    "country": "DZ",
    "zipcode": "06027",
    "name": "Djerrah",
    "region": "Bejaia",
    "short_region": "06",
    "lat": "36.826900",
    "lon": "4.743100"
  },
  {
    "id": "120180",
    "country": "DZ",
    "zipcode": "06027",
    "name": "Abad",
    "region": "Bejaia",
    "short_region": "06",
    "lat": "36.826900",
    "lon": "4.743100"
  },
  {
    "id": "120181",
    "country": "DZ",
    "zipcode": "06027",
    "name": "Ait Mendil",
    "region": "Bejaia",
    "short_region": "06",
    "lat": "36.826900",
    "lon": "4.743100"
  },
  {
    "id": "120182",
    "country": "DZ",
    "zipcode": "06027",
    "name": "Takaba",
    "region": "Bejaia",
    "short_region": "06",
    "lat": "36.826900",
    "lon": "4.743100"
  },
  {
    "id": "120183",
    "country": "DZ",
    "zipcode": "06027",
    "name": "Mindjou",
    "region": "Bejaia",
    "short_region": "06",
    "lat": "36.864900",
    "lon": "4.761300"
  },
  {
    "id": "120184",
    "country": "DZ",
    "zipcode": "06027",
    "name": "Taguelmint",
    "region": "Bejaia",
    "short_region": "06",
    "lat": "36.826900",
    "lon": "4.743100"
  },
  {
    "id": "120185",
    "country": "DZ",
    "zipcode": "06027",
    "name": "Bezit",
    "region": "Bejaia",
    "short_region": "06",
    "lat": "36.812900",
    "lon": "4.721200"
  },
  {
    "id": "120186",
    "country": "DZ",
    "zipcode": "06027",
    "name": "Ighzer Abbes",
    "region": "Bejaia",
    "short_region": "06",
    "lat": "36.826900",
    "lon": "4.743100"
  },
  {
    "id": "120187",
    "country": "DZ",
    "zipcode": "06027",
    "name": "Tizi Ouair",
    "region": "Bejaia",
    "short_region": "06",
    "lat": "36.826900",
    "lon": "4.743100"
  },
  {
    "id": "120188",
    "country": "DZ",
    "zipcode": "06027",
    "name": "Tabouda",
    "region": "Bejaia",
    "short_region": "06",
    "lat": "36.826900",
    "lon": "4.743100"
  },
  {
    "id": "120189",
    "country": "DZ",
    "zipcode": "06027",
    "name": "Aguemoune Mahiou Bicher",
    "region": "Bejaia",
    "short_region": "06",
    "lat": "36.826900",
    "lon": "4.743100"
  },
  {
    "id": "120190",
    "country": "DZ",
    "zipcode": "06027",
    "name": "Amgradj",
    "region": "Bejaia",
    "short_region": "06",
    "lat": "36.826900",
    "lon": "4.743100"
  },
  {
    "id": "120191",
    "country": "DZ",
    "zipcode": "06027",
    "name": "Iharbienne",
    "region": "Bejaia",
    "short_region": "06",
    "lat": "36.826900",
    "lon": "4.743100"
  },
  {
    "id": "120192",
    "country": "DZ",
    "zipcode": "06027",
    "name": "Djeblaa",
    "region": "Bejaia",
    "short_region": "06",
    "lat": "36.802800",
    "lon": "4.746800"
  },
  {
    "id": "120193",
    "country": "DZ",
    "zipcode": "06028",
    "name": "Kelaa Ouadda",
    "region": "Bejaia",
    "short_region": "06",
    "lat": "36.650000",
    "lon": "4.666700"
  },
  {
    "id": "120194",
    "country": "DZ",
    "zipcode": "06028",
    "name": "Tasga",
    "region": "Bejaia",
    "short_region": "06",
    "lat": "36.616700",
    "lon": "4.750000"
  },
  {
    "id": "120195",
    "country": "DZ",
    "zipcode": "06028",
    "name": "Takamra",
    "region": "Bejaia",
    "short_region": "06",
    "lat": "36.684700",
    "lon": "4.658300"
  },
  {
    "id": "120196",
    "country": "DZ",
    "zipcode": "06028",
    "name": "Tifra",
    "region": "Bejaia",
    "short_region": "06",
    "lat": "36.666400",
    "lon": "4.697200"
  },
  {
    "id": "120197",
    "country": "DZ",
    "zipcode": "06028",
    "name": "Kelaa Oufella",
    "region": "Bejaia",
    "short_region": "06",
    "lat": "36.657000",
    "lon": "4.695300"
  },
  {
    "id": "120198",
    "country": "DZ",
    "zipcode": "06028",
    "name": "Timzid",
    "region": "Bejaia",
    "short_region": "06",
    "lat": "36.657000",
    "lon": "4.695300"
  },
  {
    "id": "120199",
    "country": "DZ",
    "zipcode": "06028",
    "name": "Tizamounie El Kelia",
    "region": "Bejaia",
    "short_region": "06",
    "lat": "36.657000",
    "lon": "4.695300"
  },
  {
    "id": "120200",
    "country": "DZ",
    "zipcode": "06028",
    "name": "Taourirt Amrouche",
    "region": "Bejaia",
    "short_region": "06",
    "lat": "36.657000",
    "lon": "4.695300"
  },
  {
    "id": "120201",
    "country": "DZ",
    "zipcode": "06028",
    "name": "Taourien Ou Aissa",
    "region": "Bejaia",
    "short_region": "06",
    "lat": "36.657000",
    "lon": "4.695300"
  },
  {
    "id": "120202",
    "country": "DZ",
    "zipcode": "06028",
    "name": "Sillal",
    "region": "Bejaia",
    "short_region": "06",
    "lat": "36.657000",
    "lon": "4.695300"
  },
  {
    "id": "120203",
    "country": "DZ",
    "zipcode": "06028",
    "name": "Laazibtifra",
    "region": "Bejaia",
    "short_region": "06",
    "lat": "36.657000",
    "lon": "4.695300"
  },
  {
    "id": "120204",
    "country": "DZ",
    "zipcode": "06028",
    "name": "Ighzer Chzrone",
    "region": "Bejaia",
    "short_region": "06",
    "lat": "36.657000",
    "lon": "4.695300"
  },
  {
    "id": "120205",
    "country": "DZ",
    "zipcode": "06028",
    "name": "Ibouraner",
    "region": "Bejaia",
    "short_region": "06",
    "lat": "36.657000",
    "lon": "4.695300"
  },
  {
    "id": "120206",
    "country": "DZ",
    "zipcode": "06028",
    "name": "Hamled",
    "region": "Bejaia",
    "short_region": "06",
    "lat": "36.657000",
    "lon": "4.695300"
  },
  {
    "id": "120207",
    "country": "DZ",
    "zipcode": "06028",
    "name": "Flea",
    "region": "Bejaia",
    "short_region": "06",
    "lat": "36.657000",
    "lon": "4.695300"
  },
  {
    "id": "120208",
    "country": "DZ",
    "zipcode": "06028",
    "name": "Fettala",
    "region": "Bejaia",
    "short_region": "06",
    "lat": "36.657000",
    "lon": "4.695300"
  },
  {
    "id": "120209",
    "country": "DZ",
    "zipcode": "06028",
    "name": "Ait Mahiou",
    "region": "Bejaia",
    "short_region": "06",
    "lat": "36.657000",
    "lon": "4.695300"
  },
  {
    "id": "120210",
    "country": "DZ",
    "zipcode": "06028",
    "name": "Ait Achour",
    "region": "Bejaia",
    "short_region": "06",
    "lat": "36.657000",
    "lon": "4.695300"
  },
  {
    "id": "120211",
    "country": "DZ",
    "zipcode": "06028",
    "name": "Agueni",
    "region": "Bejaia",
    "short_region": "06",
    "lat": "36.657000",
    "lon": "4.695300"
  },
  {
    "id": "120212",
    "country": "DZ",
    "zipcode": "06028",
    "name": "Tizi Tifra",
    "region": "Bejaia",
    "short_region": "06",
    "lat": "36.667500",
    "lon": "4.704400"
  },
  {
    "id": "120213",
    "country": "DZ",
    "zipcode": "06028",
    "name": "Izoughilamene",
    "region": "Bejaia",
    "short_region": "06",
    "lat": "36.657000",
    "lon": "4.695300"
  },
  {
    "id": "120214",
    "country": "DZ",
    "zipcode": "06029",
    "name": "Tablout",
    "region": "Bejaia",
    "short_region": "06",
    "lat": "36.653000",
    "lon": "4.967000"
  },
  {
    "id": "120215",
    "country": "DZ",
    "zipcode": "06029",
    "name": "Tamazeft",
    "region": "Bejaia",
    "short_region": "06",
    "lat": "36.653000",
    "lon": "4.967000"
  },
  {
    "id": "120216",
    "country": "DZ",
    "zipcode": "06029",
    "name": "Mezoulem",
    "region": "Bejaia",
    "short_region": "06",
    "lat": "36.653000",
    "lon": "4.967000"
  },
  {
    "id": "120217",
    "country": "DZ",
    "zipcode": "06029",
    "name": "Kiria",
    "region": "Bejaia",
    "short_region": "06",
    "lat": "36.653000",
    "lon": "4.967000"
  },
  {
    "id": "120218",
    "country": "DZ",
    "zipcode": "06029",
    "name": "Hanied",
    "region": "Bejaia",
    "short_region": "06",
    "lat": "36.653000",
    "lon": "4.967000"
  },
  {
    "id": "120219",
    "country": "DZ",
    "zipcode": "06029",
    "name": "Tabalout",
    "region": "Bejaia",
    "short_region": "06",
    "lat": "36.653000",
    "lon": "4.967000"
  },
  {
    "id": "120220",
    "country": "DZ",
    "zipcode": "06029",
    "name": "Arouled",
    "region": "Bejaia",
    "short_region": "06",
    "lat": "36.653000",
    "lon": "4.967000"
  },
  {
    "id": "120221",
    "country": "DZ",
    "zipcode": "06029",
    "name": "Ait Yahia",
    "region": "Bejaia",
    "short_region": "06",
    "lat": "36.653000",
    "lon": "4.967000"
  },
  {
    "id": "120222",
    "country": "DZ",
    "zipcode": "06029",
    "name": "Ait Malek",
    "region": "Bejaia",
    "short_region": "06",
    "lat": "36.653000",
    "lon": "4.967000"
  },
  {
    "id": "120223",
    "country": "DZ",
    "zipcode": "06029",
    "name": "Tazrout",
    "region": "Bejaia",
    "short_region": "06",
    "lat": "36.653000",
    "lon": "4.967000"
  },
  {
    "id": "120224",
    "country": "DZ",
    "zipcode": "06030",
    "name": "Ibaouchene",
    "region": "Bejaia",
    "short_region": "06",
    "lat": "36.755000",
    "lon": "4.907900"
  },
  {
    "id": "120225",
    "country": "DZ",
    "zipcode": "06030",
    "name": "Toudja",
    "region": "Bejaia",
    "short_region": "06",
    "lat": "36.746900",
    "lon": "4.872000"
  },
  {
    "id": "120226",
    "country": "DZ",
    "zipcode": "06030",
    "name": "Souk El Djemaa",
    "region": "Bejaia",
    "short_region": "06",
    "lat": "36.751000",
    "lon": "4.890000"
  },
  {
    "id": "120227",
    "country": "DZ",
    "zipcode": "06030",
    "name": "Ifrene",
    "region": "Bejaia",
    "short_region": "06",
    "lat": "36.751000",
    "lon": "4.890000"
  },
  {
    "id": "120228",
    "country": "DZ",
    "zipcode": "06030",
    "name": "El Ainseur",
    "region": "Bejaia",
    "short_region": "06",
    "lat": "36.751000",
    "lon": "4.890000"
  },
  {
    "id": "120229",
    "country": "DZ",
    "zipcode": "06031",
    "name": "El Khendek",
    "region": "Bejaia",
    "short_region": "06",
    "lat": "36.629900",
    "lon": "4.833000"
  },
  {
    "id": "120230",
    "country": "DZ",
    "zipcode": "06031",
    "name": "Iguemoumene",
    "region": "Bejaia",
    "short_region": "06",
    "lat": "36.629900",
    "lon": "4.833000"
  },
  {
    "id": "120231",
    "country": "DZ",
    "zipcode": "06031",
    "name": "Ifigha",
    "region": "Bejaia",
    "short_region": "06",
    "lat": "36.629900",
    "lon": "4.833000"
  },
  {
    "id": "120232",
    "country": "DZ",
    "zipcode": "06031",
    "name": "Semaa",
    "region": "Bejaia",
    "short_region": "06",
    "lat": "36.629900",
    "lon": "4.833000"
  },
  {
    "id": "120233",
    "country": "DZ",
    "zipcode": "06031",
    "name": "Taza",
    "region": "Bejaia",
    "short_region": "06",
    "lat": "36.629900",
    "lon": "4.833000"
  },
  {
    "id": "120234",
    "country": "DZ",
    "zipcode": "06031",
    "name": "Bouhamza",
    "region": "Bejaia",
    "short_region": "06",
    "lat": "36.629900",
    "lon": "4.833000"
  },
  {
    "id": "120235",
    "country": "DZ",
    "zipcode": "06031",
    "name": "Tamsaout",
    "region": "Bejaia",
    "short_region": "06",
    "lat": "36.629900",
    "lon": "4.833000"
  },
  {
    "id": "120236",
    "country": "DZ",
    "zipcode": "06031",
    "name": "Tachouaft",
    "region": "Bejaia",
    "short_region": "06",
    "lat": "36.629900",
    "lon": "4.833000"
  },
  {
    "id": "120237",
    "country": "DZ",
    "zipcode": "06032",
    "name": "Afroun",
    "region": "Bejaia",
    "short_region": "06",
    "lat": "36.653000",
    "lon": "4.967000"
  },
  {
    "id": "120238",
    "country": "DZ",
    "zipcode": "06032",
    "name": "Ait Taraa",
    "region": "Bejaia",
    "short_region": "06",
    "lat": "36.653000",
    "lon": "4.967000"
  },
  {
    "id": "120239",
    "country": "DZ",
    "zipcode": "06032",
    "name": "Aich Tichimar",
    "region": "Bejaia",
    "short_region": "06",
    "lat": "36.653000",
    "lon": "4.967000"
  },
  {
    "id": "120240",
    "country": "DZ",
    "zipcode": "06032",
    "name": "Kaba",
    "region": "Bejaia",
    "short_region": "06",
    "lat": "36.653000",
    "lon": "4.967000"
  },
  {
    "id": "120241",
    "country": "DZ",
    "zipcode": "06032",
    "name": "Guenanana Tizi Tindait",
    "region": "Bejaia",
    "short_region": "06",
    "lat": "36.653000",
    "lon": "4.967000"
  },
  {
    "id": "120242",
    "country": "DZ",
    "zipcode": "06032",
    "name": "Ighil Djemaa",
    "region": "Bejaia",
    "short_region": "06",
    "lat": "36.653000",
    "lon": "4.967000"
  },
  {
    "id": "120243",
    "country": "DZ",
    "zipcode": "06032",
    "name": "Ighil Hamemoune",
    "region": "Bejaia",
    "short_region": "06",
    "lat": "36.653000",
    "lon": "4.967000"
  },
  {
    "id": "120244",
    "country": "DZ",
    "zipcode": "06032",
    "name": "Ighil Harat",
    "region": "Bejaia",
    "short_region": "06",
    "lat": "36.653000",
    "lon": "4.967000"
  },
  {
    "id": "120245",
    "country": "DZ",
    "zipcode": "06032",
    "name": "Ighil Maloulene",
    "region": "Bejaia",
    "short_region": "06",
    "lat": "36.653000",
    "lon": "4.967000"
  },
  {
    "id": "120246",
    "country": "DZ",
    "zipcode": "06032",
    "name": "Ighil N'Zeka",
    "region": "Bejaia",
    "short_region": "06",
    "lat": "36.653000",
    "lon": "4.967000"
  },
  {
    "id": "120247",
    "country": "DZ",
    "zipcode": "06032",
    "name": "Ihabachene",
    "region": "Bejaia",
    "short_region": "06",
    "lat": "36.653000",
    "lon": "4.967000"
  },
  {
    "id": "120248",
    "country": "DZ",
    "zipcode": "06032",
    "name": "Kendira",
    "region": "Bejaia",
    "short_region": "06",
    "lat": "36.653000",
    "lon": "4.967000"
  },
  {
    "id": "120249",
    "country": "DZ",
    "zipcode": "06032",
    "name": "Tahamante",
    "region": "Bejaia",
    "short_region": "06",
    "lat": "36.653000",
    "lon": "4.967000"
  },
  {
    "id": "120250",
    "country": "DZ",
    "zipcode": "06032",
    "name": "Tahrkoupt",
    "region": "Bejaia",
    "short_region": "06",
    "lat": "36.653000",
    "lon": "4.967000"
  },
  {
    "id": "120251",
    "country": "DZ",
    "zipcode": "06032",
    "name": "Tala Ighalimene",
    "region": "Bejaia",
    "short_region": "06",
    "lat": "36.653000",
    "lon": "4.967000"
  },
  {
    "id": "120252",
    "country": "DZ",
    "zipcode": "06032",
    "name": "Tizi Tindjit",
    "region": "Bejaia",
    "short_region": "06",
    "lat": "36.653000",
    "lon": "4.967000"
  },
  {
    "id": "120253",
    "country": "DZ",
    "zipcode": "06032",
    "name": "Zoubai",
    "region": "Bejaia",
    "short_region": "06",
    "lat": "36.653000",
    "lon": "4.967000"
  },
  {
    "id": "120254",
    "country": "DZ",
    "zipcode": "06032",
    "name": "Tazrout",
    "region": "Bejaia",
    "short_region": "06",
    "lat": "36.653000",
    "lon": "4.967000"
  },
  {
    "id": "120255",
    "country": "DZ",
    "zipcode": "06033",
    "name": "Tifritine",
    "region": "Bejaia",
    "short_region": "06",
    "lat": "36.545700",
    "lon": "4.894100"
  },
  {
    "id": "120256",
    "country": "DZ",
    "zipcode": "06033",
    "name": "Tichi",
    "region": "Bejaia",
    "short_region": "06",
    "lat": "36.666700",
    "lon": "5.166700"
  },
  {
    "id": "120257",
    "country": "DZ",
    "zipcode": "06033",
    "name": "Tagma",
    "region": "Bejaia",
    "short_region": "06",
    "lat": "36.550000",
    "lon": "4.883300"
  },
  {
    "id": "120258",
    "country": "DZ",
    "zipcode": "06033",
    "name": "Tizi",
    "region": "Bejaia",
    "short_region": "06",
    "lat": "36.587400",
    "lon": "4.981400"
  },
  {
    "id": "120259",
    "country": "DZ",
    "zipcode": "06033",
    "name": "Ichkaben",
    "region": "Bejaia",
    "short_region": "06",
    "lat": "36.587400",
    "lon": "4.981400"
  },
  {
    "id": "120260",
    "country": "DZ",
    "zipcode": "06033",
    "name": "Iadnanene",
    "region": "Bejaia",
    "short_region": "06",
    "lat": "36.587400",
    "lon": "4.981400"
  },
  {
    "id": "120261",
    "country": "DZ",
    "zipcode": "06033",
    "name": "Feraoune",
    "region": "Bejaia",
    "short_region": "06",
    "lat": "36.587400",
    "lon": "4.981400"
  },
  {
    "id": "120262",
    "country": "DZ",
    "zipcode": "06033",
    "name": "Ait Ounir",
    "region": "Bejaia",
    "short_region": "06",
    "lat": "36.587400",
    "lon": "4.981400"
  },
  {
    "id": "120263",
    "country": "DZ",
    "zipcode": "06033",
    "name": "Akentas",
    "region": "Bejaia",
    "short_region": "06",
    "lat": "36.587400",
    "lon": "4.981400"
  },
  {
    "id": "120264",
    "country": "DZ",
    "zipcode": "06033",
    "name": "Ouadadja",
    "region": "Bejaia",
    "short_region": "06",
    "lat": "36.587400",
    "lon": "4.981400"
  },
  {
    "id": "120265",
    "country": "DZ",
    "zipcode": "06033",
    "name": "Iguer Guendouze",
    "region": "Bejaia",
    "short_region": "06",
    "lat": "36.587400",
    "lon": "4.981400"
  },
  {
    "id": "120266",
    "country": "DZ",
    "zipcode": "06033",
    "name": "Selouana",
    "region": "Bejaia",
    "short_region": "06",
    "lat": "36.587400",
    "lon": "4.981400"
  },
  {
    "id": "120267",
    "country": "DZ",
    "zipcode": "06034",
    "name": "Beziou",
    "region": "Bejaia",
    "short_region": "06",
    "lat": "36.514200",
    "lon": "4.739100"
  },
  {
    "id": "120268",
    "country": "DZ",
    "zipcode": "06034",
    "name": "Beni Djaad",
    "region": "Bejaia",
    "short_region": "06",
    "lat": "36.514200",
    "lon": "4.739100"
  },
  {
    "id": "120269",
    "country": "DZ",
    "zipcode": "06034",
    "name": "Issadounene",
    "region": "Bejaia",
    "short_region": "06",
    "lat": "36.514200",
    "lon": "4.739100"
  },
  {
    "id": "120270",
    "country": "DZ",
    "zipcode": "06034",
    "name": "Timesrirene",
    "region": "Bejaia",
    "short_region": "06",
    "lat": "36.514200",
    "lon": "4.739100"
  },
  {
    "id": "120271",
    "country": "DZ",
    "zipcode": "06034",
    "name": "Tizi Hemma",
    "region": "Bejaia",
    "short_region": "06",
    "lat": "36.514200",
    "lon": "4.739100"
  },
  {
    "id": "120272",
    "country": "DZ",
    "zipcode": "06034",
    "name": "Tizi Oukedem",
    "region": "Bejaia",
    "short_region": "06",
    "lat": "36.514200",
    "lon": "4.739100"
  },
  {
    "id": "120273",
    "country": "DZ",
    "zipcode": "06034",
    "name": "Taddert Ouadda",
    "region": "Bejaia",
    "short_region": "06",
    "lat": "36.514200",
    "lon": "4.739100"
  },
  {
    "id": "120274",
    "country": "DZ",
    "zipcode": "06034",
    "name": "Ikherbouchene",
    "region": "Bejaia",
    "short_region": "06",
    "lat": "36.514200",
    "lon": "4.739100"
  },
  {
    "id": "120275",
    "country": "DZ",
    "zipcode": "06034",
    "name": "Ighil Ntala",
    "region": "Bejaia",
    "short_region": "06",
    "lat": "36.514200",
    "lon": "4.739100"
  },
  {
    "id": "120276",
    "country": "DZ",
    "zipcode": "06034",
    "name": "Tarchouaft",
    "region": "Bejaia",
    "short_region": "06",
    "lat": "36.514200",
    "lon": "4.739100"
  },
  {
    "id": "120277",
    "country": "DZ",
    "zipcode": "06034",
    "name": "Ighil Igueni",
    "region": "Bejaia",
    "short_region": "06",
    "lat": "36.514200",
    "lon": "4.739100"
  },
  {
    "id": "120278",
    "country": "DZ",
    "zipcode": "06034",
    "name": "Boussehel",
    "region": "Bejaia",
    "short_region": "06",
    "lat": "36.514200",
    "lon": "4.739100"
  },
  {
    "id": "120279",
    "country": "DZ",
    "zipcode": "06034",
    "name": "Beni Djemhour",
    "region": "Bejaia",
    "short_region": "06",
    "lat": "36.514200",
    "lon": "4.739100"
  },
  {
    "id": "120280",
    "country": "DZ",
    "zipcode": "06034",
    "name": "Taourirt",
    "region": "Bejaia",
    "short_region": "06",
    "lat": "36.583300",
    "lon": "4.933300"
  },
  {
    "id": "120281",
    "country": "DZ",
    "zipcode": "06034",
    "name": "Akourma",
    "region": "Bejaia",
    "short_region": "06",
    "lat": "36.475900",
    "lon": "4.633900"
  },
  {
    "id": "120282",
    "country": "DZ",
    "zipcode": "06034",
    "name": "Amalou",
    "region": "Bejaia",
    "short_region": "06",
    "lat": "36.483300",
    "lon": "4.650000"
  },
  {
    "id": "120283",
    "country": "DZ",
    "zipcode": "06035",
    "name": "Iksilene",
    "region": "Bejaia",
    "short_region": "06",
    "lat": "36.720100",
    "lon": "4.755800"
  },
  {
    "id": "120284",
    "country": "DZ",
    "zipcode": "06035",
    "name": "Taourirt Ighil",
    "region": "Bejaia",
    "short_region": "06",
    "lat": "36.700000",
    "lon": "4.700000"
  },
  {
    "id": "120285",
    "country": "DZ",
    "zipcode": "06035",
    "name": "Taguemount El Mal",
    "region": "Bejaia",
    "short_region": "06",
    "lat": "36.710000",
    "lon": "4.727900"
  },
  {
    "id": "120286",
    "country": "DZ",
    "zipcode": "06035",
    "name": "Ait Seib",
    "region": "Bejaia",
    "short_region": "06",
    "lat": "36.710000",
    "lon": "4.727900"
  },
  {
    "id": "120287",
    "country": "DZ",
    "zipcode": "06035",
    "name": "Talaoughras",
    "region": "Bejaia",
    "short_region": "06",
    "lat": "36.710000",
    "lon": "4.727900"
  },
  {
    "id": "120288",
    "country": "DZ",
    "zipcode": "06035",
    "name": "Ait Adjirait Maamar",
    "region": "Bejaia",
    "short_region": "06",
    "lat": "36.710000",
    "lon": "4.727900"
  },
  {
    "id": "120289",
    "country": "DZ",
    "zipcode": "06035",
    "name": "Aguemoune",
    "region": "Bejaia",
    "short_region": "06",
    "lat": "36.710000",
    "lon": "4.727900"
  },
  {
    "id": "120290",
    "country": "DZ",
    "zipcode": "06035",
    "name": "Tizi El Korn",
    "region": "Bejaia",
    "short_region": "06",
    "lat": "36.710000",
    "lon": "4.727900"
  },
  {
    "id": "120291",
    "country": "DZ",
    "zipcode": "06035",
    "name": "L'Bor",
    "region": "Bejaia",
    "short_region": "06",
    "lat": "36.710000",
    "lon": "4.727900"
  },
  {
    "id": "120292",
    "country": "DZ",
    "zipcode": "06035",
    "name": "Grounia",
    "region": "Bejaia",
    "short_region": "06",
    "lat": "36.710000",
    "lon": "4.727900"
  },
  {
    "id": "120293",
    "country": "DZ",
    "zipcode": "06035",
    "name": "Ait Sidi Seid",
    "region": "Bejaia",
    "short_region": "06",
    "lat": "36.710000",
    "lon": "4.727900"
  },
  {
    "id": "120294",
    "country": "DZ",
    "zipcode": "06036",
    "name": "Tagherast",
    "region": "Bejaia",
    "short_region": "06",
    "lat": "36.629900",
    "lon": "4.833000"
  },
  {
    "id": "120295",
    "country": "DZ",
    "zipcode": "06036",
    "name": "Tidjounane",
    "region": "Bejaia",
    "short_region": "06",
    "lat": "36.629900",
    "lon": "4.833000"
  },
  {
    "id": "120296",
    "country": "DZ",
    "zipcode": "06036",
    "name": "Tijounane",
    "region": "Bejaia",
    "short_region": "06",
    "lat": "36.629900",
    "lon": "4.833000"
  },
  {
    "id": "120297",
    "country": "DZ",
    "zipcode": "06036",
    "name": "Takrietz",
    "region": "Bejaia",
    "short_region": "06",
    "lat": "36.629900",
    "lon": "4.833000"
  },
  {
    "id": "120298",
    "country": "DZ",
    "zipcode": "06037",
    "name": "Tala Ouzrou",
    "region": "Bejaia",
    "short_region": "06",
    "lat": "36.654300",
    "lon": "4.732200"
  },
  {
    "id": "120299",
    "country": "DZ",
    "zipcode": "06037",
    "name": "Birmatou",
    "region": "Bejaia",
    "short_region": "06",
    "lat": "36.654300",
    "lon": "4.732200"
  },
  {
    "id": "120300",
    "country": "DZ",
    "zipcode": "06037",
    "name": "Chebirdou",
    "region": "Bejaia",
    "short_region": "06",
    "lat": "36.654300",
    "lon": "4.732200"
  },
  {
    "id": "120301",
    "country": "DZ",
    "zipcode": "06037",
    "name": "Dadekant",
    "region": "Bejaia",
    "short_region": "06",
    "lat": "36.654300",
    "lon": "4.732200"
  },
  {
    "id": "120302",
    "country": "DZ",
    "zipcode": "06037",
    "name": "Ighoulad Laalam",
    "region": "Bejaia",
    "short_region": "06",
    "lat": "36.654300",
    "lon": "4.732200"
  },
  {
    "id": "120303",
    "country": "DZ",
    "zipcode": "06037",
    "name": "Iguer Amar",
    "region": "Bejaia",
    "short_region": "06",
    "lat": "36.654300",
    "lon": "4.732200"
  },
  {
    "id": "120304",
    "country": "DZ",
    "zipcode": "06037",
    "name": "Ikhliadjene",
    "region": "Bejaia",
    "short_region": "06",
    "lat": "36.654300",
    "lon": "4.732200"
  },
  {
    "id": "120305",
    "country": "DZ",
    "zipcode": "06037",
    "name": "Irinflene",
    "region": "Bejaia",
    "short_region": "06",
    "lat": "36.654300",
    "lon": "4.732200"
  },
  {
    "id": "120306",
    "country": "DZ",
    "zipcode": "06037",
    "name": "Lacite",
    "region": "Bejaia",
    "short_region": "06",
    "lat": "36.654300",
    "lon": "4.732200"
  },
  {
    "id": "120307",
    "country": "DZ",
    "zipcode": "06037",
    "name": "Tala Taghout",
    "region": "Bejaia",
    "short_region": "06",
    "lat": "36.654300",
    "lon": "4.732200"
  },
  {
    "id": "120308",
    "country": "DZ",
    "zipcode": "06037",
    "name": "Tinebdar",
    "region": "Bejaia",
    "short_region": "06",
    "lat": "36.625300",
    "lon": "4.681000"
  },
  {
    "id": "120309",
    "country": "DZ",
    "zipcode": "06037",
    "name": "Tighilt",
    "region": "Bejaia",
    "short_region": "06",
    "lat": "36.683300",
    "lon": "4.783300"
  },
  {
    "id": "120310",
    "country": "DZ",
    "zipcode": "06038",
    "name": "Sidi Said",
    "region": "Bejaia",
    "short_region": "06",
    "lat": "36.629900",
    "lon": "4.833000"
  },
  {
    "id": "120311",
    "country": "DZ",
    "zipcode": "06039",
    "name": "Beni Melikeche",
    "region": "Bejaia",
    "short_region": "06",
    "lat": "36.629900",
    "lon": "4.833000"
  },
  {
    "id": "120312",
    "country": "DZ",
    "zipcode": "06040",
    "name": "Bejaia Sidi Ahmed",
    "region": "Bejaia",
    "short_region": "06",
    "lat": "36.611800",
    "lon": "4.790200"
  },
  {
    "id": "120313",
    "country": "DZ",
    "zipcode": "06041",
    "name": "Village Agricole",
    "region": "Bejaia",
    "short_region": "06",
    "lat": "36.650000",
    "lon": "4.773600"
  },
  {
    "id": "120314",
    "country": "DZ",
    "zipcode": "06041",
    "name": "Idraken",
    "region": "Bejaia",
    "short_region": "06",
    "lat": "36.650000",
    "lon": "4.773600"
  },
  {
    "id": "120315",
    "country": "DZ",
    "zipcode": "06041",
    "name": "Zaouia",
    "region": "Bejaia",
    "short_region": "06",
    "lat": "36.650000",
    "lon": "4.773600"
  },
  {
    "id": "120316",
    "country": "DZ",
    "zipcode": "06041",
    "name": "Ifelain Il Matten",
    "region": "Bejaia",
    "short_region": "06",
    "lat": "36.650000",
    "lon": "4.773600"
  },
  {
    "id": "120317",
    "country": "DZ",
    "zipcode": "06041",
    "name": "Aghamras",
    "region": "Bejaia",
    "short_region": "06",
    "lat": "36.650000",
    "lon": "4.773600"
  },
  {
    "id": "120318",
    "country": "DZ",
    "zipcode": "06041",
    "name": "Ighil Yeddou",
    "region": "Bejaia",
    "short_region": "06",
    "lat": "36.650000",
    "lon": "4.773600"
  },
  {
    "id": "120319",
    "country": "DZ",
    "zipcode": "06041",
    "name": "Remila",
    "region": "Bejaia",
    "short_region": "06",
    "lat": "36.650000",
    "lon": "4.773600"
  },
  {
    "id": "120320",
    "country": "DZ",
    "zipcode": "06041",
    "name": "Il Matten",
    "region": "Bejaia",
    "short_region": "06",
    "lat": "36.650000",
    "lon": "4.773600"
  },
  {
    "id": "120321",
    "country": "DZ",
    "zipcode": "06042",
    "name": "Ayaden",
    "region": "Bejaia",
    "short_region": "06",
    "lat": "36.583300",
    "lon": "4.933300"
  },
  {
    "id": "120322",
    "country": "DZ",
    "zipcode": "06042",
    "name": "Taourirt",
    "region": "Bejaia",
    "short_region": "06",
    "lat": "36.583300",
    "lon": "4.933300"
  },
  {
    "id": "120323",
    "country": "DZ",
    "zipcode": "06042",
    "name": "Tiliouacadi",
    "region": "Bejaia",
    "short_region": "06",
    "lat": "36.583300",
    "lon": "4.933300"
  },
  {
    "id": "120324",
    "country": "DZ",
    "zipcode": "06042",
    "name": "Souk Oufella",
    "region": "Bejaia",
    "short_region": "06",
    "lat": "36.583300",
    "lon": "4.933300"
  },
  {
    "id": "120325",
    "country": "DZ",
    "zipcode": "06043",
    "name": "El Flaye",
    "region": "Bejaia",
    "short_region": "06",
    "lat": "36.602100",
    "lon": "4.663600"
  },
  {
    "id": "120326",
    "country": "DZ",
    "zipcode": "06044",
    "name": "Aghdir",
    "region": "Bejaia",
    "short_region": "06",
    "lat": "36.611800",
    "lon": "4.790200"
  },
  {
    "id": "120327",
    "country": "DZ",
    "zipcode": "06044",
    "name": "Teregregt",
    "region": "Bejaia",
    "short_region": "06",
    "lat": "36.611800",
    "lon": "4.790200"
  },
  {
    "id": "120328",
    "country": "DZ",
    "zipcode": "06044",
    "name": "Talata",
    "region": "Bejaia",
    "short_region": "06",
    "lat": "36.611800",
    "lon": "4.790200"
  },
  {
    "id": "120329",
    "country": "DZ",
    "zipcode": "06045",
    "name": "Djemaa",
    "region": "Bejaia",
    "short_region": "06",
    "lat": "36.611800",
    "lon": "4.790200"
  },
  {
    "id": "120330",
    "country": "DZ",
    "zipcode": "06046",
    "name": "Boukhiama",
    "region": "Bejaia",
    "short_region": "06",
    "lat": "36.611800",
    "lon": "4.790200"
  },
  {
    "id": "120331",
    "country": "DZ",
    "zipcode": "06047",
    "name": "Amtik N'Tafat",
    "region": "Bejaia",
    "short_region": "06",
    "lat": "36.611800",
    "lon": "4.790200"
  },
  {
    "id": "120332",
    "country": "DZ",
    "zipcode": "06048",
    "name": "Taslent",
    "region": "Bejaia",
    "short_region": "06",
    "lat": "36.611800",
    "lon": "4.790200"
  },
  {
    "id": "120333",
    "country": "DZ",
    "zipcode": "06049",
    "name": "Bouhitem",
    "region": "Bejaia",
    "short_region": "06",
    "lat": "36.611800",
    "lon": "4.790200"
  },
  {
    "id": "120334",
    "country": "DZ",
    "zipcode": "06050",
    "name": "Guendouza",
    "region": "Bejaia",
    "short_region": "06",
    "lat": "36.500800",
    "lon": "4.806600"
  },
  {
    "id": "120335",
    "country": "DZ",
    "zipcode": "06051",
    "name": "Ouled Allouane",
    "region": "Bejaia",
    "short_region": "06",
    "lat": "36.500800",
    "lon": "4.806600"
  },
  {
    "id": "120336",
    "country": "DZ",
    "zipcode": "06052",
    "name": "Chellata",
    "region": "Bejaia",
    "short_region": "06",
    "lat": "36.500800",
    "lon": "4.806600"
  },
  {
    "id": "120337",
    "country": "DZ",
    "zipcode": "06053",
    "name": "Bicher",
    "region": "Bejaia",
    "short_region": "06",
    "lat": "36.393000",
    "lon": "4.635700"
  },
  {
    "id": "120338",
    "country": "DZ",
    "zipcode": "06054",
    "name": "Belayel",
    "region": "Bejaia",
    "short_region": "06",
    "lat": "36.500800",
    "lon": "4.806600"
  },
  {
    "id": "120339",
    "country": "DZ",
    "zipcode": "06055",
    "name": "Tizi Alouane",
    "region": "Bejaia",
    "short_region": "06",
    "lat": "36.500800",
    "lon": "4.806600"
  },
  {
    "id": "120340",
    "country": "DZ",
    "zipcode": "06056",
    "name": "Beni Ouamar",
    "region": "Bejaia",
    "short_region": "06",
    "lat": "36.500800",
    "lon": "4.806600"
  },
  {
    "id": "120341",
    "country": "DZ",
    "zipcode": "06057",
    "name": "Ighram",
    "region": "Bejaia",
    "short_region": "06",
    "lat": "36.500800",
    "lon": "4.806600"
  },
  {
    "id": "120342",
    "country": "DZ",
    "zipcode": "06057",
    "name": "Taslent",
    "region": "Bejaia",
    "short_region": "06",
    "lat": "36.500800",
    "lon": "4.806600"
  },
  {
    "id": "120343",
    "country": "DZ",
    "zipcode": "06057",
    "name": "Ircene",
    "region": "Bejaia",
    "short_region": "06",
    "lat": "36.500800",
    "lon": "4.806600"
  },
  {
    "id": "120344",
    "country": "DZ",
    "zipcode": "06057",
    "name": "Azib Oulahdir",
    "region": "Bejaia",
    "short_region": "06",
    "lat": "36.500800",
    "lon": "4.806600"
  },
  {
    "id": "120345",
    "country": "DZ",
    "zipcode": "06057",
    "name": "Ighil Nacer",
    "region": "Bejaia",
    "short_region": "06",
    "lat": "36.500800",
    "lon": "4.806600"
  },
  {
    "id": "120346",
    "country": "DZ",
    "zipcode": "06058",
    "name": "Ighil Lounis",
    "region": "Bejaia",
    "short_region": "06",
    "lat": "36.500800",
    "lon": "4.806600"
  },
  {
    "id": "120347",
    "country": "DZ",
    "zipcode": "06058",
    "name": "Tifernine",
    "region": "Bejaia",
    "short_region": "06",
    "lat": "36.500800",
    "lon": "4.806600"
  },
  {
    "id": "120348",
    "country": "DZ",
    "zipcode": "06058",
    "name": "Ifalene",
    "region": "Bejaia",
    "short_region": "06",
    "lat": "36.500800",
    "lon": "4.806600"
  },
  {
    "id": "120349",
    "country": "DZ",
    "zipcode": "06059",
    "name": "Taguemount",
    "region": "Bejaia",
    "short_region": "06",
    "lat": "36.608600",
    "lon": "4.977400"
  },
  {
    "id": "120350",
    "country": "DZ",
    "zipcode": "06060",
    "name": "Tazrout",
    "region": "Bejaia",
    "short_region": "06",
    "lat": "36.653000",
    "lon": "4.967000"
  },
  {
    "id": "120351",
    "country": "DZ",
    "zipcode": "06060",
    "name": "Adrar Ainan",
    "region": "Bejaia",
    "short_region": "06",
    "lat": "36.653000",
    "lon": "4.967000"
  },
  {
    "id": "120352",
    "country": "DZ",
    "zipcode": "06060",
    "name": "Iouricine",
    "region": "Bejaia",
    "short_region": "06",
    "lat": "36.653000",
    "lon": "4.967000"
  },
  {
    "id": "120353",
    "country": "DZ",
    "zipcode": "06060",
    "name": "Medkour",
    "region": "Bejaia",
    "short_region": "06",
    "lat": "36.653000",
    "lon": "4.967000"
  },
  {
    "id": "120354",
    "country": "DZ",
    "zipcode": "06060",
    "name": "Ailouise",
    "region": "Bejaia",
    "short_region": "06",
    "lat": "36.653000",
    "lon": "4.967000"
  },
  {
    "id": "120355",
    "country": "DZ",
    "zipcode": "06060",
    "name": "Tizi N'Berber",
    "region": "Bejaia",
    "short_region": "06",
    "lat": "36.653000",
    "lon": "4.967000"
  },
  {
    "id": "120356",
    "country": "DZ",
    "zipcode": "06060",
    "name": "Imdane",
    "region": "Bejaia",
    "short_region": "06",
    "lat": "36.653000",
    "lon": "4.967000"
  },
  {
    "id": "120357",
    "country": "DZ",
    "zipcode": "06060",
    "name": "Bourbia",
    "region": "Bejaia",
    "short_region": "06",
    "lat": "36.653000",
    "lon": "4.967000"
  },
  {
    "id": "120358",
    "country": "DZ",
    "zipcode": "06061",
    "name": "Akkar",
    "region": "Bejaia",
    "short_region": "06",
    "lat": "36.682300",
    "lon": "4.990200"
  },
  {
    "id": "120359",
    "country": "DZ",
    "zipcode": "06062",
    "name": "Mellala",
    "region": "Bejaia",
    "short_region": "06",
    "lat": "36.711600",
    "lon": "5.013500"
  },
  {
    "id": "120360",
    "country": "DZ",
    "zipcode": "06063",
    "name": "Ighil Oumced",
    "region": "Bejaia",
    "short_region": "06",
    "lat": "36.682300",
    "lon": "4.990200"
  },
  {
    "id": "120361",
    "country": "DZ",
    "zipcode": "06064",
    "name": "Ighil Ouantar",
    "region": "Bejaia",
    "short_region": "06",
    "lat": "36.682300",
    "lon": "4.990200"
  },
  {
    "id": "120362",
    "country": "DZ",
    "zipcode": "06065",
    "name": "Tizi Ouaklane",
    "region": "Bejaia",
    "short_region": "06",
    "lat": "36.682300",
    "lon": "4.990200"
  },
  {
    "id": "120363",
    "country": "DZ",
    "zipcode": "06066",
    "name": "Tala Hamza",
    "region": "Bejaia",
    "short_region": "06",
    "lat": "36.682300",
    "lon": "4.990200"
  },
  {
    "id": "120364",
    "country": "DZ",
    "zipcode": "06067",
    "name": "Ait S'Kheur",
    "region": "Bejaia",
    "short_region": "06",
    "lat": "36.682300",
    "lon": "4.990200"
  },
  {
    "id": "120365",
    "country": "DZ",
    "zipcode": "06068",
    "name": "Ayacha",
    "region": "Bejaia",
    "short_region": "06",
    "lat": "36.682300",
    "lon": "4.990200"
  },
  {
    "id": "120366",
    "country": "DZ",
    "zipcode": "06069",
    "name": "Ighil Nasser",
    "region": "Bejaia",
    "short_region": "06",
    "lat": "36.682300",
    "lon": "4.990200"
  },
  {
    "id": "120367",
    "country": "DZ",
    "zipcode": "06070",
    "name": "Berzakh",
    "region": "Bejaia",
    "short_region": "06",
    "lat": "36.479600",
    "lon": "4.679700"
  },
  {
    "id": "120368",
    "country": "DZ",
    "zipcode": "06071",
    "name": "Achlouf",
    "region": "Bejaia",
    "short_region": "06",
    "lat": "36.479600",
    "lon": "4.679700"
  },
  {
    "id": "120369",
    "country": "DZ",
    "zipcode": "06072",
    "name": "Takaatz",
    "region": "Bejaia",
    "short_region": "06",
    "lat": "36.479600",
    "lon": "4.679700"
  },
  {
    "id": "120370",
    "country": "DZ",
    "zipcode": "06073",
    "name": "Mahfouda",
    "region": "Bejaia",
    "short_region": "06",
    "lat": "36.438700",
    "lon": "4.654100"
  },
  {
    "id": "120371",
    "country": "DZ",
    "zipcode": "06074",
    "name": "Draa Kaid",
    "region": "Bejaia",
    "short_region": "06",
    "lat": "36.479600",
    "lon": "4.679700"
  },
  {
    "id": "120372",
    "country": "DZ",
    "zipcode": "06074",
    "name": "Maida",
    "region": "Bejaia",
    "short_region": "06",
    "lat": "36.479600",
    "lon": "4.679700"
  },
  {
    "id": "120373",
    "country": "DZ",
    "zipcode": "06074",
    "name": "Adjioun",
    "region": "Bejaia",
    "short_region": "06",
    "lat": "36.479600",
    "lon": "4.679700"
  },
  {
    "id": "120374",
    "country": "DZ",
    "zipcode": "06074",
    "name": "Azagaar",
    "region": "Bejaia",
    "short_region": "06",
    "lat": "36.479600",
    "lon": "4.679700"
  },
  {
    "id": "120375",
    "country": "DZ",
    "zipcode": "06074",
    "name": "Eramamine",
    "region": "Bejaia",
    "short_region": "06",
    "lat": "36.479600",
    "lon": "4.679700"
  },
  {
    "id": "120376",
    "country": "DZ",
    "zipcode": "06075",
    "name": "Ouled Saada",
    "region": "Bejaia",
    "short_region": "06",
    "lat": "36.479600",
    "lon": "4.679700"
  },
  {
    "id": "120377",
    "country": "DZ",
    "zipcode": "06075",
    "name": "Dradra",
    "region": "Bejaia",
    "short_region": "06",
    "lat": "36.479600",
    "lon": "4.679700"
  },
  {
    "id": "120378",
    "country": "DZ",
    "zipcode": "06075",
    "name": "Bouzougla",
    "region": "Bejaia",
    "short_region": "06",
    "lat": "36.479600",
    "lon": "4.679700"
  },
  {
    "id": "120379",
    "country": "DZ",
    "zipcode": "06076",
    "name": "El Djorf",
    "region": "Bejaia",
    "short_region": "06",
    "lat": "36.479600",
    "lon": "4.679700"
  },
  {
    "id": "120380",
    "country": "DZ",
    "zipcode": "06077",
    "name": "El Alem",
    "region": "Bejaia",
    "short_region": "06",
    "lat": "36.479600",
    "lon": "4.679700"
  },
  {
    "id": "120381",
    "country": "DZ",
    "zipcode": "06078",
    "name": "Ait Idriss",
    "region": "Bejaia",
    "short_region": "06",
    "lat": "36.479600",
    "lon": "4.679700"
  },
  {
    "id": "120382",
    "country": "DZ",
    "zipcode": "06079",
    "name": "Tibouamouchine",
    "region": "Bejaia",
    "short_region": "06",
    "lat": "36.520500",
    "lon": "4.705400"
  },
  {
    "id": "120383",
    "country": "DZ",
    "zipcode": "06080",
    "name": "Ait Smail",
    "region": "Bejaia",
    "short_region": "06",
    "lat": "36.733300",
    "lon": "4.850000"
  },
  {
    "id": "120384",
    "country": "DZ",
    "zipcode": "06080",
    "name": "Tizoual",
    "region": "Bejaia",
    "short_region": "06",
    "lat": "36.733300",
    "lon": "4.850000"
  },
  {
    "id": "120385",
    "country": "DZ",
    "zipcode": "06081",
    "name": "Ait Adjissa",
    "region": "Bejaia",
    "short_region": "06",
    "lat": "36.728600",
    "lon": "4.958900"
  },
  {
    "id": "120386",
    "country": "DZ",
    "zipcode": "06081",
    "name": "Amagroud",
    "region": "Bejaia",
    "short_region": "06",
    "lat": "36.728600",
    "lon": "4.958900"
  },
  {
    "id": "120387",
    "country": "DZ",
    "zipcode": "06081",
    "name": "Tixarine",
    "region": "Bejaia",
    "short_region": "06",
    "lat": "36.728600",
    "lon": "4.958900"
  },
  {
    "id": "120388",
    "country": "DZ",
    "zipcode": "06081",
    "name": "Taazibt",
    "region": "Bejaia",
    "short_region": "06",
    "lat": "36.728600",
    "lon": "4.958900"
  },
  {
    "id": "120389",
    "country": "DZ",
    "zipcode": "06082",
    "name": "Ighil N'Sebt",
    "region": "Bejaia",
    "short_region": "06",
    "lat": "36.663700",
    "lon": "4.874300"
  },
  {
    "id": "120390",
    "country": "DZ",
    "zipcode": "06083",
    "name": "Ighil Outouaf",
    "region": "Bejaia",
    "short_region": "06",
    "lat": "36.663700",
    "lon": "4.874300"
  },
  {
    "id": "120391",
    "country": "DZ",
    "zipcode": "06084",
    "name": "Semaoune Chemini",
    "region": "Bejaia",
    "short_region": "06",
    "lat": "36.663700",
    "lon": "4.874300"
  },
  {
    "id": "120392",
    "country": "DZ",
    "zipcode": "06085",
    "name": "Sidi Ayad",
    "region": "Bejaia",
    "short_region": "06",
    "lat": "36.663700",
    "lon": "4.874300"
  },
  {
    "id": "120393",
    "country": "DZ",
    "zipcode": "06086",
    "name": "Tighilt Messaoud",
    "region": "Bejaia",
    "short_region": "06",
    "lat": "36.688900",
    "lon": "4.772200"
  },
  {
    "id": "120394",
    "country": "DZ",
    "zipcode": "06086",
    "name": "Tala Tazert",
    "region": "Bejaia",
    "short_region": "06",
    "lat": "36.688900",
    "lon": "4.772200"
  },
  {
    "id": "120395",
    "country": "DZ",
    "zipcode": "06086",
    "name": "Ait Cheni",
    "region": "Bejaia",
    "short_region": "06",
    "lat": "36.688900",
    "lon": "4.772200"
  },
  {
    "id": "120396",
    "country": "DZ",
    "zipcode": "06086",
    "name": "El Kitoun",
    "region": "Bejaia",
    "short_region": "06",
    "lat": "36.688900",
    "lon": "4.772200"
  },
  {
    "id": "120397",
    "country": "DZ",
    "zipcode": "06086",
    "name": "Rekada",
    "region": "Bejaia",
    "short_region": "06",
    "lat": "36.688900",
    "lon": "4.772200"
  },
  {
    "id": "120398",
    "country": "DZ",
    "zipcode": "06086",
    "name": "Taghilt Messaoud",
    "region": "Bejaia",
    "short_region": "06",
    "lat": "36.688900",
    "lon": "4.772200"
  },
  {
    "id": "120399",
    "country": "DZ",
    "zipcode": "06086",
    "name": "Takhlicht",
    "region": "Bejaia",
    "short_region": "06",
    "lat": "36.833300",
    "lon": "4.716700"
  },
  {
    "id": "120400",
    "country": "DZ",
    "zipcode": "06086",
    "name": "El Kelaa",
    "region": "Bejaia",
    "short_region": "06",
    "lat": "36.650000",
    "lon": "4.666700"
  },
  {
    "id": "120401",
    "country": "DZ",
    "zipcode": "06086",
    "name": "Taourirt",
    "region": "Bejaia",
    "short_region": "06",
    "lat": "36.583300",
    "lon": "4.933300"
  },
  {
    "id": "120402",
    "country": "DZ",
    "zipcode": "06087",
    "name": "Takorabt",
    "region": "Bejaia",
    "short_region": "06",
    "lat": "36.591800",
    "lon": "4.835400"
  },
  {
    "id": "120403",
    "country": "DZ",
    "zipcode": "06087",
    "name": "Tighilt",
    "region": "Bejaia",
    "short_region": "06",
    "lat": "36.683300",
    "lon": "4.783300"
  },
  {
    "id": "120404",
    "country": "DZ",
    "zipcode": "06087",
    "name": "Taourirt",
    "region": "Bejaia",
    "short_region": "06",
    "lat": "36.583300",
    "lon": "4.933300"
  },
  {
    "id": "120405",
    "country": "DZ",
    "zipcode": "06087",
    "name": "Merzoug",
    "region": "Bejaia",
    "short_region": "06",
    "lat": "36.586300",
    "lon": "5.191300"
  },
  {
    "id": "120406",
    "country": "DZ",
    "zipcode": "06087",
    "name": "Tizi",
    "region": "Bejaia",
    "short_region": "06",
    "lat": "36.611200",
    "lon": "4.935800"
  },
  {
    "id": "120407",
    "country": "DZ",
    "zipcode": "06087",
    "name": "Maxene",
    "region": "Bejaia",
    "short_region": "06",
    "lat": "36.611200",
    "lon": "4.935800"
  },
  {
    "id": "120408",
    "country": "DZ",
    "zipcode": "06087",
    "name": "Ait Oubelaid",
    "region": "Bejaia",
    "short_region": "06",
    "lat": "36.611200",
    "lon": "4.935800"
  },
  {
    "id": "120409",
    "country": "DZ",
    "zipcode": "06087",
    "name": "Tibane",
    "region": "Bejaia",
    "short_region": "06",
    "lat": "36.611200",
    "lon": "4.935800"
  },
  {
    "id": "120410",
    "country": "DZ",
    "zipcode": "06087",
    "name": "Ait Chetla",
    "region": "Bejaia",
    "short_region": "06",
    "lat": "36.611200",
    "lon": "4.935800"
  },
  {
    "id": "120411",
    "country": "DZ",
    "zipcode": "06088",
    "name": "Il Matten Hopital",
    "region": "Bejaia",
    "short_region": "06",
    "lat": "36.663700",
    "lon": "4.874300"
  },
  {
    "id": "120412",
    "country": "DZ",
    "zipcode": "06089",
    "name": "Ikedjane",
    "region": "Bejaia",
    "short_region": "06",
    "lat": "36.663700",
    "lon": "4.874300"
  },
  {
    "id": "120413",
    "country": "DZ",
    "zipcode": "06090",
    "name": "Tamricht",
    "region": "Bejaia",
    "short_region": "06",
    "lat": "36.562700",
    "lon": "5.363100"
  },
  {
    "id": "120414",
    "country": "DZ",
    "zipcode": "06091",
    "name": "Boukhalfa",
    "region": "Bejaia",
    "short_region": "06",
    "lat": "36.645600",
    "lon": "4.892200"
  },
  {
    "id": "120415",
    "country": "DZ",
    "zipcode": "06092",
    "name": "Tagma",
    "region": "Bejaia",
    "short_region": "06",
    "lat": "36.600000",
    "lon": "4.983300"
  },
  {
    "id": "120416",
    "country": "DZ",
    "zipcode": "06092",
    "name": "Aourir",
    "region": "Bejaia",
    "short_region": "06",
    "lat": "36.347800",
    "lon": "4.689400"
  },
  {
    "id": "120417",
    "country": "DZ",
    "zipcode": "06092",
    "name": "Taourirt",
    "region": "Bejaia",
    "short_region": "06",
    "lat": "36.583300",
    "lon": "4.933300"
  },
  {
    "id": "120418",
    "country": "DZ",
    "zipcode": "06092",
    "name": "Iaaricherce",
    "region": "Bejaia",
    "short_region": "06",
    "lat": "36.510400",
    "lon": "4.868700"
  },
  {
    "id": "120419",
    "country": "DZ",
    "zipcode": "06092",
    "name": "Tala Ougreau",
    "region": "Bejaia",
    "short_region": "06",
    "lat": "36.510400",
    "lon": "4.868700"
  },
  {
    "id": "120420",
    "country": "DZ",
    "zipcode": "06092",
    "name": "Ikherbane",
    "region": "Bejaia",
    "short_region": "06",
    "lat": "36.510400",
    "lon": "4.868700"
  },
  {
    "id": "120421",
    "country": "DZ",
    "zipcode": "06092",
    "name": "Ikerbane",
    "region": "Bejaia",
    "short_region": "06",
    "lat": "36.510400",
    "lon": "4.868700"
  },
  {
    "id": "120422",
    "country": "DZ",
    "zipcode": "06092",
    "name": "Idjedarene",
    "region": "Bejaia",
    "short_region": "06",
    "lat": "36.510400",
    "lon": "4.868700"
  },
  {
    "id": "120423",
    "country": "DZ",
    "zipcode": "06092",
    "name": "Tizi Nedjbar",
    "region": "Bejaia",
    "short_region": "06",
    "lat": "36.510400",
    "lon": "4.868700"
  },
  {
    "id": "120424",
    "country": "DZ",
    "zipcode": "06092",
    "name": "Bounain",
    "region": "Bejaia",
    "short_region": "06",
    "lat": "36.510400",
    "lon": "4.868700"
  },
  {
    "id": "120425",
    "country": "DZ",
    "zipcode": "06092",
    "name": "Aghbala",
    "region": "Bejaia",
    "short_region": "06",
    "lat": "36.510400",
    "lon": "4.868700"
  },
  {
    "id": "120426",
    "country": "DZ",
    "zipcode": "06092",
    "name": "Tala Djoudi",
    "region": "Bejaia",
    "short_region": "06",
    "lat": "36.510400",
    "lon": "4.868700"
  },
  {
    "id": "120427",
    "country": "DZ",
    "zipcode": "06092",
    "name": "Tourkine",
    "region": "Bejaia",
    "short_region": "06",
    "lat": "36.510400",
    "lon": "4.868700"
  },
  {
    "id": "120428",
    "country": "DZ",
    "zipcode": "06092",
    "name": "Tiguemounine",
    "region": "Bejaia",
    "short_region": "06",
    "lat": "36.510400",
    "lon": "4.868700"
  },
  {
    "id": "120429",
    "country": "DZ",
    "zipcode": "06092",
    "name": "Tighzert",
    "region": "Bejaia",
    "short_region": "06",
    "lat": "36.510400",
    "lon": "4.868700"
  },
  {
    "id": "120430",
    "country": "DZ",
    "zipcode": "06093",
    "name": "Aourir Adjissa",
    "region": "Bejaia",
    "short_region": "06",
    "lat": "36.623300",
    "lon": "4.935300"
  },
  {
    "id": "120431",
    "country": "DZ",
    "zipcode": "06094",
    "name": "Ait Youcef",
    "region": "Bejaia",
    "short_region": "06",
    "lat": "36.739800",
    "lon": "4.884600"
  },
  {
    "id": "120432",
    "country": "DZ",
    "zipcode": "06094",
    "name": "Slim",
    "region": "Bejaia",
    "short_region": "06",
    "lat": "36.739800",
    "lon": "4.884600"
  },
  {
    "id": "120433",
    "country": "DZ",
    "zipcode": "06094",
    "name": "Aguemoune",
    "region": "Bejaia",
    "short_region": "06",
    "lat": "36.739800",
    "lon": "4.884600"
  },
  {
    "id": "120434",
    "country": "DZ",
    "zipcode": "06094",
    "name": "Ait Abdellah",
    "region": "Bejaia",
    "short_region": "06",
    "lat": "36.739800",
    "lon": "4.884600"
  },
  {
    "id": "120435",
    "country": "DZ",
    "zipcode": "06094",
    "name": "Ait Sidi Ahmed",
    "region": "Bejaia",
    "short_region": "06",
    "lat": "36.739800",
    "lon": "4.884600"
  },
  {
    "id": "120436",
    "country": "DZ",
    "zipcode": "06094",
    "name": "Aoutimarane",
    "region": "Bejaia",
    "short_region": "06",
    "lat": "36.739800",
    "lon": "4.884600"
  },
  {
    "id": "120437",
    "country": "DZ",
    "zipcode": "06094",
    "name": "Garet",
    "region": "Bejaia",
    "short_region": "06",
    "lat": "36.739800",
    "lon": "4.884600"
  },
  {
    "id": "120438",
    "country": "DZ",
    "zipcode": "06094",
    "name": "Ibouhatemene",
    "region": "Bejaia",
    "short_region": "06",
    "lat": "36.739800",
    "lon": "4.884600"
  },
  {
    "id": "120439",
    "country": "DZ",
    "zipcode": "06094",
    "name": "Ichikfiouene",
    "region": "Bejaia",
    "short_region": "06",
    "lat": "36.739800",
    "lon": "4.884600"
  },
  {
    "id": "120440",
    "country": "DZ",
    "zipcode": "06094",
    "name": "Tighilt Ougueni",
    "region": "Bejaia",
    "short_region": "06",
    "lat": "36.739800",
    "lon": "4.884600"
  },
  {
    "id": "120441",
    "country": "DZ",
    "zipcode": "06094",
    "name": "Tighilt Oumezir",
    "region": "Bejaia",
    "short_region": "06",
    "lat": "36.739800",
    "lon": "4.884600"
  },
  {
    "id": "120442",
    "country": "DZ",
    "zipcode": "06094",
    "name": "Ihaddadene",
    "region": "Bejaia",
    "short_region": "06",
    "lat": "36.733300",
    "lon": "5.050000"
  },
  {
    "id": "120443",
    "country": "DZ",
    "zipcode": "06094",
    "name": "Ait Smail",
    "region": "Bejaia",
    "short_region": "06",
    "lat": "36.733300",
    "lon": "4.850000"
  },
  {
    "id": "120444",
    "country": "DZ",
    "zipcode": "06094",
    "name": "Taourirt Said Arab",
    "region": "Bejaia",
    "short_region": "06",
    "lat": "36.742500",
    "lon": "4.805100"
  },
  {
    "id": "120445",
    "country": "DZ",
    "zipcode": "06094",
    "name": "Ibarissene",
    "region": "Bejaia",
    "short_region": "06",
    "lat": "36.750000",
    "lon": "4.833300"
  },
  {
    "id": "120446",
    "country": "DZ",
    "zipcode": "06095",
    "name": "Ait Aissi",
    "region": "Bejaia",
    "short_region": "06",
    "lat": "36.534900",
    "lon": "4.952700"
  },
  {
    "id": "120447",
    "country": "DZ",
    "zipcode": "06095",
    "name": "Bellouta",
    "region": "Bejaia",
    "short_region": "06",
    "lat": "36.534900",
    "lon": "4.952700"
  },
  {
    "id": "120448",
    "country": "DZ",
    "zipcode": "06095",
    "name": "Tgheramt",
    "region": "Bejaia",
    "short_region": "06",
    "lat": "36.534900",
    "lon": "4.952700"
  },
  {
    "id": "120449",
    "country": "DZ",
    "zipcode": "06095",
    "name": "Takjlait",
    "region": "Bejaia",
    "short_region": "06",
    "lat": "36.534900",
    "lon": "4.952700"
  },
  {
    "id": "120450",
    "country": "DZ",
    "zipcode": "06095",
    "name": "Agr Ouaslene",
    "region": "Bejaia",
    "short_region": "06",
    "lat": "36.534900",
    "lon": "4.952700"
  },
  {
    "id": "120451",
    "country": "DZ",
    "zipcode": "06095",
    "name": "Takhlit",
    "region": "Bejaia",
    "short_region": "06",
    "lat": "36.534900",
    "lon": "4.952700"
  },
  {
    "id": "120452",
    "country": "DZ",
    "zipcode": "06095",
    "name": "Khellil",
    "region": "Bejaia",
    "short_region": "06",
    "lat": "36.534900",
    "lon": "4.952700"
  },
  {
    "id": "120453",
    "country": "DZ",
    "zipcode": "06095",
    "name": "Ighil N'Kel",
    "region": "Bejaia",
    "short_region": "06",
    "lat": "36.534900",
    "lon": "4.952700"
  },
  {
    "id": "120454",
    "country": "DZ",
    "zipcode": "06096",
    "name": "Taddert Tamokrant",
    "region": "Bejaia",
    "short_region": "06",
    "lat": "36.623300",
    "lon": "4.935300"
  },
  {
    "id": "120455",
    "country": "DZ",
    "zipcode": "06097",
    "name": "Sidi Ali",
    "region": "Bejaia",
    "short_region": "06",
    "lat": "36.623300",
    "lon": "4.935300"
  },
  {
    "id": "120456",
    "country": "DZ",
    "zipcode": "06098",
    "name": "Ighil Ialouanene",
    "region": "Bejaia",
    "short_region": "06",
    "lat": "36.623300",
    "lon": "4.935300"
  },
  {
    "id": "120457",
    "country": "DZ",
    "zipcode": "06099",
    "name": "Akhnak",
    "region": "Bejaia",
    "short_region": "06",
    "lat": "36.623300",
    "lon": "4.935300"
  },
  {
    "id": "120458",
    "country": "DZ",
    "zipcode": "06100",
    "name": "Tizi Beni Khettab",
    "region": "Bejaia",
    "short_region": "06",
    "lat": "36.486900",
    "lon": "4.691100"
  },
  {
    "id": "120459",
    "country": "DZ",
    "zipcode": "06101",
    "name": "Tigrine",
    "region": "Bejaia",
    "short_region": "06",
    "lat": "36.486900",
    "lon": "4.691100"
  },
  {
    "id": "120460",
    "country": "DZ",
    "zipcode": "06102",
    "name": "Merdj Ouamene",
    "region": "Bejaia",
    "short_region": "06",
    "lat": "36.486900",
    "lon": "4.691100"
  },
  {
    "id": "120461",
    "country": "DZ",
    "zipcode": "06103",
    "name": "Tizi Ougueni",
    "region": "Bejaia",
    "short_region": "06",
    "lat": "36.486900",
    "lon": "4.691100"
  },
  {
    "id": "120462",
    "country": "DZ",
    "zipcode": "06104",
    "name": "Assam",
    "region": "Bejaia",
    "short_region": "06",
    "lat": "36.486900",
    "lon": "4.691100"
  },
  {
    "id": "120463",
    "country": "DZ",
    "zipcode": "06105",
    "name": "Cheurfa",
    "region": "Bejaia",
    "short_region": "06",
    "lat": "36.716700",
    "lon": "4.766700"
  },
  {
    "id": "120464",
    "country": "DZ",
    "zipcode": "06106",
    "name": "Beni Ksila",
    "region": "Bejaia",
    "short_region": "06",
    "lat": "36.486900",
    "lon": "4.691100"
  },
  {
    "id": "120465",
    "country": "DZ",
    "zipcode": "06107",
    "name": "Amizab",
    "region": "Bejaia",
    "short_region": "06",
    "lat": "36.486900",
    "lon": "4.691100"
  },
  {
    "id": "120466",
    "country": "DZ",
    "zipcode": "06107",
    "name": "Tala Khelifa",
    "region": "Bejaia",
    "short_region": "06",
    "lat": "36.486900",
    "lon": "4.691100"
  },
  {
    "id": "120467",
    "country": "DZ",
    "zipcode": "06107",
    "name": "Tala Hadja",
    "region": "Bejaia",
    "short_region": "06",
    "lat": "36.486900",
    "lon": "4.691100"
  },
  {
    "id": "120468",
    "country": "DZ",
    "zipcode": "06107",
    "name": "Aguemoune",
    "region": "Bejaia",
    "short_region": "06",
    "lat": "36.486900",
    "lon": "4.691100"
  },
  {
    "id": "120469",
    "country": "DZ",
    "zipcode": "06107",
    "name": "Aguemoune Beni Khiar",
    "region": "Bejaia",
    "short_region": "06",
    "lat": "36.486900",
    "lon": "4.691100"
  },
  {
    "id": "120470",
    "country": "DZ",
    "zipcode": "06107",
    "name": "Ait Ouamar",
    "region": "Bejaia",
    "short_region": "06",
    "lat": "36.486900",
    "lon": "4.691100"
  },
  {
    "id": "120471",
    "country": "DZ",
    "zipcode": "06108",
    "name": "Lazouzene",
    "region": "Bejaia",
    "short_region": "06",
    "lat": "36.574800",
    "lon": "4.743400"
  },
  {
    "id": "120472",
    "country": "DZ",
    "zipcode": "06108",
    "name": "Immoula",
    "region": "Bejaia",
    "short_region": "06",
    "lat": "36.574800",
    "lon": "4.743400"
  },
  {
    "id": "120473",
    "country": "DZ",
    "zipcode": "06109",
    "name": "Boutouab",
    "region": "Bejaia",
    "short_region": "06",
    "lat": "36.372900",
    "lon": "4.626400"
  },
  {
    "id": "120474",
    "country": "DZ",
    "zipcode": "06109",
    "name": "Touffirt",
    "region": "Bejaia",
    "short_region": "06",
    "lat": "36.377200",
    "lon": "4.654700"
  },
  {
    "id": "120475",
    "country": "DZ",
    "zipcode": "06109",
    "name": "Tamokra",
    "region": "Bejaia",
    "short_region": "06",
    "lat": "36.393200",
    "lon": "4.664500"
  },
  {
    "id": "120476",
    "country": "DZ",
    "zipcode": "06109",
    "name": "Boukerdous Sidi Aidel",
    "region": "Bejaia",
    "short_region": "06",
    "lat": "36.381100",
    "lon": "4.648500"
  },
  {
    "id": "120477",
    "country": "DZ",
    "zipcode": "06109",
    "name": "Tassira",
    "region": "Bejaia",
    "short_region": "06",
    "lat": "36.381100",
    "lon": "4.648500"
  },
  {
    "id": "120478",
    "country": "DZ",
    "zipcode": "06109",
    "name": "Taourirt Tizi Aidel",
    "region": "Bejaia",
    "short_region": "06",
    "lat": "36.381100",
    "lon": "4.648500"
  },
  {
    "id": "120479",
    "country": "DZ",
    "zipcode": "06109",
    "name": "Boukerdous Seghir",
    "region": "Bejaia",
    "short_region": "06",
    "lat": "36.381100",
    "lon": "4.648500"
  },
  {
    "id": "120480",
    "country": "DZ",
    "zipcode": "06110",
    "name": "Lota",
    "region": "Bejaia",
    "short_region": "06",
    "lat": "36.486900",
    "lon": "4.691100"
  },
  {
    "id": "120481",
    "country": "DZ",
    "zipcode": "07000",
    "name": "Biskra Air",
    "region": "Biskra",
    "short_region": "07",
    "lat": "34.805300",
    "lon": "5.734100"
  },
  {
    "id": "120482",
    "country": "DZ",
    "zipcode": "07000",
    "name": "Biskra Rp",
    "region": "Biskra",
    "short_region": "07",
    "lat": "34.805300",
    "lon": "5.734100"
  },
  {
    "id": "120483",
    "country": "DZ",
    "zipcode": "07000",
    "name": "M'Cid",
    "region": "Biskra",
    "short_region": "07",
    "lat": "34.805300",
    "lon": "5.734100"
  },
  {
    "id": "120484",
    "country": "DZ",
    "zipcode": "07000",
    "name": "Biskra Korra",
    "region": "Biskra",
    "short_region": "07",
    "lat": "34.805300",
    "lon": "5.734100"
  },
  {
    "id": "120485",
    "country": "DZ",
    "zipcode": "07001",
    "name": "Biskra Star Melouk",
    "region": "Biskra",
    "short_region": "07",
    "lat": "34.658100",
    "lon": "5.414400"
  },
  {
    "id": "120486",
    "country": "DZ",
    "zipcode": "07002",
    "name": "Faidh Hellal",
    "region": "Biskra",
    "short_region": "07",
    "lat": "34.420100",
    "lon": "5.062300"
  },
  {
    "id": "120487",
    "country": "DZ",
    "zipcode": "07002",
    "name": "Chaoua",
    "region": "Biskra",
    "short_region": "07",
    "lat": "34.420100",
    "lon": "5.062300"
  },
  {
    "id": "120488",
    "country": "DZ",
    "zipcode": "07002",
    "name": "El Bayadh",
    "region": "Biskra",
    "short_region": "07",
    "lat": "34.420100",
    "lon": "5.062300"
  },
  {
    "id": "120489",
    "country": "DZ",
    "zipcode": "07002",
    "name": "Messelaiete",
    "region": "Biskra",
    "short_region": "07",
    "lat": "34.420100",
    "lon": "5.062300"
  },
  {
    "id": "120490",
    "country": "DZ",
    "zipcode": "07002",
    "name": "Souareg",
    "region": "Biskra",
    "short_region": "07",
    "lat": "34.420100",
    "lon": "5.062300"
  },
  {
    "id": "120491",
    "country": "DZ",
    "zipcode": "07002",
    "name": "Ouled Djellal",
    "region": "Biskra",
    "short_region": "07",
    "lat": "34.420100",
    "lon": "5.062300"
  },
  {
    "id": "120492",
    "country": "DZ",
    "zipcode": "07003",
    "name": "Tolga",
    "region": "Biskra",
    "short_region": "07",
    "lat": "34.722200",
    "lon": "5.378500"
  },
  {
    "id": "120493",
    "country": "DZ",
    "zipcode": "07003",
    "name": "Labdaa",
    "region": "Biskra",
    "short_region": "07",
    "lat": "34.722200",
    "lon": "5.378500"
  },
  {
    "id": "120494",
    "country": "DZ",
    "zipcode": "07003",
    "name": "Magtofa",
    "region": "Biskra",
    "short_region": "07",
    "lat": "34.722200",
    "lon": "5.378500"
  },
  {
    "id": "120495",
    "country": "DZ",
    "zipcode": "07004",
    "name": "Lehouimel",
    "region": "Biskra",
    "short_region": "07",
    "lat": "34.387000",
    "lon": "4.987800"
  },
  {
    "id": "120496",
    "country": "DZ",
    "zipcode": "07004",
    "name": "Sabone",
    "region": "Biskra",
    "short_region": "07",
    "lat": "34.387000",
    "lon": "4.987800"
  },
  {
    "id": "120497",
    "country": "DZ",
    "zipcode": "07004",
    "name": "Sidi Khaled",
    "region": "Biskra",
    "short_region": "07",
    "lat": "34.387000",
    "lon": "4.987800"
  },
  {
    "id": "120498",
    "country": "DZ",
    "zipcode": "07005",
    "name": "Sidi Okba Cheikh Tayeb El Okbi",
    "region": "Biskra",
    "short_region": "07",
    "lat": "34.745100",
    "lon": "5.898300"
  },
  {
    "id": "120499",
    "country": "DZ",
    "zipcode": "07005",
    "name": "Sidi Okba",
    "region": "Biskra",
    "short_region": "07",
    "lat": "34.745100",
    "lon": "5.898300"
  },
  {
    "id": "120500",
    "country": "DZ",
    "zipcode": "07006",
    "name": "Biskra Bab Darb",
    "region": "Biskra",
    "short_region": "07",
    "lat": "34.805300",
    "lon": "5.734100"
  },
  {
    "id": "120501",
    "country": "DZ",
    "zipcode": "07006",
    "name": "Biskra Korra",
    "region": "Biskra",
    "short_region": "07",
    "lat": "34.805300",
    "lon": "5.734100"
  },
  {
    "id": "120502",
    "country": "DZ",
    "zipcode": "07007",
    "name": "Doucen",
    "region": "Biskra",
    "short_region": "07",
    "lat": "34.601800",
    "lon": "5.101400"
  },
  {
    "id": "120503",
    "country": "DZ",
    "zipcode": "07007",
    "name": "Draa Grirat",
    "region": "Biskra",
    "short_region": "07",
    "lat": "34.601800",
    "lon": "5.101400"
  },
  {
    "id": "120504",
    "country": "DZ",
    "zipcode": "07007",
    "name": "Draa Belamraoui",
    "region": "Biskra",
    "short_region": "07",
    "lat": "34.601800",
    "lon": "5.101400"
  },
  {
    "id": "120505",
    "country": "DZ",
    "zipcode": "07007",
    "name": "Djarouf",
    "region": "Biskra",
    "short_region": "07",
    "lat": "34.601800",
    "lon": "5.101400"
  },
  {
    "id": "120506",
    "country": "DZ",
    "zipcode": "07007",
    "name": "El Mouhgoun",
    "region": "Biskra",
    "short_region": "07",
    "lat": "34.601800",
    "lon": "5.101400"
  },
  {
    "id": "120507",
    "country": "DZ",
    "zipcode": "07007",
    "name": "Draa Souid",
    "region": "Biskra",
    "short_region": "07",
    "lat": "34.601800",
    "lon": "5.101400"
  },
  {
    "id": "120508",
    "country": "DZ",
    "zipcode": "07007",
    "name": "Rouba",
    "region": "Biskra",
    "short_region": "07",
    "lat": "34.601800",
    "lon": "5.101400"
  },
  {
    "id": "120509",
    "country": "DZ",
    "zipcode": "07007",
    "name": "Douis",
    "region": "Biskra",
    "short_region": "07",
    "lat": "34.601800",
    "lon": "5.101400"
  },
  {
    "id": "120510",
    "country": "DZ",
    "zipcode": "07007",
    "name": "Meguitla",
    "region": "Biskra",
    "short_region": "07",
    "lat": "34.601800",
    "lon": "5.101400"
  },
  {
    "id": "120511",
    "country": "DZ",
    "zipcode": "07007",
    "name": "Ghamer",
    "region": "Biskra",
    "short_region": "07",
    "lat": "34.601800",
    "lon": "5.101400"
  },