[
  {
    "id": "650001",
    "country": "MX",
    "zipcode": "20356",
    "name": "Ramón Romo",
    "region": "Aguascalientes",
    "short_region": "01",
    "lat": "22.033100",
    "lon": "-102.229000"
  },
  {
    "id": "650002",
    "country": "MX",
    "zipcode": "20356",
    "name": "Borrotes",
    "region": "Aguascalientes",
    "short_region": "01",
    "lat": "22.040900",
    "lon": "-102.206700"
  },
  {
    "id": "650003",
    "country": "MX",
    "zipcode": "20357",
    "name": "Rancho Nuevo 2",
    "region": "Aguascalientes",
    "short_region": "01",
    "lat": "22.061300",
    "lon": "-102.170000"
  },
  {
    "id": "650004",
    "country": "MX",
    "zipcode": "20357",
    "name": "El Tepetate",
    "region": "Aguascalientes",
    "short_region": "01",
    "lat": "22.066100",
    "lon": "-102.177500"
  },
  {
    "id": "650005",
    "country": "MX",
    "zipcode": "20357",
    "name": "Ojo de Agua del Mezquite",
    "region": "Aguascalientes",
    "short_region": "01",
    "lat": "22.061000",
    "lon": "-102.198100"
  },
  {
    "id": "650006",
    "country": "MX",
    "zipcode": "20357",
    "name": "Amapolas del Río",
    "region": "Aguascalientes",
    "short_region": "01",
    "lat": "22.037700",
    "lon": "-102.146300"
  },
  {
    "id": "650007",
    "country": "MX",
    "zipcode": "20357",
    "name": "Rancho Nuevo",
    "region": "Aguascalientes",
    "short_region": "01",
    "lat": "22.080400",
    "lon": "-102.157900"
  },
  {
    "id": "650008",
    "country": "MX",
    "zipcode": "20358",
    "name": "Puertecito de la Virgen",
    "region": "Aguascalientes",
    "short_region": "01",
    "lat": "21.960300",
    "lon": "-102.268900"
  },
  {
    "id": "650009",
    "country": "MX",
    "zipcode": "20358",
    "name": "Villas de San Felipe",
    "region": "Aguascalientes",
    "short_region": "01",
    "lat": "21.975300",
    "lon": "-102.258600"
  },
  {
    "id": "650010",
    "country": "MX",
    "zipcode": "20358",
    "name": "La Ribera",
    "region": "Aguascalientes",
    "short_region": "01",
    "lat": "21.966200",
    "lon": "-102.267200"
  },
  {
    "id": "650011",
    "country": "MX",
    "zipcode": "20358",
    "name": "Parque Industrial Valle de Aguascalientes",
    "region": "Aguascalientes",
    "short_region": "01",
    "lat": "21.966200",
    "lon": "-102.267200"
  },
  {
    "id": "650012",
    "country": "MX",
    "zipcode": "20358",
    "name": "Sendero de los Quetzales",
    "region": "Aguascalientes",
    "short_region": "01",
    "lat": "21.966200",
    "lon": "-102.267200"
  },
  {
    "id": "650013",
    "country": "MX",
    "zipcode": "20358",
    "name": "La Casita",
    "region": "Aguascalientes",
    "short_region": "01",
    "lat": "21.969700",
    "lon": "-102.267200"
  },
  {
    "id": "650014",
    "country": "MX",
    "zipcode": "20358",
    "name": "Ex Viñedos de Guadalupe",
    "region": "Aguascalientes",
    "short_region": "01",
    "lat": "21.959400",
    "lon": "-102.274200"
  },
  {
    "id": "650015",
    "country": "MX",
    "zipcode": "22750",
    "name": "San Antonio Necua",
    "region": "Baja California",
    "short_region": "02",
    "lat": "32.105100",
    "lon": "-116.496900"
  },
  {
    "id": "650016",
    "country": "MX",
    "zipcode": "22750",
    "name": "Guadalupe",
    "region": "Baja California",
    "short_region": "02",
    "lat": "32.123600",
    "lon": "-116.540000"
  },
  {
    "id": "650017",
    "country": "MX",
    "zipcode": "22750",
    "name": "Francisco Zarco",
    "region": "Baja California",
    "short_region": "02",
    "lat": "32.098700",
    "lon": "-116.568600"
  },
  {
    "id": "650018",
    "country": "MX",
    "zipcode": "22755",
    "name": "El Porvenir",
    "region": "Baja California",
    "short_region": "02",
    "lat": "32.058900",
    "lon": "-116.646900"
  },
  {
    "id": "650019",
    "country": "MX",
    "zipcode": "22755",
    "name": "14 de Febrero",
    "region": "Baja California",
    "short_region": "02",
    "lat": "32.058900",
    "lon": "-116.646900"
  },
  {
    "id": "650020",
    "country": "MX",
    "zipcode": "22755",
    "name": "Las Brisas",
    "region": "Baja California",
    "short_region": "02",
    "lat": "32.058900",
    "lon": "-116.646900"
  },
  {
    "id": "650021",
    "country": "MX",
    "zipcode": "22756",
    "name": "El Milagro",
    "region": "Baja California",
    "short_region": "02",
    "lat": "32.089300",
    "lon": "-116.541800"
  },
  {
    "id": "650022",
    "country": "MX",
    "zipcode": "22760",
    "name": "Lomas Del Sauzal",
    "region": "Baja California",
    "short_region": "02",
    "lat": "31.902800",
    "lon": "-116.689000"
  },
  {
    "id": "650023",
    "country": "MX",
    "zipcode": "22760",
    "name": "El Sauzal",
    "region": "Baja California",
    "short_region": "02",
    "lat": "31.893300",
    "lon": "-116.692600"
  },
  {
    "id": "650024",
    "country": "MX",
    "zipcode": "22760",
    "name": "Santa Cruz",
    "region": "Baja California",
    "short_region": "02",
    "lat": "31.999900",
    "lon": "-116.637300"
  },
  {
    "id": "650025",
    "country": "MX",
    "zipcode": "22760",
    "name": "Bajamar",
    "region": "Baja California",
    "short_region": "02",
    "lat": "32.016700",
    "lon": "-116.857200"
  },
  {
    "id": "650026",
    "country": "MX",
    "zipcode": "22760",
    "name": "Manchuria",
    "region": "Baja California",
    "short_region": "02",
    "lat": "31.897100",
    "lon": "-116.705300"
  },
  {
    "id": "650027",
    "country": "MX",
    "zipcode": "22760",
    "name": "Santa Anita",
    "region": "Baja California",
    "short_region": "02",
    "lat": "31.910300",
    "lon": "-116.687800"
  },
  {
    "id": "650028",
    "country": "MX",
    "zipcode": "22760",
    "name": "Colinas Del Mar",
    "region": "Baja California",
    "short_region": "02",
    "lat": "31.890100",
    "lon": "-116.684500"
  },
  {
    "id": "650029",
    "country": "MX",
    "zipcode": "22760",
    "name": "Cíbolas Del Mar",
    "region": "Baja California",
    "short_region": "02",
    "lat": "31.930000",
    "lon": "-116.707700"
  },
  {
    "id": "650030",
    "country": "MX",
    "zipcode": "22765",
    "name": "Puerto Salina La Marina",
    "region": "Baja California",
    "short_region": "02",
    "lat": "32.076300",
    "lon": "-116.823700"
  },
  {
    "id": "650031",
    "country": "MX",
    "zipcode": "22765",
    "name": "La Misión",
    "region": "Baja California",
    "short_region": "02",
    "lat": "32.088100",
    "lon": "-116.768600"
  },
  {
    "id": "650032",
    "country": "MX",
    "zipcode": "22765",
    "name": "La Salina",
    "region": "Baja California",
    "short_region": "02",
    "lat": "32.064600",
    "lon": "-116.878700"
  },
  {
    "id": "650033",
    "country": "MX",
    "zipcode": "22766",
    "name": "Santa Rosa",
    "region": "Baja California",
    "short_region": "02",
    "lat": "32.026500",
    "lon": "-116.745600"
  },
  {
    "id": "650034",
    "country": "MX",
    "zipcode": "22766",
    "name": "Villa de Juárez",
    "region": "Baja California",
    "short_region": "02",
    "lat": "31.970400",
    "lon": "-116.652400"
  },
  {
    "id": "650035",
    "country": "MX",
    "zipcode": "22766",
    "name": "Lomas de San Antonio",
    "region": "Baja California",
    "short_region": "02",
    "lat": "31.976700",
    "lon": "-116.682700"
  },
  {
    "id": "650036",
    "country": "MX",
    "zipcode": "22766",
    "name": "San Antonio de Las Minas",
    "region": "Baja California",
    "short_region": "02",
    "lat": "31.933300",
    "lon": "-116.650000"
  },
  {
    "id": "650037",
    "country": "MX",
    "zipcode": "22767",
    "name": "Cuatro Milpas",
    "region": "Baja California",
    "short_region": "02",
    "lat": "31.966100",
    "lon": "-116.720800"
  },
  {
    "id": "650038",
    "country": "MX",
    "zipcode": "22770",
    "name": "Puerta Trampa",
    "region": "Baja California",
    "short_region": "02",
    "lat": "31.909600",
    "lon": "-116.204000"
  },
  {
    "id": "650039",
    "country": "MX",
    "zipcode": "22770",
    "name": "Real del Castillo Nuevo",
    "region": "Baja California",
    "short_region": "02",
    "lat": "31.911700",
    "lon": "-116.271100"
  },
  {
    "id": "650040",
    "country": "MX",
    "zipcode": "22770",
    "name": "Rosa de Castilla",
    "region": "Baja California",
    "short_region": "02",
    "lat": "32.047600",
    "lon": "-116.124600"
  },
  {
    "id": "650041",
    "country": "MX",
    "zipcode": "22771",
    "name": "Ojos Negros",
    "region": "Baja California",
    "short_region": "02",
    "lat": "31.911700",
    "lon": "-116.271100"
  },
  {
    "id": "650042",
    "country": "MX",
    "zipcode": "22771",
    "name": "La Huerta",
    "region": "Baja California",
    "short_region": "02",
    "lat": "31.934300",
    "lon": "-116.133100"
  },
  {
    "id": "650043",
    "country": "MX",
    "zipcode": "22780",
    "name": "El Ciprés",
    "region": "Baja California",
    "short_region": "02",
    "lat": "31.816700",
    "lon": "-116.566700"
  },
  {
    "id": "650044",
    "country": "MX",
    "zipcode": "22785",
    "name": "Valle de Chapultepec",
    "region": "Baja California",
    "short_region": "02",
    "lat": "31.786400",
    "lon": "-116.570700"
  },
  {
    "id": "650045",
    "country": "MX",
    "zipcode": "22785",
    "name": "El Ciprés",
    "region": "Baja California",
    "short_region": "02",
    "lat": "31.816700",
    "lon": "-116.566700"
  },
  {
    "id": "650046",
    "country": "MX",
    "zipcode": "22785",
    "name": "Playas de Chapultepec",
    "region": "Baja California",
    "short_region": "02",
    "lat": "31.785300",
    "lon": "-116.608600"
  },
  {
    "id": "650047",
    "country": "MX",
    "zipcode": "22785",
    "name": "Pórticos del Mar 2",
    "region": "Baja California",
    "short_region": "02",
    "lat": "31.784600",
    "lon": "-116.588500"
  },
  {
    "id": "650048",
    "country": "MX",
    "zipcode": "22785",
    "name": "Jardines",
    "region": "Baja California",
    "short_region": "02",
    "lat": "31.784600",
    "lon": "-116.588500"
  },
  {
    "id": "650049",
    "country": "MX",
    "zipcode": "22785",
    "name": "Brisa del Mar",
    "region": "Baja California",
    "short_region": "02",
    "lat": "31.784600",
    "lon": "-116.588500"
  },
  {
    "id": "650050",
    "country": "MX",
    "zipcode": "22785",
    "name": "Vista del Mar",
    "region": "Baja California",
    "short_region": "02",
    "lat": "31.784600",
    "lon": "-116.588500"
  },
  {
    "id": "650051",
    "country": "MX",
    "zipcode": "22785",
    "name": "Lomas de San Fernando 1",
    "region": "Baja California",
    "short_region": "02",
    "lat": "31.784600",
    "lon": "-116.588500"
  },
  {
    "id": "650052",
    "country": "MX",
    "zipcode": "22785",
    "name": "Lomas de San Fernando 2",
    "region": "Baja California",
    "short_region": "02",
    "lat": "31.784600",
    "lon": "-116.588500"
  },
  {
    "id": "650053",
    "country": "MX",
    "zipcode": "22785",
    "name": "Todos los Santos",
    "region": "Baja California",
    "short_region": "02",
    "lat": "31.773200",
    "lon": "-116.563100"
  },
  {
    "id": "650054",
    "country": "MX",
    "zipcode": "22785",
    "name": "Juan Diego",
    "region": "Baja California",
    "short_region": "02",
    "lat": "31.817400",
    "lon": "-116.593800"
  },
  {
    "id": "650055",
    "country": "MX",
    "zipcode": "22785",
    "name": "Aeropuerto",
    "region": "Baja California",
    "short_region": "02",
    "lat": "31.792800",
    "lon": "-116.589900"
  },
  {
    "id": "650056",
    "country": "MX",
    "zipcode": "22785",
    "name": "Escritores",
    "region": "Baja California",
    "short_region": "02",
    "lat": "31.798800",
    "lon": "-116.591400"
  },
  {
    "id": "650057",
    "country": "MX",
    "zipcode": "22785",
    "name": "Villas del Mar",
    "region": "Baja California",
    "short_region": "02",
    "lat": "31.698600",
    "lon": "-116.544400"
  },
  {
    "id": "650058",
    "country": "MX",
    "zipcode": "22785",
    "name": "Chapultepec",
    "region": "Baja California",
    "short_region": "02",
    "lat": "31.783500",
    "lon": "-116.604700"
  },
  {
    "id": "650059",
    "country": "MX",
    "zipcode": "22785",
    "name": "Las Palmas",
    "region": "Baja California",
    "short_region": "02",
    "lat": "32.000000",
    "lon": "-116.650000"
  },
  {
    "id": "650060",
    "country": "MX",
    "zipcode": "22785",
    "name": "Domingo Luna",
    "region": "Baja California",
    "short_region": "02",
    "lat": "31.767400",
    "lon": "-116.568000"
  },
  {
    "id": "650061",
    "country": "MX",
    "zipcode": "22785",
    "name": "El Naranjo",
    "region": "Baja California",
    "short_region": "02",
    "lat": "31.811400",
    "lon": "-116.598800"
  },
  {
    "id": "650062",
    "country": "MX",
    "zipcode": "22785",
    "name": "Rinconada del Pedregal",
    "region": "Baja California",
    "short_region": "02",
    "lat": "31.798200",
    "lon": "-116.575700"
  },
  {
    "id": "650063",
    "country": "MX",
    "zipcode": "22785",
    "name": "Vista Hermosa",
    "region": "Baja California",
    "short_region": "02",
    "lat": "31.554400",
    "lon": "-116.613300"
  },
  {
    "id": "650064",
    "country": "MX",
    "zipcode": "22785",
    "name": "Villas Residencial del Real IV 1ra. Sección",
    "region": "Baja California",
    "short_region": "02",
    "lat": "31.784600",
    "lon": "-116.588500"
  },
  {
    "id": "650065",
    "country": "MX",
    "zipcode": "22785",
    "name": "Villas Residencial del Real IV 3ra. Sección",
    "region": "Baja California",
    "short_region": "02",
    "lat": "31.784600",
    "lon": "-116.588500"
  },
  {
    "id": "650066",
    "country": "MX",
    "zipcode": "22785",
    "name": "Siena Residencial",
    "region": "Baja California",
    "short_region": "02",
    "lat": "31.784600",
    "lon": "-116.588500"
  },
  {
    "id": "650067",
    "country": "MX",
    "zipcode": "22785",
    "name": "Villas del Campo",
    "region": "Baja California",
    "short_region": "02",
    "lat": "31.784600",
    "lon": "-116.588500"
  },
  {
    "id": "650068",
    "country": "MX",
    "zipcode": "22785",
    "name": "Villas del Real 2a Sección",
    "region": "Baja California",
    "short_region": "02",
    "lat": "31.784600",
    "lon": "-116.588500"
  },
  {
    "id": "650069",
    "country": "MX",
    "zipcode": "22785",
    "name": "Villas del Real 3a Sección",
    "region": "Baja California",
    "short_region": "02",
    "lat": "31.784600",
    "lon": "-116.588500"
  },
  {
    "id": "650070",
    "country": "MX",
    "zipcode": "22785",
    "name": "Villas del Real 4a Sección",
    "region": "Baja California",
    "short_region": "02",
    "lat": "31.784600",
    "lon": "-116.588500"
  },
  {
    "id": "650071",
    "country": "MX",
    "zipcode": "22785",
    "name": "Villas del Real Residencial (aeropuerto)",
    "region": "Baja California",
    "short_region": "02",
    "lat": "31.784600",
    "lon": "-116.588500"
  },
  {
    "id": "650072",
    "country": "MX",
    "zipcode": "22785",
    "name": "Villas del Rey",
    "region": "Baja California",
    "short_region": "02",
    "lat": "31.784600",
    "lon": "-116.588500"
  },
  {
    "id": "650073",
    "country": "MX",
    "zipcode": "22785",
    "name": "Villas Residencial del Real",
    "region": "Baja California",
    "short_region": "02",
    "lat": "31.784600",
    "lon": "-116.588500"
  },
  {
    "id": "650074",
    "country": "MX",
    "zipcode": "22785",
    "name": "Villas Residencial del Real IV 2da. Sección",
    "region": "Baja California",
    "short_region": "02",
    "lat": "31.784600",
    "lon": "-116.588500"
  },
  {
    "id": "650075",
    "country": "MX",
    "zipcode": "22785",
    "name": "Polígono III",
    "region": "Baja California",
    "short_region": "02",
    "lat": "31.784600",
    "lon": "-116.588500"
  },
  {
    "id": "650076",
    "country": "MX",
    "zipcode": "22785",
    "name": "Villas Residencial del Rey",
    "region": "Baja California",
    "short_region": "02",
    "lat": "31.784600",
    "lon": "-116.588500"
  },
  {
    "id": "650077",
    "country": "MX",
    "zipcode": "22785",
    "name": "23 de Noviembre",
    "region": "Baja California",
    "short_region": "02",
    "lat": "31.784600",
    "lon": "-116.588500"
  },
  {
    "id": "650078",
    "country": "MX",
    "zipcode": "22785",
    "name": "Jardines del Mar",
    "region": "Baja California",
    "short_region": "02",
    "lat": "31.784600",
    "lon": "-116.588500"
  },
  {
    "id": "650079",
    "country": "MX",
    "zipcode": "22785",
    "name": "Chapultepec del Mar",
    "region": "Baja California",
    "short_region": "02",
    "lat": "31.784600",
    "lon": "-116.588500"
  },
  {
    "id": "650080",
    "country": "MX",
    "zipcode": "22785",
    "name": "Villa del Real",
    "region": "Baja California",
    "short_region": "02",
    "lat": "31.784600",
    "lon": "-116.588500"
  },
  {
    "id": "650081",
    "country": "MX",
    "zipcode": "22785",
    "name": "Real de San Fernando",
    "region": "Baja California",
    "short_region": "02",
    "lat": "31.784600",
    "lon": "-116.588500"
  },
  {
    "id": "650082",
    "country": "MX",
    "zipcode": "22785",
    "name": "Residencial el Rey",
    "region": "Baja California",
    "short_region": "02",
    "lat": "31.784600",
    "lon": "-116.588500"
  },
  {
    "id": "650083",
    "country": "MX",
    "zipcode": "22785",
    "name": "Praderas del Ciprés Sección I",
    "region": "Baja California",
    "short_region": "02",
    "lat": "31.784600",
    "lon": "-116.588500"
  },
  {
    "id": "650084",
    "country": "MX",
    "zipcode": "22785",
    "name": "San Borja Residencial",
    "region": "Baja California",
    "short_region": "02",
    "lat": "31.784600",
    "lon": "-116.588500"
  },
  {
    "id": "650085",
    "country": "MX",
    "zipcode": "22785",
    "name": "Praderas del Ciprés Sección 2",
    "region": "Baja California",
    "short_region": "02",
    "lat": "31.784600",
    "lon": "-116.588500"
  },
  {
    "id": "650086",
    "country": "MX",
    "zipcode": "22785",
    "name": "Pórticos del Mar 3",
    "region": "Baja California",
    "short_region": "02",
    "lat": "31.784600",
    "lon": "-116.588500"
  },
  {
    "id": "650087",
    "country": "MX",
    "zipcode": "22785",
    "name": "Santo Domingo Residencial",
    "region": "Baja California",
    "short_region": "02",
    "lat": "31.784600",
    "lon": "-116.588500"
  },
  {
    "id": "650088",
    "country": "MX",
    "zipcode": "22785",
    "name": "Pórticos del Mar 1",
    "region": "Baja California",
    "short_region": "02",
    "lat": "31.784600",
    "lon": "-116.588500"
  },
  {
    "id": "650089",
    "country": "MX",
    "zipcode": "22785",
    "name": "Conjunto Artesanal",
    "region": "Baja California",
    "short_region": "02",
    "lat": "31.784600",
    "lon": "-116.588500"
  },
  {
    "id": "650090",
    "country": "MX",
    "zipcode": "22789",
    "name": "Héroes de La Independencia (Llano Colorado)",
    "region": "Baja California",
    "short_region": "02",
    "lat": "31.610900",
    "lon": "-115.891900"
  },
  {
    "id": "650091",
    "country": "MX",
    "zipcode": "22790",
    "name": "Vista del Valle",
    "region": "Baja California",
    "short_region": "02",
    "lat": "31.594600",
    "lon": "-116.456800"
  },
  {
    "id": "650092",
    "country": "MX",
    "zipcode": "22790",
    "name": "Loma Bonita",
    "region": "Baja California",
    "short_region": "02",
    "lat": "31.594600",
    "lon": "-116.456800"
  },
  {
    "id": "650093",
    "country": "MX",
    "zipcode": "22790",
    "name": "Praderas del Sol",
    "region": "Baja California",
    "short_region": "02",
    "lat": "31.594600",
    "lon": "-116.456800"
  },
  {
    "id": "650094",
    "country": "MX",
    "zipcode": "22790",
    "name": "El Morro",
    "region": "Baja California",
    "short_region": "02",
    "lat": "31.594600",
    "lon": "-116.456800"
  },
  {
    "id": "650095",
    "country": "MX",
    "zipcode": "22790",
    "name": "Maneadero",
    "region": "Baja California",
    "short_region": "02",
    "lat": "31.721000",
    "lon": "-116.571800"
  },
  {
    "id": "650096",
    "country": "MX",
    "zipcode": "22790",
    "name": "Las Brisas",
    "region": "Baja California",
    "short_region": "02",
    "lat": "31.337800",
    "lon": "-116.211400"
  },
  {
    "id": "650097",
    "country": "MX",
    "zipcode": "22790",
    "name": "El Paraíso",
    "region": "Baja California",
    "short_region": "02",
    "lat": "31.633900",
    "lon": "-116.490600"
  },
  {
    "id": "650098",
    "country": "MX",
    "zipcode": "22790",
    "name": "Cañón Buenavista",
    "region": "Baja California",
    "short_region": "02",
    "lat": "31.685600",
    "lon": "-116.553300"
  },
  {
    "id": "650099",
    "country": "MX",
    "zipcode": "22793",
    "name": "Costa Azul",
    "region": "Baja California",
    "short_region": "02",
    "lat": "31.743300",
    "lon": "-116.607800"
  },
  {
    "id": "650100",
    "country": "MX",
    "zipcode": "22793",
    "name": "El Único",
    "region": "Baja California",
    "short_region": "02",
    "lat": "31.741100",
    "lon": "-116.604900"
  },
  {
    "id": "650101",
    "country": "MX",
    "zipcode": "22793",
    "name": "Las Palmas",
    "region": "Baja California",
    "short_region": "02",
    "lat": "31.741100",
    "lon": "-116.604900"
  },
  {
    "id": "650102",
    "country": "MX",
    "zipcode": "22793",
    "name": "Hogares del Puerto",
    "region": "Baja California",
    "short_region": "02",
    "lat": "31.741100",
    "lon": "-116.604900"
  },
  {
    "id": "650103",
    "country": "MX",
    "zipcode": "22793",
    "name": "Sexta Sección",
    "region": "Baja California",
    "short_region": "02",
    "lat": "31.741100",
    "lon": "-116.604900"
  },
  {
    "id": "650104",
    "country": "MX",
    "zipcode": "22793",
    "name": "Ampliación Praderas del Sol",
    "region": "Baja California",
    "short_region": "02",
    "lat": "31.741100",
    "lon": "-116.604900"
  },
  {
    "id": "650105",
    "country": "MX",
    "zipcode": "22793",
    "name": "El Salitral",
    "region": "Baja California",
    "short_region": "02",
    "lat": "31.738900",
    "lon": "-116.601900"
  },
  {
    "id": "650106",
    "country": "MX",
    "zipcode": "22793",
    "name": "Los Pinos",
    "region": "Baja California",
    "short_region": "02",
    "lat": "31.741100",
    "lon": "-116.604900"
  },
  {
    "id": "650107",
    "country": "MX",
    "zipcode": "22793",
    "name": "Las Flores",
    "region": "Baja California",
    "short_region": "02",
    "lat": "31.741100",
    "lon": "-116.604900"
  },
  {
    "id": "650108",
    "country": "MX",
    "zipcode": "22793",
    "name": "Vista al Mar",
    "region": "Baja California",
    "short_region": "02",
    "lat": "31.741100",
    "lon": "-116.604900"
  },
  {
    "id": "650109",
    "country": "MX",
    "zipcode": "22793",
    "name": "Bellavista",
    "region": "Baja California",
    "short_region": "02",
    "lat": "31.741100",
    "lon": "-116.604900"
  },
  {
    "id": "650110",
    "country": "MX",
    "zipcode": "22793",
    "name": "Solidaridad",
    "region": "Baja California",
    "short_region": "02",
    "lat": "31.741100",
    "lon": "-116.604900"
  },
  {
    "id": "650111",
    "country": "MX",
    "zipcode": "22793",
    "name": "Los Olivos",
    "region": "Baja California",
    "short_region": "02",
    "lat": "31.741100",
    "lon": "-116.604900"
  },
  {
    "id": "650112",
    "country": "MX",
    "zipcode": "22794",
    "name": "Estéban Cantú",
    "region": "Baja California",
    "short_region": "02",
    "lat": "31.705000",
    "lon": "-116.644300"
  },
  {
    "id": "650113",
    "country": "MX",
    "zipcode": "22794",
    "name": "Puerto Escondido",
    "region": "Baja California",
    "short_region": "02",
    "lat": "31.722500",
    "lon": "-116.696100"
  },
  {
    "id": "650114",
    "country": "MX",
    "zipcode": "22794",
    "name": "La Bufadora",
    "region": "Baja California",
    "short_region": "02",
    "lat": "31.723400",
    "lon": "-116.714000"
  },
  {
    "id": "650115",
    "country": "MX",
    "zipcode": "22794",
    "name": "Punta Banda",
    "region": "Baja California",
    "short_region": "02",
    "lat": "31.745500",
    "lon": "-116.737000"
  },
  {
    "id": "650116",
    "country": "MX",
    "zipcode": "22795",
    "name": "Puerto de Santo Tomas",
    "region": "Baja California",
    "short_region": "02",
    "lat": "31.552900",
    "lon": "-116.681000"
  },
  {
    "id": "650117",
    "country": "MX",
    "zipcode": "22795",
    "name": "Militar",
    "region": "Baja California",
    "short_region": "02",
    "lat": "31.573500",
    "lon": "-116.495000"
  },
  {
    "id": "650118",
    "country": "MX",
    "zipcode": "22795",
    "name": "Uruapan",
    "region": "Baja California",
    "short_region": "02",
    "lat": "31.623400",
    "lon": "-116.438400"
  },
  {
    "id": "650119",
    "country": "MX",
    "zipcode": "22795",
    "name": "Ajusco",
    "region": "Baja California",
    "short_region": "02",
    "lat": "31.564600",
    "lon": "-116.452000"
  },
  {
    "id": "650120",
    "country": "MX",
    "zipcode": "22795",
    "name": "Santo Tomas",
    "region": "Baja California",
    "short_region": "02",
    "lat": "31.553300",
    "lon": "-116.408600"
  },
  {
    "id": "650121",
    "country": "MX",
    "zipcode": "22796",
    "name": "Brechas el Mirador",
    "region": "Baja California",
    "short_region": "02",
    "lat": "31.646500",
    "lon": "-116.557700"
  },
  {
    "id": "650122",
    "country": "MX",
    "zipcode": "22800",
    "name": "Ensenada Centro",
    "region": "Baja California",
    "short_region": "02",
    "lat": "31.815600",
    "lon": "-116.576100"
  },
  {
    "id": "650123",
    "country": "MX",
    "zipcode": "22810",
    "name": "Villas del Cedro III",
    "region": "Baja California",
    "short_region": "02",
    "lat": "31.884100",
    "lon": "-116.585700"
  },
  {
    "id": "650124",
    "country": "MX",
    "zipcode": "22810",
    "name": "Lomas y Jardines de Valle Verde",
    "region": "Baja California",
    "short_region": "02",
    "lat": "31.884100",
    "lon": "-116.585700"
  },
  {
    "id": "650125",
    "country": "MX",
    "zipcode": "22810",
    "name": "Villas del Cedro II",
    "region": "Baja California",
    "short_region": "02",
    "lat": "31.884100",
    "lon": "-116.585700"
  },
  {
    "id": "650126",
    "country": "MX",
    "zipcode": "22810",
    "name": "Villas del Cedro I",
    "region": "Baja California",
    "short_region": "02",
    "lat": "31.884100",
    "lon": "-116.585700"
  },
  {
    "id": "650127",
    "country": "MX",
    "zipcode": "22810",
    "name": "Reacomodo Lomitas",
    "region": "Baja California",
    "short_region": "02",
    "lat": "31.884100",
    "lon": "-116.585700"
  },
  {
    "id": "650128",
    "country": "MX",
    "zipcode": "22810",
    "name": "Popular Valle Verde 1",
    "region": "Baja California",
    "short_region": "02",
    "lat": "31.884100",
    "lon": "-116.585700"
  },
  {
    "id": "650129",
    "country": "MX",
    "zipcode": "22810",
    "name": "Lomitas IV",
    "region": "Baja California",
    "short_region": "02",
    "lat": "31.884100",
    "lon": "-116.585700"
  },
  {
    "id": "650130",
    "country": "MX",
    "zipcode": "22810",
    "name": "Lázaro Cárdenas 2",
    "region": "Baja California",
    "short_region": "02",
    "lat": "31.884100",
    "lon": "-116.585700"
  },
  {
    "id": "650131",
    "country": "MX",
    "zipcode": "22810",
    "name": "Margaritas",
    "region": "Baja California",
    "short_region": "02",
    "lat": "31.884100",
    "lon": "-116.585700"
  },
  {
    "id": "650132",
    "country": "MX",
    "zipcode": "22810",
    "name": "Lázaro Cárdenas 1",
    "region": "Baja California",
    "short_region": "02",
    "lat": "31.884100",
    "lon": "-116.585700"
  },
  {
    "id": "650133",
    "country": "MX",
    "zipcode": "22810",
    "name": "Arco iris",
    "region": "Baja California",
    "short_region": "02",
    "lat": "31.884100",
    "lon": "-116.585700"
  },
  {
    "id": "650134",
    "country": "MX",
    "zipcode": "22810",
    "name": "Lomitas III",
    "region": "Baja California",
    "short_region": "02",
    "lat": "31.884100",
    "lon": "-116.585700"
  },
  {
    "id": "650135",
    "country": "MX",
    "zipcode": "22810",
    "name": "2 de Septiembre",
    "region": "Baja California",
    "short_region": "02",
    "lat": "31.884100",
    "lon": "-116.585700"
  },
  {
    "id": "650136",
    "country": "MX",
    "zipcode": "22810",
    "name": "Relotifica (lomita)",
    "region": "Baja California",
    "short_region": "02",
    "lat": "31.884100",
    "lon": "-116.585700"
  },
  {
    "id": "650137",
    "country": "MX",
    "zipcode": "22810",
    "name": "Luis Donaldo Colosio",
    "region": "Baja California",
    "short_region": "02",
    "lat": "31.873600",
    "lon": "-116.583500"
  },
  {
    "id": "650138",
    "country": "MX",
    "zipcode": "22810",
    "name": "Ejido Ruiz Cortines",
    "region": "Baja California",
    "short_region": "02",
    "lat": "31.894700",
    "lon": "-116.589100"
  },
  {
    "id": "650139",
    "country": "MX",
    "zipcode": "22810",
    "name": "Las Lomitas",
    "region": "Baja California",
    "short_region": "02",
    "lat": "31.884000",
    "lon": "-116.584600"
  },
  {
    "id": "650140",
    "country": "MX",
    "zipcode": "22812",
    "name": "Nuevo Reforma",
    "region": "Baja California",
    "short_region": "02",
    "lat": "31.884100",
    "lon": "-116.576500"
  },
  {
    "id": "650141",
    "country": "MX",
    "zipcode": "22812",
    "name": "Popular 89",
    "region": "Baja California",
    "short_region": "02",
    "lat": "31.884100",
    "lon": "-116.576500"
  },
  {
    "id": "650142",
    "country": "MX",
    "zipcode": "22812",
    "name": "Residencial Misiones",
    "region": "Baja California",
    "short_region": "02",
    "lat": "31.884100",
    "lon": "-116.576500"
  },
  {
    "id": "650143",
    "country": "MX",
    "zipcode": "22812",
    "name": "Colinas de San Angel",
    "region": "Baja California",
    "short_region": "02",
    "lat": "31.884100",
    "lon": "-116.576500"
  },
  {
    "id": "650144",
    "country": "MX",
    "zipcode": "22812",
    "name": "Montemar",
    "region": "Baja California",
    "short_region": "02",
    "lat": "31.884100",
    "lon": "-116.576500"
  },
  {
    "id": "650145",
    "country": "MX",
    "zipcode": "22812",
    "name": "Nuevo Reforma II",
    "region": "Baja California",
    "short_region": "02",
    "lat": "31.884100",
    "lon": "-116.576500"
  },
  {
    "id": "650146",
    "country": "MX",
    "zipcode": "22813",
    "name": "Misiones de La Presa 1",
    "region": "Baja California",
    "short_region": "02",
    "lat": "31.900700",
    "lon": "-116.577000"
  },
  {
    "id": "650147",
    "country": "MX",
    "zipcode": "22813",
    "name": "Misiones de La Presa 2",
    "region": "Baja California",
    "short_region": "02",
    "lat": "31.900700",
    "lon": "-116.577000"
  },
  {
    "id": "650148",
    "country": "MX",
    "zipcode": "22813",
    "name": "Misiones de Alta Mar",
    "region": "Baja California",
    "short_region": "02",
    "lat": "31.900700",
    "lon": "-116.577000"
  },
  {
    "id": "650149",
    "country": "MX",
    "zipcode": "22813",
    "name": "Misiones del Paraíso",
    "region": "Baja California",
    "short_region": "02",
    "lat": "31.900700",
    "lon": "-116.577000"
  },
  {
    "id": "650150",
    "country": "MX",
    "zipcode": "22813",
    "name": "Residencial del Sol I",
    "region": "Baja California",
    "short_region": "02",
    "lat": "31.900700",
    "lon": "-116.577000"
  },
  {
    "id": "650151",
    "country": "MX",
    "zipcode": "22813",
    "name": "Residencial del Sol II",
    "region": "Baja California",
    "short_region": "02",
    "lat": "31.900700",
    "lon": "-116.577000"
  },
  {
    "id": "650152",
    "country": "MX",
    "zipcode": "22813",
    "name": "Valle del Sol",
    "region": "Baja California",
    "short_region": "02",
    "lat": "31.900700",
    "lon": "-116.577000"
  },
  {
    "id": "650153",
    "country": "MX",
    "zipcode": "22813",
    "name": "Victoria",
    "region": "Baja California",
    "short_region": "02",
    "lat": "31.900700",
    "lon": "-116.577000"
  },
  {
    "id": "650154",
    "country": "MX",
    "zipcode": "22813",
    "name": "Villas del Sol",
    "region": "Baja California",
    "short_region": "02",
    "lat": "31.900700",
    "lon": "-116.577000"
  },
  {
    "id": "650155",
    "country": "MX",
    "zipcode": "22813",
    "name": "Mar",
    "region": "Baja California",
    "short_region": "02",
    "lat": "31.900700",
    "lon": "-116.577000"
  },
  {
    "id": "650156",
    "country": "MX",
    "zipcode": "22813",
    "name": "Mar de Cortes",
    "region": "Baja California",
    "short_region": "02",
    "lat": "31.900700",
    "lon": "-116.577000"
  },
  {
    "id": "650157",
    "country": "MX",
    "zipcode": "22813",
    "name": "Salinas de Gortari",
    "region": "Baja California",
    "short_region": "02",
    "lat": "31.900700",
    "lon": "-116.577000"
  },
  {
    "id": "650158",
    "country": "MX",
    "zipcode": "22813",
    "name": "Colinas de La Presa",
    "region": "Baja California",
    "short_region": "02",
    "lat": "31.900700",
    "lon": "-116.577000"
  },
  {
    "id": "650159",
    "country": "MX",
    "zipcode": "22813",
    "name": "Colinas del Magisterio",
    "region": "Baja California",
    "short_region": "02",
    "lat": "31.901700",
    "lon": "-116.576900"
  },
  {
    "id": "650160",
    "country": "MX",
    "zipcode": "22813",
    "name": "Cumbres de La Presa",
    "region": "Baja California",
    "short_region": "02",
    "lat": "31.898300",
    "lon": "-116.579800"
  },
  {
    "id": "650161",
    "country": "MX",
    "zipcode": "22813",
    "name": "Nuevo Milenio",
    "region": "Baja California",
    "short_region": "02",
    "lat": "31.901900",
    "lon": "-116.582400"
  },
  {
    "id": "650162",
    "country": "MX",
    "zipcode": "22813",
    "name": "Lomas de la Presa",
    "region": "Baja California",
    "short_region": "02",
    "lat": "31.900800",
    "lon": "-116.569000"
  },
  {
    "id": "650163",
    "country": "MX",
    "zipcode": "22813",
    "name": "Mar de Ensenada",
    "region": "Baja California",
    "short_region": "02",
    "lat": "31.900700",
    "lon": "-116.577000"
  },
  {
    "id": "650164",
    "country": "MX",
    "zipcode": "22813",
    "name": "Misión Altamar",
    "region": "Baja California",
    "short_region": "02",
    "lat": "31.900700",
    "lon": "-116.577000"
  },
  {
    "id": "650165",
    "country": "MX",
    "zipcode": "22813",
    "name": "Alta Mar",
    "region": "Baja California",
    "short_region": "02",
    "lat": "31.900700",
    "lon": "-116.577000"
  },
  {
    "id": "650166",
    "country": "MX",
    "zipcode": "22813",
    "name": "INFONAVIT Nuevo Milenio",
    "region": "Baja California",
    "short_region": "02",
    "lat": "31.900700",
    "lon": "-116.577000"
  },
  {
    "id": "650167",
    "country": "MX",
    "zipcode": "22813",
    "name": "Loma Bonita",
    "region": "Baja California",
    "short_region": "02",
    "lat": "31.900700",
    "lon": "-116.577000"
  },
  {
    "id": "650168",
    "country": "MX",
    "zipcode": "22813",
    "name": "Ramos",
    "region": "Baja California",
    "short_region": "02",
    "lat": "31.900700",
    "lon": "-116.577000"
  },
  {
    "id": "650169",
    "country": "MX",
    "zipcode": "22813",
    "name": "Chula Vista",
    "region": "Baja California",
    "short_region": "02",
    "lat": "31.900700",
    "lon": "-116.577000"
  },
  {
    "id": "650170",
    "country": "MX",
    "zipcode": "22814",
    "name": "Salvador Rosas Magallón",
    "region": "Baja California",
    "short_region": "02",
    "lat": "31.901400",
    "lon": "-116.547800"
  },
  {
    "id": "650171",
    "country": "MX",
    "zipcode": "22814",
    "name": "Puerto Azul",
    "region": "Baja California",
    "short_region": "02",
    "lat": "31.901400",
    "lon": "-116.547800"
  },
  {
    "id": "650172",
    "country": "MX",
    "zipcode": "22815",
    "name": "Indeco",
    "region": "Baja California",
    "short_region": "02",
    "lat": "31.905100",
    "lon": "-116.583800"
  },
  {
    "id": "650173",
    "country": "MX",
    "zipcode": "22818",
    "name": "Arboledas 3",
    "region": "Baja California",
    "short_region": "02",
    "lat": "31.887300",
    "lon": "-116.614300"
  },
  {
    "id": "650174",
    "country": "MX",
    "zipcode": "22818",
    "name": "Arboledas 2",
    "region": "Baja California",
    "short_region": "02",
    "lat": "31.887300",
    "lon": "-116.614300"
  },
  {
    "id": "650175",
    "country": "MX",
    "zipcode": "22818",
    "name": "Las Fincas",
    "region": "Baja California",
    "short_region": "02",
    "lat": "31.885700",
    "lon": "-116.617100"
  },
  {
    "id": "650176",
    "country": "MX",
    "zipcode": "22818",
    "name": "Bosque de los Olivos",
    "region": "Baja California",
    "short_region": "02",
    "lat": "31.890200",
    "lon": "-116.611300"
  },
  {
    "id": "650177",
    "country": "MX",
    "zipcode": "22818",
    "name": "Mediterráneo",
    "region": "Baja California",
    "short_region": "02",
    "lat": "31.883900",
    "lon": "-116.612800"
  },
  {
    "id": "650178",
    "country": "MX",
    "zipcode": "22818",
    "name": "Granjas Chapingo",
    "region": "Baja California",
    "short_region": "02",
    "lat": "31.889300",
    "lon": "-116.616100"
  },
  {
    "id": "650179",
    "country": "MX",
    "zipcode": "22819",
    "name": "Residencial del Prado Dos",
    "region": "Baja California",
    "short_region": "02",
    "lat": "31.949400",
    "lon": "-116.569400"
  },
  {
    "id": "650180",
    "country": "MX",
    "zipcode": "22819",
    "name": "Popular Valle Verde 2",
    "region": "Baja California",
    "short_region": "02",
    "lat": "31.949400",
    "lon": "-116.569400"
  },
  {
    "id": "650181",
    "country": "MX",
    "zipcode": "22819",
    "name": "Residencial del Prado Uno",
    "region": "Baja California",
    "short_region": "02",
    "lat": "31.949400",
    "lon": "-116.569400"
  },
  {
    "id": "650182",
    "country": "MX",
    "zipcode": "22819",
    "name": "Ricardo Flores Magón",
    "region": "Baja California",
    "short_region": "02",
    "lat": "31.949400",
    "lon": "-116.569400"
  },
  {
    "id": "650183",
    "country": "MX",
    "zipcode": "22819",
    "name": "Los Encinos",
    "region": "Baja California",
    "short_region": "02",
    "lat": "32.105100",
    "lon": "-116.496900"
  },
  {
    "id": "650184",
    "country": "MX",
    "zipcode": "22819",
    "name": "Misiones de La Presa",
    "region": "Baja California",
    "short_region": "02",
    "lat": "31.897400",
    "lon": "-116.576000"
  },
  {
    "id": "650185",
    "country": "MX",
    "zipcode": "22819",
    "name": "Balcones de La Presa",
    "region": "Baja California",
    "short_region": "02",
    "lat": "31.896700",
    "lon": "-116.605000"
  },
  {
    "id": "650186",
    "country": "MX",
    "zipcode": "22819",
    "name": "Rogelio Appel Chacón",
    "region": "Baja California",
    "short_region": "02",
    "lat": "31.898500",
    "lon": "-116.599900"
  },
  {
    "id": "650187",
    "country": "MX",
    "zipcode": "22820",
    "name": "Sexto Ayuntamiento",
    "region": "Baja California",
    "short_region": "02",
    "lat": "31.882800",
    "lon": "-116.643000"
  },
  {
    "id": "650188",
    "country": "MX",
    "zipcode": "22820",
    "name": "Loma Linda",
    "region": "Baja California",
    "short_region": "02",
    "lat": "31.637700",
    "lon": "-116.449200"
  },
  {
    "id": "650189",
    "country": "MX",
    "zipcode": "22820",
    "name": "Ignacio Allende",
    "region": "Baja California",
    "short_region": "02",
    "lat": "31.885000",
    "lon": "-116.624300"
  },
  {
    "id": "650190",
    "country": "MX",
    "zipcode": "22820",
    "name": "Del Sol",
    "region": "Baja California",
    "short_region": "02",
    "lat": "31.896700",
    "lon": "-116.549700"
  },
  {
    "id": "650191",
    "country": "MX",
    "zipcode": "22820",
    "name": "Azteca",
    "region": "Baja California",
    "short_region": "02",
    "lat": "31.876300",
    "lon": "-116.630800"
  },
  {
    "id": "650192",
    "country": "MX",
    "zipcode": "22820",
    "name": "Estado de México",
    "region": "Baja California",
    "short_region": "02",
    "lat": "31.637700",
    "lon": "-116.449200"
  },
  {
    "id": "650193",
    "country": "MX",
    "zipcode": "22820",
    "name": "Bellavista",
    "region": "Baja California",
    "short_region": "02",
    "lat": "31.007200",
    "lon": "-116.256900"
  },
  {
    "id": "650194",
    "country": "MX",
    "zipcode": "22820",
    "name": "Benito Juárez",
    "region": "Baja California",
    "short_region": "02",
    "lat": "31.033300",
    "lon": "-115.816700"
  },
  {
    "id": "650195",
    "country": "MX",
    "zipcode": "22820",
    "name": "Empleados",
    "region": "Baja California",
    "short_region": "02",
    "lat": "31.882600",
    "lon": "-116.622700"
  },
  {
    "id": "650196",
    "country": "MX",
    "zipcode": "22822",
    "name": "Las Peñitas",
    "region": "Baja California",
    "short_region": "02",
    "lat": "31.891800",
    "lon": "-116.622400"
  },
  {
    "id": "650197",
    "country": "MX",
    "zipcode": "22822",
    "name": "La Joyita",
    "region": "Baja California",
    "short_region": "02",
    "lat": "31.888600",
    "lon": "-116.623100"
  },
  {
    "id": "650198",
    "country": "MX",
    "zipcode": "22822",
    "name": "Las Flores",
    "region": "Baja California",
    "short_region": "02",
    "lat": "31.890200",
    "lon": "-116.622800"
  },
  {
    "id": "650199",
    "country": "MX",
    "zipcode": "22823",
    "name": "Popular Emiliano Zapata",
    "region": "Baja California",
    "short_region": "02",
    "lat": "31.888900",
    "lon": "-116.639300"
  },
  {
    "id": "650200",
    "country": "MX",
    "zipcode": "22823",
    "name": "Lomas del Paraíso",
    "region": "Baja California",
    "short_region": "02",
    "lat": "31.890000",
    "lon": "-116.632100"
  },
  {
    "id": "650201",
    "country": "MX",
    "zipcode": "22830",
    "name": "Obrera",
    "region": "Baja California",
    "short_region": "02",
    "lat": "31.863100",
    "lon": "-116.611900"
  },
  {
    "id": "650202",
    "country": "MX",
    "zipcode": "22830",
    "name": "Tercer Ayuntamiento",
    "region": "Baja California",
    "short_region": "02",
    "lat": "31.877500",
    "lon": "-116.614700"
  },
  {
    "id": "650203",
    "country": "MX",
    "zipcode": "22830",
    "name": "México",
    "region": "Baja California",
    "short_region": "02",
    "lat": "31.814200",
    "lon": "-116.573900"
  },
  {
    "id": "650204",
    "country": "MX",
    "zipcode": "22830",
    "name": "Misión",
    "region": "Baja California",
    "short_region": "02",
    "lat": "31.814200",
    "lon": "-116.573900"
  },
  {
    "id": "650205",
    "country": "MX",
    "zipcode": "22830",
    "name": "Ulbrich",
    "region": "Baja California",
    "short_region": "02",
    "lat": "31.868300",
    "lon": "-116.605900"
  },
  {
    "id": "650206",
    "country": "MX",
    "zipcode": "22830",
    "name": "Las Rosas",
    "region": "Baja California",
    "short_region": "02",
    "lat": "30.035700",
    "lon": "-114.958600"
  },
  {
    "id": "650207",
    "country": "MX",
    "zipcode": "22830",
    "name": "Luis Echeverría Alvarez",
    "region": "Baja California",
    "short_region": "02",
    "lat": "30.035700",
    "lon": "-114.958600"
  },
  {
    "id": "650208",
    "country": "MX",
    "zipcode": "22830",
    "name": "Piedras Negras",
    "region": "Baja California",
    "short_region": "02",
    "lat": "30.035700",
    "lon": "-114.958600"
  },
  {
    "id": "650209",
    "country": "MX",
    "zipcode": "22830",
    "name": "Reforma",
    "region": "Baja California",
    "short_region": "02",
    "lat": "31.730300",
    "lon": "-116.554200"
  },
  {
    "id": "650210",
    "country": "MX",
    "zipcode": "22830",
    "name": "Pro-hogar",
    "region": "Baja California",
    "short_region": "02",
    "lat": "31.873400",
    "lon": "-116.600300"
  },
  {
    "id": "650211",
    "country": "MX",
    "zipcode": "22830",
    "name": "Revolución",
    "region": "Baja California",
    "short_region": "02",
    "lat": "31.874500",
    "lon": "-116.591200"
  },
  {
    "id": "650212",
    "country": "MX",
    "zipcode": "22830",
    "name": "Bronce",
    "region": "Baja California",
    "short_region": "02",
    "lat": "31.873300",
    "lon": "-116.604800"
  },
  {
    "id": "650213",
    "country": "MX",
    "zipcode": "22830",
    "name": "Santo Tomas",
    "region": "Baja California",
    "short_region": "02",
    "lat": "31.553300",
    "lon": "-116.408600"
  },
  {
    "id": "650214",
    "country": "MX",
    "zipcode": "22830",
    "name": "3 de Octubre",
    "region": "Baja California",
    "short_region": "02",
    "lat": "31.814200",
    "lon": "-116.573900"
  },
  {
    "id": "650215",
    "country": "MX",
    "zipcode": "22830",
    "name": "28 de Agosto",
    "region": "Baja California",
    "short_region": "02",
    "lat": "31.814200",
    "lon": "-116.573900"
  },
  {
    "id": "650216",
    "country": "MX",
    "zipcode": "22830",
    "name": "FOVISSSTE 1a Sección",
    "region": "Baja California",
    "short_region": "02",
    "lat": "31.814200",
    "lon": "-116.573900"
  },
  {
    "id": "650217",
    "country": "MX",
    "zipcode": "22830",
    "name": "FOVISSSTE 4a Sección",
    "region": "Baja California",
    "short_region": "02",
    "lat": "31.814200",
    "lon": "-116.573900"
  },
  {
    "id": "650218",
    "country": "MX",
    "zipcode": "22830",
    "name": "FOVISSSTE 3a Sección",
    "region": "Baja California",
    "short_region": "02",
    "lat": "31.814200",
    "lon": "-116.573900"
  },
  {
    "id": "650219",
    "country": "MX",
    "zipcode": "22830",
    "name": "FOVISSSTE 2a Sección",
    "region": "Baja California",
    "short_region": "02",
    "lat": "31.814200",
    "lon": "-116.573900"
  },
  {
    "id": "650220",
    "country": "MX",
    "zipcode": "22835",
    "name": "Residencial Lomas",
    "region": "Baja California",
    "short_region": "02",
    "lat": "31.730300",
    "lon": "-116.554200"
  },
  {
    "id": "650221",
    "country": "MX",
    "zipcode": "22835",
    "name": "Reforma",
    "region": "Baja California",
    "short_region": "02",
    "lat": "31.730300",
    "lon": "-116.554200"
  },
  {
    "id": "650222",
    "country": "MX",
    "zipcode": "22839",
    "name": "Magisterial La Presa",
    "region": "Baja California",
    "short_region": "02",
    "lat": "32.081900",
    "lon": "-116.588300"
  },
  {
    "id": "650223",
    "country": "MX",
    "zipcode": "22839",
    "name": "Villafontana",
    "region": "Baja California",
    "short_region": "02",
    "lat": "32.081900",
    "lon": "-116.588300"
  },
  {
    "id": "650224",
    "country": "MX",
    "zipcode": "22839",
    "name": "Los Laureles",
    "region": "Baja California",
    "short_region": "02",
    "lat": "32.081900",
    "lon": "-116.588300"
  },
  {
    "id": "650225",
    "country": "MX",
    "zipcode": "22839",
    "name": "Valle Verde",
    "region": "Baja California",
    "short_region": "02",
    "lat": "32.081900",
    "lon": "-116.588300"
  },
  {
    "id": "650226",
    "country": "MX",
    "zipcode": "22840",
    "name": "Escritores",
    "region": "Baja California",
    "short_region": "02",
    "lat": "31.798800",
    "lon": "-116.591400"
  },
  {
    "id": "650227",
    "country": "MX",
    "zipcode": "22840",
    "name": "Independencia",
    "region": "Baja California",
    "short_region": "02",
    "lat": "31.850000",
    "lon": "-116.596300"
  },
  {
    "id": "650228",
    "country": "MX",
    "zipcode": "22840",
    "name": "Niños Héroes",
    "region": "Baja California",
    "short_region": "02",
    "lat": "31.850000",
    "lon": "-116.596300"
  },
  {
    "id": "650229",
    "country": "MX",
    "zipcode": "22840",
    "name": "Granados",
    "region": "Baja California",
    "short_region": "02",
    "lat": "31.850000",
    "lon": "-116.596300"
  },
  {
    "id": "650230",
    "country": "MX",
    "zipcode": "22840",
    "name": "Gral. Jesús Munguia",
    "region": "Baja California",
    "short_region": "02",
    "lat": "31.850000",
    "lon": "-116.596300"
  },
  {
    "id": "650231",
    "country": "MX",
    "zipcode": "22840",
    "name": "Los Maestros",
    "region": "Baja California",
    "short_region": "02",
    "lat": "30.035700",
    "lon": "-114.958600"
  },
  {
    "id": "650232",
    "country": "MX",
    "zipcode": "22840",
    "name": "Aviación",
    "region": "Baja California",
    "short_region": "02",
    "lat": "31.864500",
    "lon": "-116.601100"
  },
  {
    "id": "650233",
    "country": "MX",
    "zipcode": "22840",
    "name": "Careaga",
    "region": "Baja California",
    "short_region": "02",
    "lat": "31.869500",
    "lon": "-116.594200"
  },
  {
    "id": "650234",
    "country": "MX",
    "zipcode": "22840",
    "name": "Bustamante",
    "region": "Baja California",
    "short_region": "02",
    "lat": "31.867200",
    "lon": "-116.598600"
  },
  {
    "id": "650235",
    "country": "MX",
    "zipcode": "22842",
    "name": "Libertad",
    "region": "Baja California",
    "short_region": "02",
    "lat": "30.035700",
    "lon": "-114.958600"
  },
  {
    "id": "650236",
    "country": "MX",
    "zipcode": "22842",
    "name": "Gómez Morín",
    "region": "Baja California",
    "short_region": "02",
    "lat": "31.825200",
    "lon": "-116.613000"
  },
  {
    "id": "650237",
    "country": "MX",
    "zipcode": "22842",
    "name": "Aguajito",
    "region": "Baja California",
    "short_region": "02",
    "lat": "31.825200",
    "lon": "-116.613000"
  },
  {
    "id": "650238",
    "country": "MX",
    "zipcode": "22842",
    "name": "Villas del Roble",
    "region": "Baja California",
    "short_region": "02",
    "lat": "31.825200",
    "lon": "-116.613000"
  },
  {
    "id": "650239",
    "country": "MX",
    "zipcode": "22842",
    "name": "Contreras",
    "region": "Baja California",
    "short_region": "02",
    "lat": "31.825200",
    "lon": "-116.613000"
  },
  {
    "id": "650240",
    "country": "MX",
    "zipcode": "22842",
    "name": "El Campanario",
    "region": "Baja California",
    "short_region": "02",
    "lat": "31.825200",
    "lon": "-116.613000"
  },
  {
    "id": "650241",
    "country": "MX",
    "zipcode": "22842",
    "name": "17 de Abril",
    "region": "Baja California",
    "short_region": "02",
    "lat": "31.825200",
    "lon": "-116.613000"
  },
  {
    "id": "650242",
    "country": "MX",
    "zipcode": "22842",
    "name": "San Luis",
    "region": "Baja California",
    "short_region": "02",
    "lat": "31.825200",
    "lon": "-116.613000"
  },
  {
    "id": "650243",
    "country": "MX",
    "zipcode": "22842",
    "name": "Emiliano Zapata",
    "region": "Baja California",
    "short_region": "02",
    "lat": "31.825200",
    "lon": "-116.613000"
  },
  {
    "id": "650244",
    "country": "MX",
    "zipcode": "22847",
    "name": "Loma Dorada",
    "region": "Baja California",
    "short_region": "02",
    "lat": "31.824800",
    "lon": "-116.601900"
  },
  {
    "id": "650245",
    "country": "MX",
    "zipcode": "22847",
    "name": "Lomas del Mar",
    "region": "Baja California",
    "short_region": "02",
    "lat": "31.726400",
    "lon": "-116.690800"
  },
  {
    "id": "650246",
    "country": "MX",
    "zipcode": "22850",
    "name": "Granjas el Gallo",
    "region": "Baja California",
    "short_region": "02",
    "lat": "31.857300",
    "lon": "-116.572800"
  },
  {
    "id": "650247",
    "country": "MX",
    "zipcode": "22850",
    "name": "Francisco Villa II",
    "region": "Baja California",
    "short_region": "02",
    "lat": "31.868000",
    "lon": "-116.571000"
  },
  {
    "id": "650248",
    "country": "MX",
    "zipcode": "22850",
    "name": "Manuel Márquez de León",
    "region": "Baja California",
    "short_region": "02",
    "lat": "31.829200",
    "lon": "-116.562700"
  },
  {
    "id": "650249",
    "country": "MX",
    "zipcode": "22850",
    "name": "Jalisco",
    "region": "Baja California",
    "short_region": "02",
    "lat": "31.829200",
    "lon": "-116.562700"
  },
  {
    "id": "650250",
    "country": "MX",
    "zipcode": "22850",
    "name": "Residencial Los Álamos",
    "region": "Baja California",
    "short_region": "02",
    "lat": "31.829200",
    "lon": "-116.562700"
  },
  {
    "id": "650251",
    "country": "MX",
    "zipcode": "22850",
    "name": "Terrazas el Gallo",
    "region": "Baja California",
    "short_region": "02",
    "lat": "31.855000",
    "lon": "-116.568800"
  },
  {
    "id": "650252",
    "country": "MX",
    "zipcode": "22850",
    "name": "Francisco Villa I",
    "region": "Baja California",
    "short_region": "02",
    "lat": "31.864300",
    "lon": "-116.572600"
  },
  {
    "id": "650253",
    "country": "MX",
    "zipcode": "22850",
    "name": "Los Olivos",
    "region": "Baja California",
    "short_region": "02",
    "lat": "31.681900",
    "lon": "-116.516400"
  },
  {
    "id": "650254",
    "country": "MX",
    "zipcode": "22850",
    "name": "Industrial",
    "region": "Baja California",
    "short_region": "02",
    "lat": "31.848900",
    "lon": "-116.574800"
  },
  {
    "id": "650255",
    "country": "MX",
    "zipcode": "22852",
    "name": "Villa Bonita",
    "region": "Baja California",
    "short_region": "02",
    "lat": "31.847100",
    "lon": "-116.569000"
  },
  {
    "id": "650256",
    "country": "MX",
    "zipcode": "22852",
    "name": "San Sebastián",
    "region": "Baja California",
    "short_region": "02",
    "lat": "31.847100",
    "lon": "-116.569000"
  },
  {
    "id": "650257",
    "country": "MX",
    "zipcode": "22852",
    "name": "Esperanza",
    "region": "Baja California",
    "short_region": "02",
    "lat": "31.847100",
    "lon": "-116.569000"
  },
  {
    "id": "650258",
    "country": "MX",
    "zipcode": "22855",
    "name": "José María Morelos y Pavón",
    "region": "Baja California",
    "short_region": "02",
    "lat": "31.831800",
    "lon": "-116.563600"
  },
  {
    "id": "650259",
    "country": "MX",
    "zipcode": "22859",
    "name": "Manuel Márquez de León",
    "region": "Baja California",
    "short_region": "02",
    "lat": "31.831800",
    "lon": "-116.563600"
  },
  {
    "id": "650260",
    "country": "MX",
    "zipcode": "22860",
    "name": "Miguel Alemán",
    "region": "Baja California",
    "short_region": "02",
    "lat": "30.035700",
    "lon": "-114.958600"
  },
  {
    "id": "650261",
    "country": "MX",
    "zipcode": "22860",
    "name": "Moderna",
    "region": "Baja California",
    "short_region": "02",
    "lat": "31.871100",
    "lon": "-116.643300"
  },
  {
    "id": "650262",
    "country": "MX",
    "zipcode": "22860",
    "name": "Territorio Sur",
    "region": "Baja California",
    "short_region": "02",
    "lat": "31.885100",
    "lon": "-116.664400"
  },
  {
    "id": "650263",
    "country": "MX",
    "zipcode": "22860",
    "name": "Coronita",
    "region": "Baja California",
    "short_region": "02",
    "lat": "31.911100",
    "lon": "-116.688600"
  },
  {
    "id": "650264",
    "country": "MX",
    "zipcode": "22860",
    "name": "Pedregal Playitas",
    "region": "Baja California",
    "short_region": "02",
    "lat": "31.873100",
    "lon": "-116.661400"
  },
  {
    "id": "650265",
    "country": "MX",
    "zipcode": "22863",
    "name": "Las Palmas III",
    "region": "Baja California",
    "short_region": "02",
    "lat": "31.875900",
    "lon": "-116.652300"
  },
  {
    "id": "650266",
    "country": "MX",
    "zipcode": "22870",
    "name": "Ignacio Altamirano",
    "region": "Baja California",
    "short_region": "02",
    "lat": "31.863800",
    "lon": "-116.631600"
  },
  {
    "id": "650267",
    "country": "MX",
    "zipcode": "22870",
    "name": "Quintas Papagayo",
    "region": "Baja California",
    "short_region": "02",
    "lat": "31.862800",
    "lon": "-116.655900"
  },
  {
    "id": "650268",
    "country": "MX",
    "zipcode": "22870",
    "name": "Chapultepec",
    "region": "Baja California",
    "short_region": "02",
    "lat": "31.783500",
    "lon": "-116.604700"
  },
  {
    "id": "650269",
    "country": "MX",
    "zipcode": "22870",
    "name": "San Marino",
    "region": "Baja California",
    "short_region": "02",
    "lat": "30.035700",
    "lon": "-114.958600"
  },
  {
    "id": "650270",
    "country": "MX",
    "zipcode": "22870",
    "name": "El Morro",
    "region": "Baja California",
    "short_region": "02",
    "lat": "31.836700",
    "lon": "-116.630700"
  },
  {
    "id": "650271",
    "country": "MX",
    "zipcode": "22870",
    "name": "Comercial Chapultepec",
    "region": "Baja California",
    "short_region": "02",
    "lat": "31.836700",
    "lon": "-116.630700"
  },
  {
    "id": "650272",
    "country": "MX",
    "zipcode": "22872",
    "name": "Villa las Rosas",
    "region": "Baja California",
    "short_region": "02",
    "lat": "31.849300",
    "lon": "-116.639500"
  },
  {
    "id": "650273",
    "country": "MX",
    "zipcode": "22873",
    "name": "Villa Cortez",
    "region": "Baja California",
    "short_region": "02",
    "lat": "31.865400",
    "lon": "-116.661900"
  },
  {
    "id": "650274",
    "country": "MX",
    "zipcode": "22879",
    "name": "Moderna",
    "region": "Baja California",
    "short_region": "02",
    "lat": "31.871100",
    "lon": "-116.643300"
  },
  {
    "id": "650275",
    "country": "MX",
    "zipcode": "22880",
    "name": "Buenaventura",
    "region": "Baja California",
    "short_region": "02",
    "lat": "31.815600",
    "lon": "-116.576100"
  },
  {
    "id": "650276",
    "country": "MX",
    "zipcode": "22880",
    "name": "Playa de Ensenada",
    "region": "Baja California",
    "short_region": "02",
    "lat": "31.815600",
    "lon": "-116.576100"
  },
  {
    "id": "650277",
    "country": "MX",
    "zipcode": "22880",
    "name": "Nueva Ensenada",
    "region": "Baja California",
    "short_region": "02",
    "lat": "31.815600",
    "lon": "-116.576100"
  },
  {
    "id": "650278",
    "country": "MX",
    "zipcode": "22880",
    "name": "Hidalgo",
    "region": "Baja California",
    "short_region": "02",
    "lat": "31.815600",
    "lon": "-116.576100"
  },
  {
    "id": "650279",
    "country": "MX",
    "zipcode": "22880",
    "name": "Vivienda Popular",
    "region": "Baja California",
    "short_region": "02",
    "lat": "31.815600",
    "lon": "-116.576100"
  },
  {
    "id": "650280",
    "country": "MX",
    "zipcode": "22880",
    "name": "Bahía",
    "region": "Baja California",
    "short_region": "02",
    "lat": "31.815600",
    "lon": "-116.576100"
  },
  {
    "id": "650281",
    "country": "MX",
    "zipcode": "22880",
    "name": "Primera Sección",
    "region": "Baja California",
    "short_region": "02",
    "lat": "31.815600",
    "lon": "-116.576100"
  },
  {
    "id": "650282",
    "country": "MX",
    "zipcode": "22887",
    "name": "Nueva Ensenada 2a Sección",
    "region": "Baja California",
    "short_region": "02",
    "lat": "31.815600",
    "lon": "-116.576100"
  },
  {
    "id": "650283",
    "country": "MX",
    "zipcode": "22888",
    "name": "Buenaventura 2a Sección",
    "region": "Baja California",
    "short_region": "02",
    "lat": "31.815600",
    "lon": "-116.576100"
  },
  {
    "id": "650284",
    "country": "MX",
    "zipcode": "22889",
    "name": "Hidalgo",
    "region": "Baja California",
    "short_region": "02",
    "lat": "31.815600",
    "lon": "-116.576100"
  },
  {
    "id": "650285",
    "country": "MX",
    "zipcode": "22890",
    "name": "Villa Colonial",
    "region": "Baja California",
    "short_region": "02",
    "lat": "30.981300",
    "lon": "-116.194700"
  },
  {
    "id": "650286",
    "country": "MX",
    "zipcode": "22890",
    "name": "Valle Dorado Sección Lagos",
    "region": "Baja California",
    "short_region": "02",
    "lat": "30.981300",
    "lon": "-116.194700"
  },
  {
    "id": "650287",
    "country": "MX",
    "zipcode": "22890",
    "name": "Acapulco",
    "region": "Baja California",
    "short_region": "02",
    "lat": "30.981300",
    "lon": "-116.194700"
  },
  {
    "id": "650288",
    "country": "MX",
    "zipcode": "22890",
    "name": "Costa Azul",
    "region": "Baja California",
    "short_region": "02",
    "lat": "30.981300",
    "lon": "-116.194700"
  },
  {
    "id": "650289",
    "country": "MX",
    "zipcode": "22890",
    "name": "Loma Linda",
    "region": "Baja California",
    "short_region": "02",
    "lat": "31.103100",
    "lon": "-116.306100"
  },
  {
    "id": "650290",
    "country": "MX",
    "zipcode": "22890",
    "name": "Josefa Ortiz de Domínguez",
    "region": "Baja California",
    "short_region": "02",
    "lat": "30.035700",
    "lon": "-114.958600"
  },
  {
    "id": "650291",
    "country": "MX",
    "zipcode": "22890",
    "name": "Cuauhtémoc",
    "region": "Baja California",
    "short_region": "02",
    "lat": "30.859500",
    "lon": "-116.083300"
  },
  {
    "id": "650292",
    "country": "MX",
    "zipcode": "22890",
    "name": "Valle Dorado",
    "region": "Baja California",
    "short_region": "02",
    "lat": "30.981300",
    "lon": "-116.194700"
  },
  {
    "id": "650293",
    "country": "MX",
    "zipcode": "22890",
    "name": "Los Lagos",
    "region": "Baja California",
    "short_region": "02",
    "lat": "30.981300",
    "lon": "-116.194700"
  },
  {
    "id": "650294",
    "country": "MX",
    "zipcode": "22890",
    "name": "Playa Hermosa",
    "region": "Baja California",
    "short_region": "02",
    "lat": "30.981300",
    "lon": "-116.194700"
  },
  {
    "id": "650295",
    "country": "MX",
    "zipcode": "22890",
    "name": "California",
    "region": "Baja California",
    "short_region": "02",
    "lat": "30.981300",
    "lon": "-116.194700"
  },
  {
    "id": "650296",
    "country": "MX",
    "zipcode": "22892",
    "name": "De La Marina",
    "region": "Baja California",
    "short_region": "02",
    "lat": "31.622300",
    "lon": "-116.545100"
  },
  {
    "id": "650297",
    "country": "MX",
    "zipcode": "22895",
    "name": "Rincón del Mar",
    "region": "Baja California",
    "short_region": "02",
    "lat": "31.810800",
    "lon": "-116.593900"
  },
  {
    "id": "650298",
    "country": "MX",
    "zipcode": "22895",
    "name": "Adolfo Ruiz Cortines",
    "region": "Baja California",
    "short_region": "02",
    "lat": "31.810800",
    "lon": "-116.593900"
  },
  {
    "id": "650299",
    "country": "MX",
    "zipcode": "22896",
    "name": "Puerta del Mar",
    "region": "Baja California",
    "short_region": "02",
    "lat": "30.035700",
    "lon": "-114.958600"
  },
  {
    "id": "650300",
    "country": "MX",
    "zipcode": "22896",
    "name": "Puerta del Mar II",
    "region": "Baja California",
    "short_region": "02",
    "lat": "32.160600",
    "lon": "-116.898100"
  },
  {
    "id": "650301",
    "country": "MX",
    "zipcode": "22897",
    "name": "Playa Todos Santos",
    "region": "Baja California",
    "short_region": "02",
    "lat": "31.786400",
    "lon": "-116.671800"
  },
  {
    "id": "650302",
    "country": "MX",
    "zipcode": "22897",
    "name": "Punta Banda II",
    "region": "Baja California",
    "short_region": "02",
    "lat": "31.827300",
    "lon": "-116.606600"
  },
  {
    "id": "650303",
    "country": "MX",
    "zipcode": "22897",
    "name": "Punta Banda",
    "region": "Baja California",
    "short_region": "02",
    "lat": "31.745500",
    "lon": "-116.737000"
  },
  {
    "id": "650304",
    "country": "MX",
    "zipcode": "22898",
    "name": "Costa Bella",
    "region": "Baja California",
    "short_region": "02",
    "lat": "31.849400",
    "lon": "-116.590600"
  },
  {
    "id": "650305",
    "country": "MX",
    "zipcode": "22900",
    "name": "San Vicente",
    "region": "Baja California",
    "short_region": "02",
    "lat": "31.325200",
    "lon": "-116.246600"
  },
  {
    "id": "650306",
    "country": "MX",
    "zipcode": "22903",
    "name": "San Jacinto",
    "region": "Baja California",
    "short_region": "02",
    "lat": "31.418600",
    "lon": "-116.267500"
  },
  {
    "id": "650307",
    "country": "MX",
    "zipcode": "22904",
    "name": "Erendira",
    "region": "Baja California",
    "short_region": "02",
    "lat": "30.845400",
    "lon": "-116.045200"
  },
  {
    "id": "650308",
    "country": "MX",
    "zipcode": "22904",
    "name": "Ignacio López Rayón",
    "region": "Baja California",
    "short_region": "02",
    "lat": "31.200000",
    "lon": "-116.316700"
  },
  {
    "id": "650309",
    "country": "MX",
    "zipcode": "22905",
    "name": "Alfredo V Bonfil",
    "region": "Baja California",
    "short_region": "02",
    "lat": "31.131300",
    "lon": "-116.128000"
  },
  {
    "id": "650310",
    "country": "MX",
    "zipcode": "22905",
    "name": "Llano Colorado",
    "region": "Baja California",
    "short_region": "02",
    "lat": "31.249500",
    "lon": "-116.159900"
  },
  {
    "id": "650311",
    "country": "MX",
    "zipcode": "22907",
    "name": "Benito Juárez",
    "region": "Baja California",
    "short_region": "02",
    "lat": "30.818500",
    "lon": "-116.059900"
  },
  {
    "id": "650312",
    "country": "MX",
    "zipcode": "22907",
    "name": "Grlmo. Morelos",
    "region": "Baja California",
    "short_region": "02",
    "lat": "30.818500",
    "lon": "-116.059900"
  },
  {
    "id": "650313",
    "country": "MX",
    "zipcode": "22908",
    "name": "27 de Enero",
    "region": "Baja California",
    "short_region": "02",
    "lat": "31.091400",
    "lon": "-116.196400"
  },
  {
    "id": "650314",
    "country": "MX",
    "zipcode": "22908",
    "name": "Abelardo L. Rodríguez",
    "region": "Baja California",
    "short_region": "02",
    "lat": "31.056100",
    "lon": "-116.210100"
  },
  {
    "id": "650315",
    "country": "MX",
    "zipcode": "22908",
    "name": "Villa Morelos",
    "region": "Baja California",
    "short_region": "02",
    "lat": "30.990600",
    "lon": "-116.258900"
  },
  {
    "id": "650316",
    "country": "MX",
    "zipcode": "22908",
    "name": "Las Tinajitas",
    "region": "Baja California",
    "short_region": "02",
    "lat": "31.086400",
    "lon": "-116.175000"
  },
  {
    "id": "650317",
    "country": "MX",
    "zipcode": "22909",
    "name": "Jardines del Mar",
    "region": "Baja California",
    "short_region": "02",
    "lat": "31.085700",
    "lon": "-116.193400"
  },
  {
    "id": "650318",
    "country": "MX",
    "zipcode": "22909",
    "name": "Emilio López Zamora",
    "region": "Baja California",
    "short_region": "02",
    "lat": "31.103100",
    "lon": "-116.177500"
  },
  {
    "id": "650319",
    "country": "MX",
    "zipcode": "22909",
    "name": "Punta Colonet",
    "region": "Baja California",
    "short_region": "02",
    "lat": "31.068300",
    "lon": "-116.209400"
  },
  {
    "id": "650320",
    "country": "MX",
    "zipcode": "22910",
    "name": "La Misión",
    "region": "Baja California",
    "short_region": "02",
    "lat": "31.332800",
    "lon": "-116.255600"
  },
  {
    "id": "650321",
    "country": "MX",
    "zipcode": "22910",
    "name": "Camalu",
    "region": "Baja California",
    "short_region": "02",
    "lat": "30.842200",
    "lon": "-116.063300"
  },
  {
    "id": "650322",
    "country": "MX",
    "zipcode": "22910",
    "name": "Benito Juárez",
    "region": "Baja California",
    "short_region": "02",
    "lat": "31.033300",
    "lon": "-115.816700"
  },
  {
    "id": "650323",
    "country": "MX",
    "zipcode": "22910",
    "name": "Leandro Valle",
    "region": "Baja California",
    "short_region": "02",
    "lat": "31.069400",
    "lon": "-116.045200"
  },
  {
    "id": "650324",
    "country": "MX",
    "zipcode": "22910",
    "name": "Martínez",
    "region": "Baja California",
    "short_region": "02",
    "lat": "31.069400",
    "lon": "-116.045200"
  },
  {
    "id": "650325",
    "country": "MX",
    "zipcode": "22910",
    "name": "Capricornio",
    "region": "Baja California",
    "short_region": "02",
    "lat": "31.069400",
    "lon": "-116.045200"
  },
  {
    "id": "650326",
    "country": "MX",
    "zipcode": "22910",
    "name": "Costa Mar",
    "region": "Baja California",
    "short_region": "02",
    "lat": "31.069400",
    "lon": "-116.045200"
  },
  {
    "id": "650327",
    "country": "MX",
    "zipcode": "22910",
    "name": "Tierra y Libertad",
    "region": "Baja California",
    "short_region": "02",
    "lat": "31.069400",
    "lon": "-116.045200"
  },
  {
    "id": "650328",
    "country": "MX",
    "zipcode": "22910",
    "name": "Misioneros",
    "region": "Baja California",
    "short_region": "02",
    "lat": "31.069400",
    "lon": "-116.045200"
  },
  {
    "id": "650329",
    "country": "MX",
    "zipcode": "22914",
    "name": "Valle de San Telmo",
    "region": "Baja California",
    "short_region": "02",
    "lat": "30.959800",
    "lon": "-116.051600"
  },
  {
    "id": "650330",
    "country": "MX",
    "zipcode": "22914",
    "name": "Sinaloa",
    "region": "Baja California",
    "short_region": "02",
    "lat": "30.950400",
    "lon": "-116.011400"
  },
  {
    "id": "650331",
    "country": "MX",
    "zipcode": "22914",
    "name": "San Telmo",
    "region": "Baja California",
    "short_region": "02",
    "lat": "30.969100",
    "lon": "-116.091900"
  },
  {
    "id": "650332",
    "country": "MX",
    "zipcode": "22915",
    "name": "Mesa de San Jacinto",
    "region": "Baja California",
    "short_region": "02",
    "lat": "30.882200",
    "lon": "-116.126000"
  },
  {
    "id": "650333",
    "country": "MX",
    "zipcode": "22915",
    "name": "Rubén Jaramillo",
    "region": "Baja California",
    "short_region": "02",
    "lat": "30.922700",
    "lon": "-116.129700"
  },
  {
    "id": "650334",
    "country": "MX",
    "zipcode": "22916",
    "name": "Lic. Gustavo Diaz Ordaz",
    "region": "Baja California",
    "short_region": "02",
    "lat": "31.041900",
    "lon": "-116.027800"
  },
  {
    "id": "650335",
    "country": "MX",
    "zipcode": "22917",
    "name": "Valle de La Trinidad",
    "region": "Baja California",
    "short_region": "02",
    "lat": "31.402100",
    "lon": "-115.727800"
  },
  {
    "id": "650336",
    "country": "MX",
    "zipcode": "22920",
    "name": "Santa Fe",
    "region": "Baja California",
    "short_region": "02",
    "lat": "30.679800",
    "lon": "-115.976500"
  },
  {
    "id": "650337",
    "country": "MX",
    "zipcode": "22920",
    "name": "Chula Vista",
    "region": "Baja California",
    "short_region": "02",
    "lat": "30.776900",
    "lon": "-116.043500"
  },
  {
    "id": "650338",
    "country": "MX",
    "zipcode": "22920",
    "name": "Isabel Andrade",
    "region": "Baja California",
    "short_region": "02",
    "lat": "30.776900",
    "lon": "-116.043500"
  },
  {
    "id": "650339",
    "country": "MX",
    "zipcode": "22920",
    "name": "Zarahembla",
    "region": "Baja California",
    "short_region": "02",
    "lat": "30.776900",
    "lon": "-116.043500"
  },
  {
    "id": "650340",
    "country": "MX",
    "zipcode": "22920",
    "name": "El Colonial",
    "region": "Baja California",
    "short_region": "02",
    "lat": "30.776900",
    "lon": "-116.043500"
  },
  {
    "id": "650341",
    "country": "MX",
    "zipcode": "22920",
    "name": "13 de Mayo",
    "region": "Baja California",
    "short_region": "02",
    "lat": "30.776900",
    "lon": "-116.043500"
  },
  {
    "id": "650342",
    "country": "MX",
    "zipcode": "22920",
    "name": "Lomas Verdes",
    "region": "Baja California",
    "short_region": "02",
    "lat": "30.776900",
    "lon": "-116.043500"
  },
  {
    "id": "650343",
    "country": "MX",
    "zipcode": "22920",
    "name": "Rancho Contento",
    "region": "Baja California",
    "short_region": "02",
    "lat": "30.776900",
    "lon": "-116.043500"
  },
  {
    "id": "650344",
    "country": "MX",
    "zipcode": "22920",
    "name": "La Hielera",
    "region": "Baja California",
    "short_region": "02",
    "lat": "30.776900",
    "lon": "-116.043500"
  },
  {
    "id": "650345",
    "country": "MX",
    "zipcode": "22920",
    "name": "Emiliano Zapata",
    "region": "Baja California",
    "short_region": "02",
    "lat": "30.754200",
    "lon": "-116.003100"
  },
  {
    "id": "650346",
    "country": "MX",
    "zipcode": "22920",
    "name": "Playas de la Vicente Guerrero",
    "region": "Baja California",
    "short_region": "02",
    "lat": "30.682800",
    "lon": "-115.983300"
  },
  {
    "id": "650347",
    "country": "MX",
    "zipcode": "22920",
    "name": "Reforma",
    "region": "Baja California",
    "short_region": "02",
    "lat": "30.776900",
    "lon": "-116.043500"
  },
  {
    "id": "650348",
    "country": "MX",
    "zipcode": "22920",
    "name": "Pedro Soto",
    "region": "Baja California",
    "short_region": "02",
    "lat": "30.776900",
    "lon": "-116.043500"
  },
  {
    "id": "650349",
    "country": "MX",
    "zipcode": "22920",
    "name": "Arenal",
    "region": "Baja California",
    "short_region": "02",
    "lat": "30.776900",
    "lon": "-116.043500"
  },
  {
    "id": "650350",
    "country": "MX",
    "zipcode": "22920",
    "name": "Benito Juárez",
    "region": "Baja California",
    "short_region": "02",
    "lat": "30.776900",
    "lon": "-116.043500"
  },
  {
    "id": "650351",
    "country": "MX",
    "zipcode": "22920",
    "name": "Elpidio Verlanga",
    "region": "Baja California",
    "short_region": "02",
    "lat": "30.776900",
    "lon": "-116.043500"
  },
  {
    "id": "650352",
    "country": "MX",
    "zipcode": "22920",
    "name": "José Dolores López",
    "region": "Baja California",
    "short_region": "02",
    "lat": "30.776900",
    "lon": "-116.043500"
  },
  {
    "id": "650353",
    "country": "MX",
    "zipcode": "22920",
    "name": "Santa Fe de Braulio Maldonado",
    "region": "Baja California",
    "short_region": "02",
    "lat": "30.776900",
    "lon": "-116.043500"
  },
  {
    "id": "650354",
    "country": "MX",
    "zipcode": "22920",
    "name": "Colinas del Valle",
    "region": "Baja California",
    "short_region": "02",
    "lat": "30.776900",
    "lon": "-116.043500"
  },
  {
    "id": "650355",
    "country": "MX",
    "zipcode": "22920",
    "name": "Lomas de San Román",
    "region": "Baja California",
    "short_region": "02",
    "lat": "30.776900",
    "lon": "-116.043500"
  },
  {
    "id": "650356",
    "country": "MX",
    "zipcode": "22920",
    "name": "Rancho Contento II",
    "region": "Baja California",
    "short_region": "02",
    "lat": "30.776900",
    "lon": "-116.043500"
  },
  {
    "id": "650357",
    "country": "MX",
    "zipcode": "22920",
    "name": "Vicente Guerrero",
    "region": "Baja California",
    "short_region": "02",
    "lat": "30.731000",
    "lon": "-115.990700"
  },
  {
    "id": "650358",
    "country": "MX",
    "zipcode": "22920",
    "name": "Rancho Nuevo",
    "region": "Baja California",
    "short_region": "02",
    "lat": "31.036600",
    "lon": "-116.264100"
  },
  {
    "id": "650359",
    "country": "MX",
    "zipcode": "22920",
    "name": "Las Misiones",
    "region": "Baja California",
    "short_region": "02",
    "lat": "30.035700",
    "lon": "-114.958600"
  },
  {
    "id": "650360",
    "country": "MX",
    "zipcode": "22920",
    "name": "Maclovio Rojas",
    "region": "Baja California",
    "short_region": "02",
    "lat": "30.035700",
    "lon": "-114.958600"
  },
  {
    "id": "650361",
    "country": "MX",
    "zipcode": "22922",
    "name": "Misión de Santo Domingo",
    "region": "Baja California",
    "short_region": "02",
    "lat": "30.770600",
    "lon": "-115.936900"
  },
  {
    "id": "650362",
    "country": "MX",
    "zipcode": "22925",
    "name": "Padre Kino",
    "region": "Baja California",
    "short_region": "02",
    "lat": "30.657900",
    "lon": "-115.969400"
  },
  {
    "id": "650363",
    "country": "MX",
    "zipcode": "22930",
    "name": "Nuevo Mexicali",
    "region": "Baja California",
    "short_region": "02",
    "lat": "30.546800",
    "lon": "-115.976600"
  },
  {
    "id": "650364",
    "country": "MX",
    "zipcode": "22930",
    "name": "Cachanilla",
    "region": "Baja California",
    "short_region": "02",
    "lat": "30.546800",
    "lon": "-115.976600"
  },
  {
    "id": "650365",
    "country": "MX",
    "zipcode": "22930",
    "name": "Flores Magón",
    "region": "Baja California",
    "short_region": "02",
    "lat": "30.546800",
    "lon": "-115.976600"
  },
  {
    "id": "650366",
    "country": "MX",
    "zipcode": "22930",
    "name": "Nuevo Baja California",
    "region": "Baja California",
    "short_region": "02",
    "lat": "30.546800",
    "lon": "-115.976600"
  },
  {
    "id": "650367",
    "country": "MX",
    "zipcode": "22930",
    "name": "Popular San Quintín",
    "region": "Baja California",
    "short_region": "02",
    "lat": "30.546800",
    "lon": "-115.976600"
  },
  {
    "id": "650368",
    "country": "MX",
    "zipcode": "22930",
    "name": "Jardines del Valle",
    "region": "Baja California",
    "short_region": "02",
    "lat": "30.546800",
    "lon": "-115.976600"
  },
  {
    "id": "650369",
    "country": "MX",
    "zipcode": "22930",
    "name": "Valle de San Quintín",
    "region": "Baja California",
    "short_region": "02",
    "lat": "30.546800",
    "lon": "-115.976600"
  },
  {
    "id": "650370",
    "country": "MX",
    "zipcode": "22931",
    "name": "Lázaro Cárdenas",
    "region": "Baja California",
    "short_region": "02",
    "lat": "30.546800",
    "lon": "-115.976600"
  },
  {
    "id": "650371",
    "country": "MX",
    "zipcode": "22933",
    "name": "Ruiz Cortines",
    "region": "Baja California",
    "short_region": "02",
    "lat": "30.546800",
    "lon": "-115.976600"
  },
  {
    "id": "650372",
    "country": "MX",
    "zipcode": "22934",
    "name": "Prof. Graciano Sanchez",
    "region": "Baja California",
    "short_region": "02",
    "lat": "30.546800",
    "lon": "-115.976600"
  },
  {
    "id": "650373",
    "country": "MX",
    "zipcode": "22934",
    "name": "Chávez",
    "region": "Baja California",
    "short_region": "02",
    "lat": "30.546800",
    "lon": "-115.976600"
  },
  {
    "id": "650374",
    "country": "MX",
    "zipcode": "22940",
    "name": "Benito García",
    "region": "Baja California",
    "short_region": "02",
    "lat": "30.651300",
    "lon": "-115.953000"
  },
  {
    "id": "650375",
    "country": "MX",
    "zipcode": "22940",
    "name": "Stokers",
    "region": "Baja California",
    "short_region": "02",
    "lat": "30.651300",
    "lon": "-115.953000"
  },
  {
    "id": "650376",
    "country": "MX",
    "zipcode": "22940",
    "name": "Raúl Sanchez Diaz",
    "region": "Baja California",
    "short_region": "02",
    "lat": "30.651300",
    "lon": "-115.953000"
  },
  {
    "id": "650377",
    "country": "MX",
    "zipcode": "22940",
    "name": "3 Arbolitos",
    "region": "Baja California",
    "short_region": "02",
    "lat": "30.515000",
    "lon": "-115.912800"
  },
  {
    "id": "650378",
    "country": "MX",
    "zipcode": "22940",
    "name": "Lomas de San Ramón",
    "region": "Baja California",
    "short_region": "02",
    "lat": "30.701700",
    "lon": "-116.002800"
  },
  {
    "id": "650379",
    "country": "MX",
    "zipcode": "22940",
    "name": "Maclovio Rojas",
    "region": "Baja California",
    "short_region": "02",
    "lat": "30.035700",
    "lon": "-114.958600"
  },
  {
    "id": "650380",
    "country": "MX",
    "zipcode": "22940",
    "name": "San Quintín",
    "region": "Baja California",
    "short_region": "02",
    "lat": "30.572300",
    "lon": "-115.946100"
  },
  {
    "id": "650381",
    "country": "MX",
    "zipcode": "22940",
    "name": "Las Flores",
    "region": "Baja California",
    "short_region": "02",
    "lat": "30.960800",
    "lon": "-115.981000"
  },
  {
    "id": "650382",
    "country": "MX",
    "zipcode": "22940",
    "name": "Nueva Era",
    "region": "Baja California",
    "short_region": "02",
    "lat": "30.506700",
    "lon": "-115.922500"
  },
  {
    "id": "650383",
    "country": "MX",
    "zipcode": "22940",
    "name": "Poblano Chula Vista",
    "region": "Baja California",
    "short_region": "02",
    "lat": "30.651300",
    "lon": "-115.953000"
  },
  {
    "id": "650384",
    "country": "MX",
    "zipcode": "22940",
    "name": "Morelos",
    "region": "Baja California",
    "short_region": "02",
    "lat": "30.651300",
    "lon": "-115.953000"
  },
  {
    "id": "650385",
    "country": "MX",
    "zipcode": "22940",
    "name": "Poblano Leandro Valle",
    "region": "Baja California",
    "short_region": "02",
    "lat": "30.651300",
    "lon": "-115.953000"
  },
  {
    "id": "650386",
    "country": "MX",
    "zipcode": "22940",
    "name": "Popular San Agustin",
    "region": "Baja California",
    "short_region": "02",
    "lat": "30.651300",
    "lon": "-115.953000"
  },
  {
    "id": "650387",
    "country": "MX",
    "zipcode": "22940",
    "name": "Las Granjas Juan María Salvatierra",
    "region": "Baja California",
    "short_region": "02",
    "lat": "30.651300",
    "lon": "-115.953000"
  },
  {
    "id": "650388",
    "country": "MX",
    "zipcode": "22940",
    "name": "Aeropuerto",
    "region": "Baja California",
    "short_region": "02",
    "lat": "30.651300",
    "lon": "-115.953000"
  },
  {
    "id": "650389",
    "country": "MX",
    "zipcode": "22940",
    "name": "Magisterial",
    "region": "Baja California",
    "short_region": "02",
    "lat": "30.651300",
    "lon": "-115.953000"
  },
  {
    "id": "650390",
    "country": "MX",
    "zipcode": "22940",
    "name": "El Papalote",
    "region": "Baja California",
    "short_region": "02",
    "lat": "30.651300",
    "lon": "-115.953000"
  },
  {
    "id": "650391",
    "country": "MX",
    "zipcode": "22945",
    "name": "Estado 29",
    "region": "Baja California",
    "short_region": "02",
    "lat": "30.035700",
    "lon": "-114.958600"
  },
  {
    "id": "650392",
    "country": "MX",
    "zipcode": "22950",
    "name": "Santa María de Los Pinos",
    "region": "Baja California",
    "short_region": "02",
    "lat": "30.400900",
    "lon": "-115.894300"
  },
  {
    "id": "650393",
    "country": "MX",
    "zipcode": "22950",
    "name": "Francisco Villa (San Simón)",
    "region": "Baja California",
    "short_region": "02",
    "lat": "30.400900",
    "lon": "-115.894300"
  },
  {
    "id": "650394",
    "country": "MX",
    "zipcode": "22950",
    "name": "Venustiano Carranza",
    "region": "Baja California",
    "short_region": "02",
    "lat": "30.400900",
    "lon": "-115.894300"
  },
  {
    "id": "650395",
    "country": "MX",
    "zipcode": "22951",
    "name": "José María Morelos y Pavón",
    "region": "Baja California",
    "short_region": "02",
    "lat": "30.481100",
    "lon": "-115.817400"
  },
  {
    "id": "650396",
    "country": "MX",
    "zipcode": "22951",
    "name": "Santa María",
    "region": "Baja California",
    "short_region": "02",
    "lat": "30.400900",
    "lon": "-115.894300"
  },
  {
    "id": "650397",
    "country": "MX",
    "zipcode": "22952",
    "name": "Nueva Odisea (El Pabellón)",
    "region": "Baja California",
    "short_region": "02",
    "lat": "30.324700",
    "lon": "-115.825000"
  },
  {
    "id": "650398",
    "country": "MX",
    "zipcode": "22952",
    "name": "Valle Tranquilo",
    "region": "Baja California",
    "short_region": "02",
    "lat": "30.289400",
    "lon": "-115.804200"
  },
  {
    "id": "650399",
    "country": "MX",
    "zipcode": "22952",
    "name": "El Socorrito",
    "region": "Baja California",
    "short_region": "02",
    "lat": "30.323100",
    "lon": "-115.821700"
  },
  {
    "id": "650400",
    "country": "MX",
    "zipcode": "22952",
    "name": "Pabellón",
    "region": "Baja California",
    "short_region": "02",
    "lat": "30.370600",
    "lon": "-115.854600"
  },
  {
    "id": "650401",
    "country": "MX",
    "zipcode": "22952",
    "name": "El Socorro",
    "region": "Baja California",
    "short_region": "02",
    "lat": "30.315800",
    "lon": "-115.819400"
  },
  {
    "id": "650402",
    "country": "MX",
    "zipcode": "22955",
    "name": "Rosarito",
    "region": "Baja California",
    "short_region": "02",
    "lat": "30.368800",
    "lon": "-115.843700"
  },
  {
    "id": "650403",
    "country": "MX",
    "zipcode": "22960",
    "name": "El Rosario de Arriba",
    "region": "Baja California",
    "short_region": "02",
    "lat": "30.059800",
    "lon": "-115.724500"
  },
  {
    "id": "650404",
    "country": "MX",
    "zipcode": "22960",
    "name": "Nuevo Uruapan",
    "region": "Baja California",
    "short_region": "02",
    "lat": "30.073100",
    "lon": "-115.708400"
  },
  {
    "id": "650405",
    "country": "MX",
    "zipcode": "22960",
    "name": "El Consuelo",
    "region": "Baja California",
    "short_region": "02",
    "lat": "30.066500",
    "lon": "-115.716500"
  },
  {
    "id": "650406",
    "country": "MX",
    "zipcode": "22964",
    "name": "Guayaquil",
    "region": "Baja California",
    "short_region": "02",
    "lat": "29.966800",
    "lon": "-115.097700"
  },
  {
    "id": "650407",
    "country": "MX",
    "zipcode": "22965",
    "name": "Cataviña",
    "region": "Baja California",
    "short_region": "02",
    "lat": "29.729400",
    "lon": "-114.720800"
  },
  {
    "id": "650408",
    "country": "MX",
    "zipcode": "22965",
    "name": "Mármol",
    "region": "Baja California",
    "short_region": "02",
    "lat": "29.970300",
    "lon": "-114.809600"
  },
  {
    "id": "650409",
    "country": "MX",
    "zipcode": "22967",
    "name": "Santa Catarina",
    "region": "Baja California",
    "short_region": "02",
    "lat": "29.722400",
    "lon": "-115.131000"
  },
  {
    "id": "650410",
    "country": "MX",
    "zipcode": "22969",
    "name": "Santa Inés",
    "region": "Baja California",
    "short_region": "02",
    "lat": "29.730300",
    "lon": "-114.720500"
  },
  {
    "id": "650411",
    "country": "MX",
    "zipcode": "22970",
    "name": "Punta Prieta",
    "region": "Baja California",
    "short_region": "02",
    "lat": "30.693900",
    "lon": "-115.896800"
  },
  {
    "id": "650412",
    "country": "MX",
    "zipcode": "22971",
    "name": "Chapala",
    "region": "Baja California",
    "short_region": "02",
    "lat": "30.693900",
    "lon": "-115.896800"
  },
  {
    "id": "650413",
    "country": "MX",
    "zipcode": "22973",
    "name": "San José de las Palomas",
    "region": "Baja California",
    "short_region": "02",
    "lat": "30.693900",
    "lon": "-115.896800"
  },
  {
    "id": "650414",
    "country": "MX",
    "zipcode": "22980",
    "name": "Villa Jesús María",
    "region": "Baja California",
    "short_region": "02",
    "lat": "30.693900",
    "lon": "-115.896800"
  },
  {
    "id": "650415",
    "country": "MX",
    "zipcode": "22980",
    "name": "Bahía de los Ángeles",
    "region": "Baja California",
    "short_region": "02",
    "lat": "30.693900",
    "lon": "-115.896800"
  },
  {
    "id": "650416",
    "country": "MX",
    "zipcode": "22984",
    "name": "El Porvenir",
    "region": "Baja California",
    "short_region": "02",
    "lat": "30.693900",
    "lon": "-115.896800"
  },
  {
    "id": "650417",
    "country": "MX",
    "zipcode": "22990",
    "name": "Isla de Cedros",
    "region": "Baja California",
    "short_region": "02",
    "lat": "30.035700",
    "lon": "-114.958600"
  },
  {
    "id": "650418",
    "country": "MX",
    "zipcode": "22991",
    "name": "Calmalli",
    "region": "Baja California",
    "short_region": "02",
    "lat": "30.693900",
    "lon": "-115.896800"
  },
  {
    "id": "650419",
    "country": "MX",
    "zipcode": "22993",
    "name": "Paralelo 28",
    "region": "Baja California",
    "short_region": "02",
    "lat": "30.693900",
    "lon": "-115.896800"
  },
  {
    "id": "650420",
    "country": "MX",
    "zipcode": "22995",
    "name": "Nuevo Rosarito",
    "region": "Baja California",
    "short_region": "02",
    "lat": "30.035700",
    "lon": "-114.958600"
  },
  {
    "id": "650421",
    "country": "MX",
    "zipcode": "22997",
    "name": "El Barril",
    "region": "Baja California",
    "short_region": "02",
    "lat": "30.693900",
    "lon": "-115.896800"
  },
  {
    "id": "650422",
    "country": "MX",
    "zipcode": "21000",
    "name": "Centro Cívico",
    "region": "Baja California",
    "short_region": "02",
    "lat": "31.749700",
    "lon": "-115.110500"
  },
  {
    "id": "650423",
    "country": "MX",
    "zipcode": "21010",
    "name": "Caliss",
    "region": "Baja California",
    "short_region": "02",
    "lat": "31.422500",
    "lon": "-114.999100"
  },
  {
    "id": "650424",
    "country": "MX",
    "zipcode": "21010",
    "name": "Residencial Cerrada del Parque",
    "region": "Baja California",
    "short_region": "02",
    "lat": "31.422500",
    "lon": "-114.999100"
  },
  {
    "id": "650425",
    "country": "MX",
    "zipcode": "21010",
    "name": "Zona Industrial",
    "region": "Baja California",
    "short_region": "02",
    "lat": "31.422500",
    "lon": "-114.999100"
  },
  {
    "id": "650426",
    "country": "MX",
    "zipcode": "21010",
    "name": "Industrial",
    "region": "Baja California",
    "short_region": "02",
    "lat": "31.422500",
    "lon": "-114.999100"
  },
  {
    "id": "650427",
    "country": "MX",
    "zipcode": "21020",
    "name": "Burócrata",
    "region": "Baja California",
    "short_region": "02",
    "lat": "31.749700",
    "lon": "-115.110500"
  },
  {
    "id": "650428",
    "country": "MX",
    "zipcode": "21030",
    "name": "Nacozari",
    "region": "Baja California",
    "short_region": "02",
    "lat": "31.749700",
    "lon": "-115.110500"
  },
  {
    "id": "650429",
    "country": "MX",
    "zipcode": "21030",
    "name": "Libertad",
    "region": "Baja California",
    "short_region": "02",
    "lat": "31.737900",
    "lon": "-115.163700"
  },
  {
    "id": "650430",
    "country": "MX",
    "zipcode": "21038",
    "name": "FOVISSSTE",
    "region": "Baja California",
    "short_region": "02",
    "lat": "31.749700",
    "lon": "-115.110500"
  },
  {
    "id": "650431",
    "country": "MX",
    "zipcode": "21039",
    "name": "Crnl. Esteban Cantú",
    "region": "Baja California",
    "short_region": "02",
    "lat": "31.749700",
    "lon": "-115.110500"
  },
  {
    "id": "650432",
    "country": "MX",
    "zipcode": "21040",
    "name": "Calafia",
    "region": "Baja California",
    "short_region": "02",
    "lat": "31.737900",
    "lon": "-115.163700"
  },
  {
    "id": "650433",
    "country": "MX",
    "zipcode": "21040",
    "name": "Ferrocarril",
    "region": "Baja California",
    "short_region": "02",
    "lat": "31.749700",
    "lon": "-115.110500"
  },
  {
    "id": "650434",
    "country": "MX",
    "zipcode": "21050",
    "name": "San Marcos",
    "region": "Baja California",
    "short_region": "02",
    "lat": "31.737900",
    "lon": "-115.163700"
  },
  {
    "id": "650435",
    "country": "MX",
    "zipcode": "21050",
    "name": "Guajardo",
    "region": "Baja California",
    "short_region": "02",
    "lat": "32.076900",
    "lon": "-115.221900"
  },
  {
    "id": "650436",
    "country": "MX",
    "zipcode": "21050",
    "name": "Nueva Esperanza",
    "region": "Baja California",
    "short_region": "02",
    "lat": "32.076900",
    "lon": "-115.221900"
  },
  {
    "id": "650437",
    "country": "MX",
    "zipcode": "21060",
    "name": "Anáhuac",
    "region": "Baja California",
    "short_region": "02",
    "lat": "31.749700",
    "lon": "-115.110500"
  },
  {
    "id": "650438",
    "country": "MX",
    "zipcode": "21060",
    "name": "Josué Molina",
    "region": "Baja California",
    "short_region": "02",
    "lat": "31.749700",
    "lon": "-115.110500"
  },
  {
    "id": "650439",
    "country": "MX",
    "zipcode": "21060",
    "name": "Indeco Anáhuac",
    "region": "Baja California",
    "short_region": "02",
    "lat": "31.749700",
    "lon": "-115.110500"
  },
  {
    "id": "650440",
    "country": "MX",
    "zipcode": "21060",
    "name": "Constituyentes",
    "region": "Baja California",
    "short_region": "02",
    "lat": "31.749700",
    "lon": "-115.110500"
  },
  {
    "id": "650441",
    "country": "MX",
    "zipcode": "21070",
    "name": "Zona Industrial",
    "region": "Baja California",
    "short_region": "02",
    "lat": "31.749700",
    "lon": "-115.110500"
  },
  {
    "id": "650442",
    "country": "MX",
    "zipcode": "21070",
    "name": "Zacatecas",
    "region": "Baja California",
    "short_region": "02",
    "lat": "31.749700",
    "lon": "-115.110500"
  },
  {
    "id": "650443",
    "country": "MX",
    "zipcode": "21070",
    "name": "Balbuena",
    "region": "Baja California",
    "short_region": "02",
    "lat": "31.749700",
    "lon": "-115.110500"
  },
  {
    "id": "650444",
    "country": "MX",
    "zipcode": "21079",
    "name": "Los Arcos",
    "region": "Baja California",
    "short_region": "02",
    "lat": "31.737900",
    "lon": "-115.163700"
  },
  {
    "id": "650445",
    "country": "MX",
    "zipcode": "21080",
    "name": "El Vidrio",
    "region": "Baja California",
    "short_region": "02",
    "lat": "31.737900",
    "lon": "-115.163700"
  },
  {
    "id": "650446",
    "country": "MX",
    "zipcode": "21090",
    "name": "Zona Industrial",
    "region": "Baja California",
    "short_region": "02",
    "lat": "31.749700",
    "lon": "-115.110500"
  },
  {
    "id": "650447",
    "country": "MX",
    "zipcode": "21090",
    "name": "Agualeguas",
    "region": "Baja California",
    "short_region": "02",
    "lat": "31.749700",
    "lon": "-115.110500"
  },
  {
    "id": "650448",
    "country": "MX",
    "zipcode": "21090",
    "name": "Del Rastro",
    "region": "Baja California",
    "short_region": "02",
    "lat": "31.749700",
    "lon": "-115.110500"
  },
  {
    "id": "650449",
    "country": "MX",
    "zipcode": "21090",
    "name": "Zacatecas",
    "region": "Baja California",
    "short_region": "02",
    "lat": "31.749700",
    "lon": "-115.110500"
  },
  {
    "id": "650450",
    "country": "MX",
    "zipcode": "21100",
    "name": "Nueva",
    "region": "Baja California",
    "short_region": "02",
    "lat": "32.554900",
    "lon": "-115.518200"
  },
  {
    "id": "650451",
    "country": "MX",
    "zipcode": "21100",
    "name": "Primera Sección",
    "region": "Baja California",
    "short_region": "02",
    "lat": "32.554900",
    "lon": "-115.518200"
  },
  {
    "id": "650452",
    "country": "MX",
    "zipcode": "21100",
    "name": "Segunda Sección",
    "region": "Baja California",
    "short_region": "02",
    "lat": "32.554900",
    "lon": "-115.518200"
  },
  {
    "id": "650453",
    "country": "MX",
    "zipcode": "21110",
    "name": "Revolución",
    "region": "Baja California",
    "short_region": "02",
    "lat": "31.737900",
    "lon": "-115.163700"
  },
  {
    "id": "650454",
    "country": "MX",
    "zipcode": "21110",
    "name": "Santa Clara",
    "region": "Baja California",
    "short_region": "02",
    "lat": "32.660200",
    "lon": "-115.547400"
  },
  {
    "id": "650455",
    "country": "MX",
    "zipcode": "21110",
    "name": "Fronteriza",
    "region": "Baja California",
    "short_region": "02",
    "lat": "32.661500",
    "lon": "-115.532300"
  },
  {
    "id": "650456",
    "country": "MX",
    "zipcode": "21110",
    "name": "Eligio Esquivel",
    "region": "Baja California",
    "short_region": "02",
    "lat": "32.658900",
    "lon": "-115.562500"
  },
  {
    "id": "650457",
    "country": "MX",
    "zipcode": "21120",
    "name": "Río Nuevo",
    "region": "Baja California",
    "short_region": "02",
    "lat": "32.554900",
    "lon": "-115.518200"
  },
  {
    "id": "650458",
    "country": "MX",
    "zipcode": "21120",
    "name": "Pueblo Nuevo",
    "region": "Baja California",
    "short_region": "02",
    "lat": "32.554900",
    "lon": "-115.518200"
  },
  {
    "id": "650459",
    "country": "MX",
    "zipcode": "21130",
    "name": "Baja California",
    "region": "Baja California",
    "short_region": "02",
    "lat": "32.630800",
    "lon": "-115.542200"
  },
  {
    "id": "650460",
    "country": "MX",
    "zipcode": "21130",
    "name": "Orizaba",
    "region": "Baja California",
    "short_region": "02",
    "lat": "32.630800",
    "lon": "-115.542200"
  },
  {
    "id": "650461",
    "country": "MX",
    "zipcode": "21135",
    "name": "Las Palmeras",
    "region": "Baja California",
    "short_region": "02",
    "lat": "32.635800",
    "lon": "-115.539400"
  },
  {
    "id": "650462",
    "country": "MX",
    "zipcode": "21135",
    "name": "Sindicalista",
    "region": "Baja California",
    "short_region": "02",
    "lat": "32.635800",
    "lon": "-115.539400"
  },
  {
    "id": "650463",
    "country": "MX",
    "zipcode": "21135",
    "name": "Sol del Amanecer",
    "region": "Baja California",
    "short_region": "02",
    "lat": "32.635800",
    "lon": "-115.539400"
  },
  {
    "id": "650464",
    "country": "MX",
    "zipcode": "21135",
    "name": "Mártires de La Democracia",
    "region": "Baja California",
    "short_region": "02",
    "lat": "32.635800",
    "lon": "-115.539400"
  },
  {
    "id": "650465",
    "country": "MX",
    "zipcode": "21135",
    "name": "Las Magdalenas",
    "region": "Baja California",
    "short_region": "02",
    "lat": "32.635800",
    "lon": "-115.539400"
  },
  {
    "id": "650466",
    "country": "MX",
    "zipcode": "21135",
    "name": "Haciendas Orizaba",
    "region": "Baja California",
    "short_region": "02",
    "lat": "32.635800",
    "lon": "-115.539400"
  },
  {
    "id": "650467",
    "country": "MX",
    "zipcode": "21135",
    "name": "Hacienda de Mexicali",
    "region": "Baja California",
    "short_region": "02",
    "lat": "32.635800",
    "lon": "-115.539400"
  },
  {
    "id": "650468",
    "country": "MX",
    "zipcode": "21135",
    "name": "Desarrollo Urbano Orizaba Sur",
    "region": "Baja California",
    "short_region": "02",
    "lat": "32.635800",
    "lon": "-115.539400"
  },
  {
    "id": "650469",
    "country": "MX",
    "zipcode": "21135",
    "name": "Los Faisanes",
    "region": "Baja California",
    "short_region": "02",
    "lat": "32.635800",
    "lon": "-115.539400"
  },
  {
    "id": "650470",
    "country": "MX",
    "zipcode": "21135",
    "name": "Los Olivos",
    "region": "Baja California",
    "short_region": "02",
    "lat": "32.635800",
    "lon": "-115.539400"
  },