[
  {
    "id": "520001",
    "country": "JP",
    "zipcode": "510-0",
    "name": "Kusucho Kitaisshiki",
    "region": "Mie Ken",
    "short_region": "23",
    "lat": "34.932200",
    "lon": "136.604300"
  },
  {
    "id": "520002",
    "country": "JP",
    "zipcode": "510-0",
    "name": "四日市市　楠総合支所",
    "region": "Mie Ken",
    "short_region": "23",
    "lat": "34.932200",
    "lon": "136.604300"
  },
  {
    "id": "520003",
    "country": "JP",
    "zipcode": "510-0",
    "name": "Mitsuyahigashimachi",
    "region": "Mie Ken",
    "short_region": "23",
    "lat": "34.981200",
    "lon": "136.633600"
  },
  {
    "id": "520004",
    "country": "JP",
    "zipcode": "510-0",
    "name": "Mitsuyacho",
    "region": "Mie Ken",
    "short_region": "23",
    "lat": "34.982400",
    "lon": "136.629900"
  },
  {
    "id": "520005",
    "country": "JP",
    "zipcode": "510-0",
    "name": "Akuragawacho",
    "region": "Mie Ken",
    "short_region": "23",
    "lat": "34.985400",
    "lon": "136.627400"
  },
  {
    "id": "520006",
    "country": "JP",
    "zipcode": "510-0",
    "name": "Bankocho",
    "region": "Mie Ken",
    "short_region": "23",
    "lat": "34.982500",
    "lon": "136.625400"
  },
  {
    "id": "520007",
    "country": "JP",
    "zipcode": "510-0",
    "name": "Higashiakuragawa",
    "region": "Mie Ken",
    "short_region": "23",
    "lat": "34.981200",
    "lon": "136.626100"
  },
  {
    "id": "520008",
    "country": "JP",
    "zipcode": "510-0",
    "name": "Hongocho",
    "region": "Mie Ken",
    "short_region": "23",
    "lat": "34.978500",
    "lon": "136.621100"
  },
  {
    "id": "520009",
    "country": "JP",
    "zipcode": "510-0",
    "name": "Suenagacho",
    "region": "Mie Ken",
    "short_region": "23",
    "lat": "34.976300",
    "lon": "136.620500"
  },
  {
    "id": "520010",
    "country": "JP",
    "zipcode": "510-0",
    "name": "Akuragawashimmachi",
    "region": "Mie Ken",
    "short_region": "23",
    "lat": "34.993800",
    "lon": "136.620600"
  },
  {
    "id": "520011",
    "country": "JP",
    "zipcode": "510-0",
    "name": "Miyukigaoka",
    "region": "Mie Ken",
    "short_region": "23",
    "lat": "34.980600",
    "lon": "136.611700"
  },
  {
    "id": "520012",
    "country": "JP",
    "zipcode": "510-0",
    "name": "Nishiakuragawa",
    "region": "Mie Ken",
    "short_region": "23",
    "lat": "34.980600",
    "lon": "136.611700"
  },
  {
    "id": "520013",
    "country": "JP",
    "zipcode": "510-0",
    "name": "Suenaga",
    "region": "Mie Ken",
    "short_region": "23",
    "lat": "34.980600",
    "lon": "136.611700"
  },
  {
    "id": "520014",
    "country": "JP",
    "zipcode": "510-0",
    "name": "Shimizucho",
    "region": "Mie Ken",
    "short_region": "23",
    "lat": "34.981300",
    "lon": "136.614900"
  },
  {
    "id": "520015",
    "country": "JP",
    "zipcode": "510-0",
    "name": "Noda",
    "region": "Mie Ken",
    "short_region": "23",
    "lat": "34.979900",
    "lon": "136.608700"
  },
  {
    "id": "520016",
    "country": "JP",
    "zipcode": "510-0",
    "name": "Kubota",
    "region": "Mie Ken",
    "short_region": "23",
    "lat": "34.974400",
    "lon": "136.609200"
  },
  {
    "id": "520017",
    "country": "JP",
    "zipcode": "510-0",
    "name": "Shibata",
    "region": "Mie Ken",
    "short_region": "23",
    "lat": "34.969900",
    "lon": "136.608200"
  },
  {
    "id": "520018",
    "country": "JP",
    "zipcode": "510-0",
    "name": "Shirokitacho",
    "region": "Mie Ken",
    "short_region": "23",
    "lat": "34.965300",
    "lon": "136.610500"
  },
  {
    "id": "520019",
    "country": "JP",
    "zipcode": "510-0",
    "name": "Shirohigashimachi",
    "region": "Mie Ken",
    "short_region": "23",
    "lat": "34.963500",
    "lon": "136.609300"
  },
  {
    "id": "520020",
    "country": "JP",
    "zipcode": "510-0",
    "name": "Akahori Shimmachi",
    "region": "Mie Ken",
    "short_region": "23",
    "lat": "34.965600",
    "lon": "136.607600"
  },
  {
    "id": "520021",
    "country": "JP",
    "zipcode": "510-0",
    "name": "Akahori",
    "region": "Mie Ken",
    "short_region": "23",
    "lat": "34.959900",
    "lon": "136.609300"
  },
  {
    "id": "520022",
    "country": "JP",
    "zipcode": "510-0",
    "name": "Akahori Minamimachi",
    "region": "Mie Ken",
    "short_region": "23",
    "lat": "34.965600",
    "lon": "136.607600"
  },
  {
    "id": "520023",
    "country": "JP",
    "zipcode": "510-0",
    "name": "Ishizukacho",
    "region": "Mie Ken",
    "short_region": "23",
    "lat": "34.961100",
    "lon": "136.603200"
  },
  {
    "id": "520024",
    "country": "JP",
    "zipcode": "510-0",
    "name": "Shironishicho",
    "region": "Mie Ken",
    "short_region": "23",
    "lat": "34.964800",
    "lon": "136.603600"
  },
  {
    "id": "520025",
    "country": "JP",
    "zipcode": "510-0",
    "name": "Nishiiguracho",
    "region": "Mie Ken",
    "short_region": "23",
    "lat": "34.975100",
    "lon": "136.601000"
  },
  {
    "id": "520026",
    "country": "JP",
    "zipcode": "510-0",
    "name": "Igura",
    "region": "Mie Ken",
    "short_region": "23",
    "lat": "34.973200",
    "lon": "136.601000"
  },
  {
    "id": "520027",
    "country": "JP",
    "zipcode": "510-0",
    "name": "Nakagawara",
    "region": "Mie Ken",
    "short_region": "23",
    "lat": "34.968800",
    "lon": "136.602400"
  },
  {
    "id": "520028",
    "country": "JP",
    "zipcode": "510-0",
    "name": "Tokiwa",
    "region": "Mie Ken",
    "short_region": "23",
    "lat": "34.965000",
    "lon": "136.596400"
  },
  {
    "id": "520029",
    "country": "JP",
    "zipcode": "510-0",
    "name": "Oide",
    "region": "Mie Ken",
    "short_region": "23",
    "lat": "34.972600",
    "lon": "136.591700"
  },
  {
    "id": "520030",
    "country": "JP",
    "zipcode": "510-0",
    "name": "Matsumoto",
    "region": "Mie Ken",
    "short_region": "23",
    "lat": "34.967700",
    "lon": "136.589700"
  },
  {
    "id": "520031",
    "country": "JP",
    "zipcode": "510-0",
    "name": "Nishimatsumotocho",
    "region": "Mie Ken",
    "short_region": "23",
    "lat": "34.969500",
    "lon": "136.584500"
  },
  {
    "id": "520032",
    "country": "JP",
    "zipcode": "510-0",
    "name": "Minamimatsumotocho",
    "region": "Mie Ken",
    "short_region": "23",
    "lat": "34.967100",
    "lon": "136.579800"
  },
  {
    "id": "520033",
    "country": "JP",
    "zipcode": "510-0",
    "name": "Aobacho",
    "region": "Mie Ken",
    "short_region": "23",
    "lat": "34.970700",
    "lon": "136.581500"
  },
  {
    "id": "520034",
    "country": "JP",
    "zipcode": "510-0",
    "name": "Mitacho",
    "region": "Mie Ken",
    "short_region": "23",
    "lat": "34.941300",
    "lon": "136.659100"
  },
  {
    "id": "520035",
    "country": "JP",
    "zipcode": "510-0",
    "name": "Ishiharacho",
    "region": "Mie Ken",
    "short_region": "23",
    "lat": "34.939600",
    "lon": "136.646400"
  },
  {
    "id": "520036",
    "country": "JP",
    "zipcode": "510-0",
    "name": "Miyahigashicho",
    "region": "Mie Ken",
    "short_region": "23",
    "lat": "34.964500",
    "lon": "136.606700"
  },
  {
    "id": "520037",
    "country": "JP",
    "zipcode": "510-0",
    "name": "Takaramachi",
    "region": "Mie Ken",
    "short_region": "23",
    "lat": "34.937300",
    "lon": "136.620200"
  },
  {
    "id": "520038",
    "country": "JP",
    "zipcode": "510-0",
    "name": "Miyamadocho",
    "region": "Mie Ken",
    "short_region": "23",
    "lat": "34.964500",
    "lon": "136.606700"
  },
  {
    "id": "520039",
    "country": "JP",
    "zipcode": "510-0",
    "name": "Oinokawacho",
    "region": "Mie Ken",
    "short_region": "23",
    "lat": "34.964500",
    "lon": "136.606700"
  },
  {
    "id": "520040",
    "country": "JP",
    "zipcode": "510-0",
    "name": "Ohamacho",
    "region": "Mie Ken",
    "short_region": "23",
    "lat": "34.947000",
    "lon": "136.626700"
  },
  {
    "id": "520041",
    "country": "JP",
    "zipcode": "510-0",
    "name": "Tohocho",
    "region": "Mie Ken",
    "short_region": "23",
    "lat": "34.944500",
    "lon": "136.630600"
  },
  {
    "id": "520042",
    "country": "JP",
    "zipcode": "510-0",
    "name": "Shiohamacho",
    "region": "Mie Ken",
    "short_region": "23",
    "lat": "34.936500",
    "lon": "136.634900"
  },
  {
    "id": "520043",
    "country": "JP",
    "zipcode": "510-0",
    "name": "Hamaasahicho",
    "region": "Mie Ken",
    "short_region": "23",
    "lat": "34.929800",
    "lon": "136.625400"
  },
  {
    "id": "520044",
    "country": "JP",
    "zipcode": "510-0",
    "name": "Kawaicho",
    "region": "Mie Ken",
    "short_region": "23",
    "lat": "34.927900",
    "lon": "136.625700"
  },
  {
    "id": "520045",
    "country": "JP",
    "zipcode": "510-0",
    "name": "Shiohamahommachi",
    "region": "Mie Ken",
    "short_region": "23",
    "lat": "34.964500",
    "lon": "136.606700"
  },
  {
    "id": "520046",
    "country": "JP",
    "zipcode": "510-0",
    "name": "Hasedashicho",
    "region": "Mie Ken",
    "short_region": "23",
    "lat": "34.964500",
    "lon": "136.606700"
  },
  {
    "id": "520047",
    "country": "JP",
    "zipcode": "510-0",
    "name": "Nanatsuyacho",
    "region": "Mie Ken",
    "short_region": "23",
    "lat": "34.937700",
    "lon": "136.625500"
  },
  {
    "id": "520048",
    "country": "JP",
    "zipcode": "510-0",
    "name": "Takaasahicho",
    "region": "Mie Ken",
    "short_region": "23",
    "lat": "34.935900",
    "lon": "136.625600"
  },
  {
    "id": "520049",
    "country": "JP",
    "zipcode": "510-0",
    "name": "Yanagimachi",
    "region": "Mie Ken",
    "short_region": "23",
    "lat": "34.934200",
    "lon": "136.620200"
  },
  {
    "id": "520050",
    "country": "JP",
    "zipcode": "510-0",
    "name": "Misonocho",
    "region": "Mie Ken",
    "short_region": "23",
    "lat": "34.964500",
    "lon": "136.606700"
  },
  {
    "id": "520051",
    "country": "JP",
    "zipcode": "510-0",
    "name": "Shiohama",
    "region": "Mie Ken",
    "short_region": "23",
    "lat": "34.964500",
    "lon": "136.606700"
  },
  {
    "id": "520052",
    "country": "JP",
    "zipcode": "510-0",
    "name": "Shiohamasakaemachi",
    "region": "Mie Ken",
    "short_region": "23",
    "lat": "34.964500",
    "lon": "136.606700"
  },
  {
    "id": "520053",
    "country": "JP",
    "zipcode": "510-0",
    "name": "Ozatocho",
    "region": "Mie Ken",
    "short_region": "23",
    "lat": "34.964500",
    "lon": "136.606700"
  },
  {
    "id": "520054",
    "country": "JP",
    "zipcode": "510-0",
    "name": "Isozu",
    "region": "Mie Ken",
    "short_region": "23",
    "lat": "34.964500",
    "lon": "136.606700"
  },
  {
    "id": "520055",
    "country": "JP",
    "zipcode": "510-0",
    "name": "Nakazatocho",
    "region": "Mie Ken",
    "short_region": "23",
    "lat": "34.931100",
    "lon": "136.617000"
  },
  {
    "id": "520056",
    "country": "JP",
    "zipcode": "510-0",
    "name": "Kohamacho",
    "region": "Mie Ken",
    "short_region": "23",
    "lat": "34.933500",
    "lon": "136.616900"
  },
  {
    "id": "520057",
    "country": "JP",
    "zipcode": "510-0",
    "name": "Oikecho",
    "region": "Mie Ken",
    "short_region": "23",
    "lat": "34.935300",
    "lon": "136.617200"
  },
  {
    "id": "520058",
    "country": "JP",
    "zipcode": "510-0",
    "name": "Shosencho",
    "region": "Mie Ken",
    "short_region": "23",
    "lat": "34.937900",
    "lon": "136.617500"
  },
  {
    "id": "520059",
    "country": "JP",
    "zipcode": "510-0",
    "name": "Hasedashi",
    "region": "Mie Ken",
    "short_region": "23",
    "lat": "34.964500",
    "lon": "136.606700"
  },
  {
    "id": "520060",
    "country": "JP",
    "zipcode": "510-0",
    "name": "Kawajiricho",
    "region": "Mie Ken",
    "short_region": "23",
    "lat": "34.928900",
    "lon": "136.608100"
  },
  {
    "id": "520061",
    "country": "JP",
    "zipcode": "510-0",
    "name": "Utsuboricho",
    "region": "Mie Ken",
    "short_region": "23",
    "lat": "34.922700",
    "lon": "136.609500"
  },
  {
    "id": "520062",
    "country": "JP",
    "zipcode": "510-0",
    "name": "Kaizukacho",
    "region": "Mie Ken",
    "short_region": "23",
    "lat": "34.916200",
    "lon": "136.613000"
  },
  {
    "id": "520063",
    "country": "JP",
    "zipcode": "510-0",
    "name": "Kawaradacho",
    "region": "Mie Ken",
    "short_region": "23",
    "lat": "34.914200",
    "lon": "136.598200"
  },
  {
    "id": "520064",
    "country": "JP",
    "zipcode": "510-0",
    "name": "Obata",
    "region": "Mie Ken",
    "short_region": "23",
    "lat": "34.928700",
    "lon": "136.600300"
  },
  {
    "id": "520065",
    "country": "JP",
    "zipcode": "510-0",
    "name": "Rokuromi",
    "region": "Mie Ken",
    "short_region": "23",
    "lat": "34.940900",
    "lon": "136.601300"
  },
  {
    "id": "520066",
    "country": "JP",
    "zipcode": "510-0",
    "name": "Oiwake",
    "region": "Mie Ken",
    "short_region": "23",
    "lat": "34.935600",
    "lon": "136.598500"
  },
  {
    "id": "520067",
    "country": "JP",
    "zipcode": "510-0",
    "name": "Tomarikoyanagicho",
    "region": "Mie Ken",
    "short_region": "23",
    "lat": "34.937500",
    "lon": "136.602900"
  },
  {
    "id": "520068",
    "country": "JP",
    "zipcode": "510-0",
    "name": "Tomaricho",
    "region": "Mie Ken",
    "short_region": "23",
    "lat": "34.939300",
    "lon": "136.599300"
  },
  {
    "id": "520069",
    "country": "JP",
    "zipcode": "510-0",
    "name": "Hinaga",
    "region": "Mie Ken",
    "short_region": "23",
    "lat": "34.950500",
    "lon": "136.604800"
  },
  {
    "id": "520070",
    "country": "JP",
    "zipcode": "510-0",
    "name": "Hinaga Higashi",
    "region": "Mie Ken",
    "short_region": "23",
    "lat": "34.940900",
    "lon": "136.601300"
  },
  {
    "id": "520071",
    "country": "JP",
    "zipcode": "510-0",
    "name": "Hinaga Nishi",
    "region": "Mie Ken",
    "short_region": "23",
    "lat": "34.938800",
    "lon": "136.594800"
  },
  {
    "id": "520072",
    "country": "JP",
    "zipcode": "510-0",
    "name": "Tomariyamazakicho",
    "region": "Mie Ken",
    "short_region": "23",
    "lat": "34.940900",
    "lon": "136.596000"
  },
  {
    "id": "520073",
    "country": "JP",
    "zipcode": "510-0",
    "name": "Maedacho",
    "region": "Mie Ken",
    "short_region": "23",
    "lat": "34.936700",
    "lon": "136.593800"
  },
  {
    "id": "520074",
    "country": "JP",
    "zipcode": "510-0",
    "name": "Tomarimura",
    "region": "Mie Ken",
    "short_region": "23",
    "lat": "34.938800",
    "lon": "136.594800"
  },
  {
    "id": "520075",
    "country": "JP",
    "zipcode": "510-0",
    "name": "Higashihino",
    "region": "Mie Ken",
    "short_region": "23",
    "lat": "34.956500",
    "lon": "136.597500"
  },
  {
    "id": "520076",
    "country": "JP",
    "zipcode": "510-0",
    "name": "Higashihinocho",
    "region": "Mie Ken",
    "short_region": "23",
    "lat": "34.958100",
    "lon": "136.593200"
  },
  {
    "id": "520077",
    "country": "JP",
    "zipcode": "510-0",
    "name": "Nishihinocho",
    "region": "Mie Ken",
    "short_region": "23",
    "lat": "34.953300",
    "lon": "136.587000"
  },
  {
    "id": "520078",
    "country": "JP",
    "zipcode": "510-0",
    "name": "Sasagawa",
    "region": "Mie Ken",
    "short_region": "23",
    "lat": "34.956500",
    "lon": "136.597500"
  },
  {
    "id": "520079",
    "country": "JP",
    "zipcode": "510-0",
    "name": "Takahanadaira",
    "region": "Mie Ken",
    "short_region": "23",
    "lat": "34.956500",
    "lon": "136.597500"
  },
  {
    "id": "520080",
    "country": "JP",
    "zipcode": "510-0",
    "name": "Kobayashicho",
    "region": "Mie Ken",
    "short_region": "23",
    "lat": "34.957200",
    "lon": "136.540600"
  },
  {
    "id": "520081",
    "country": "JP",
    "zipcode": "510-0",
    "name": "Hachiojicho",
    "region": "Mie Ken",
    "short_region": "23",
    "lat": "34.954500",
    "lon": "136.564000"
  },
  {
    "id": "520082",
    "country": "JP",
    "zipcode": "510-0",
    "name": "Muroyamacho",
    "region": "Mie Ken",
    "short_region": "23",
    "lat": "34.956000",
    "lon": "136.578100"
  },
  {
    "id": "520083",
    "country": "JP",
    "zipcode": "510-0",
    "name": "Ogosohigashi",
    "region": "Mie Ken",
    "short_region": "23",
    "lat": "34.925700",
    "lon": "136.593000"
  },
  {
    "id": "520084",
    "country": "JP",
    "zipcode": "510-0",
    "name": "Ogosocho",
    "region": "Mie Ken",
    "short_region": "23",
    "lat": "34.918700",
    "lon": "136.590500"
  },
  {
    "id": "520085",
    "country": "JP",
    "zipcode": "510-0",
    "name": "Unemegaoka",
    "region": "Mie Ken",
    "short_region": "23",
    "lat": "34.928000",
    "lon": "136.591500"
  },
  {
    "id": "520086",
    "country": "JP",
    "zipcode": "510-0",
    "name": "Unemecho",
    "region": "Mie Ken",
    "short_region": "23",
    "lat": "34.922300",
    "lon": "136.576300"
  },
  {
    "id": "520087",
    "country": "JP",
    "zipcode": "510-0",
    "name": "Kitakomatsucho",
    "region": "Mie Ken",
    "short_region": "23",
    "lat": "34.928600",
    "lon": "136.553700"
  },
  {
    "id": "520088",
    "country": "JP",
    "zipcode": "510-0",
    "name": "Kaigecho",
    "region": "Mie Ken",
    "short_region": "23",
    "lat": "34.930200",
    "lon": "136.566500"
  },
  {
    "id": "520089",
    "country": "JP",
    "zipcode": "510-0",
    "name": "Morigayamacho",
    "region": "Mie Ken",
    "short_region": "23",
    "lat": "34.931300",
    "lon": "136.583000"
  },
  {
    "id": "520090",
    "country": "JP",
    "zipcode": "510-0",
    "name": "Ogoso",
    "region": "Mie Ken",
    "short_region": "23",
    "lat": "34.930400",
    "lon": "136.590000"
  },
  {
    "id": "520091",
    "country": "JP",
    "zipcode": "510-0",
    "name": "Hagicho",
    "region": "Mie Ken",
    "short_region": "23",
    "lat": "34.942700",
    "lon": "136.558700"
  },
  {
    "id": "520092",
    "country": "JP",
    "zipcode": "510-0",
    "name": "Hagigaokacho",
    "region": "Mie Ken",
    "short_region": "23",
    "lat": "34.941700",
    "lon": "136.567600"
  },
  {
    "id": "520093",
    "country": "JP",
    "zipcode": "510-0",
    "name": "Hagiminamidai",
    "region": "Mie Ken",
    "short_region": "23",
    "lat": "34.937500",
    "lon": "136.593500"
  },
  {
    "id": "520094",
    "country": "JP",
    "zipcode": "510-0",
    "name": "Minamikomatsucho",
    "region": "Mie Ken",
    "short_region": "23",
    "lat": "34.921600",
    "lon": "136.558300"
  },
  {
    "id": "520095",
    "country": "JP",
    "zipcode": "510-8",
    "name": "Amagasuka",
    "region": "Mie Ken",
    "short_region": "23",
    "lat": "35.011700",
    "lon": "136.668900"
  },
  {
    "id": "520096",
    "country": "JP",
    "zipcode": "510-8",
    "name": "Amagasukashimmachi",
    "region": "Mie Ken",
    "short_region": "23",
    "lat": "35.006100",
    "lon": "136.670200"
  },
  {
    "id": "520097",
    "country": "JP",
    "zipcode": "510-8",
    "name": "Sumiyoshicho",
    "region": "Mie Ken",
    "short_region": "23",
    "lat": "35.009700",
    "lon": "136.664600"
  },
  {
    "id": "520098",
    "country": "JP",
    "zipcode": "510-8",
    "name": "Tomidaisshikicho",
    "region": "Mie Ken",
    "short_region": "23",
    "lat": "35.006600",
    "lon": "136.662800"
  },
  {
    "id": "520099",
    "country": "JP",
    "zipcode": "510-8",
    "name": "Fuso",
    "region": "Mie Ken",
    "short_region": "23",
    "lat": "35.004500",
    "lon": "136.659400"
  },
  {
    "id": "520100",
    "country": "JP",
    "zipcode": "510-8",
    "name": "Higashitomidacho",
    "region": "Mie Ken",
    "short_region": "23",
    "lat": "35.002100",
    "lon": "136.655800"
  },
  {
    "id": "520101",
    "country": "JP",
    "zipcode": "510-8",
    "name": "Tomidahamamotocho",
    "region": "Mie Ken",
    "short_region": "23",
    "lat": "35.000100",
    "lon": "136.653600"
  },
  {
    "id": "520102",
    "country": "JP",
    "zipcode": "510-8",
    "name": "Tomidahamacho",
    "region": "Mie Ken",
    "short_region": "23",
    "lat": "34.996500",
    "lon": "136.651500"
  },
  {
    "id": "520103",
    "country": "JP",
    "zipcode": "510-8",
    "name": "Hamazonocho",
    "region": "Mie Ken",
    "short_region": "23",
    "lat": "34.995600",
    "lon": "136.653400"
  },
  {
    "id": "520104",
    "country": "JP",
    "zipcode": "510-8",
    "name": "Higashimochibukucho",
    "region": "Mie Ken",
    "short_region": "23",
    "lat": "34.997600",
    "lon": "136.649100"
  },
  {
    "id": "520105",
    "country": "JP",
    "zipcode": "510-8",
    "name": "Mochibukucho",
    "region": "Mie Ken",
    "short_region": "23",
    "lat": "35.000000",
    "lon": "136.646800"
  },
  {
    "id": "520106",
    "country": "JP",
    "zipcode": "510-8",
    "name": "Minamitomidacho",
    "region": "Mie Ken",
    "short_region": "23",
    "lat": "35.002700",
    "lon": "136.649500"
  },
  {
    "id": "520107",
    "country": "JP",
    "zipcode": "510-8",
    "name": "Tomida",
    "region": "Mie Ken",
    "short_region": "23",
    "lat": "35.006300",
    "lon": "136.652200"
  },
  {
    "id": "520108",
    "country": "JP",
    "zipcode": "510-8",
    "name": "Matsubaracho",
    "region": "Mie Ken",
    "short_region": "23",
    "lat": "35.010900",
    "lon": "136.655200"
  },
  {
    "id": "520109",
    "country": "JP",
    "zipcode": "510-8",
    "name": "Tomisuharacho",
    "region": "Mie Ken",
    "short_region": "23",
    "lat": "35.009400",
    "lon": "136.658800"
  },
  {
    "id": "520110",
    "country": "JP",
    "zipcode": "510-8",
    "name": "Tairamachi",
    "region": "Mie Ken",
    "short_region": "23",
    "lat": "35.013600",
    "lon": "136.656700"
  },
  {
    "id": "520111",
    "country": "JP",
    "zipcode": "510-8",
    "name": "Matsutera",
    "region": "Mie Ken",
    "short_region": "23",
    "lat": "35.022000",
    "lon": "136.654800"
  },
  {
    "id": "520112",
    "country": "JP",
    "zipcode": "510-8",
    "name": "Makita",
    "region": "Mie Ken",
    "short_region": "23",
    "lat": "35.017400",
    "lon": "136.651700"
  },
  {
    "id": "520113",
    "country": "JP",
    "zipcode": "510-8",
    "name": "Nishitomida",
    "region": "Mie Ken",
    "short_region": "23",
    "lat": "35.015500",
    "lon": "136.649200"
  },
  {
    "id": "520114",
    "country": "JP",
    "zipcode": "510-8",
    "name": "Nishitomidacho",
    "region": "Mie Ken",
    "short_region": "23",
    "lat": "35.013600",
    "lon": "136.646700"
  },
  {
    "id": "520115",
    "country": "JP",
    "zipcode": "510-8",
    "name": "Tomidasakaemachi",
    "region": "Mie Ken",
    "short_region": "23",
    "lat": "35.010000",
    "lon": "136.646700"
  },
  {
    "id": "520116",
    "country": "JP",
    "zipcode": "510-8",
    "name": "Jushicho",
    "region": "Mie Ken",
    "short_region": "23",
    "lat": "35.011500",
    "lon": "136.644800"
  },
  {
    "id": "520117",
    "country": "JP",
    "zipcode": "510-8",
    "name": "Mochibuku",
    "region": "Mie Ken",
    "short_region": "23",
    "lat": "35.018300",
    "lon": "136.651900"
  },
  {
    "id": "520118",
    "country": "JP",
    "zipcode": "510-8",
    "name": "Shimonomiyacho",
    "region": "Mie Ken",
    "short_region": "23",
    "lat": "35.015400",
    "lon": "136.641300"
  },
  {
    "id": "520119",
    "country": "JP",
    "zipcode": "510-8",
    "name": "Kawakita",
    "region": "Mie Ken",
    "short_region": "23",
    "lat": "35.022300",
    "lon": "136.647000"
  },
  {
    "id": "520120",
    "country": "JP",
    "zipcode": "510-8",
    "name": "Kawakitacho",
    "region": "Mie Ken",
    "short_region": "23",
    "lat": "35.026900",
    "lon": "136.650100"
  },
  {
    "id": "520121",
    "country": "JP",
    "zipcode": "510-8",
    "name": "Shimosazaraicho",
    "region": "Mie Ken",
    "short_region": "23",
    "lat": "35.019800",
    "lon": "136.642700"
  },
  {
    "id": "520122",
    "country": "JP",
    "zipcode": "510-8",
    "name": "Oyachicho",
    "region": "Mie Ken",
    "short_region": "23",
    "lat": "35.017300",
    "lon": "136.631200"
  },
  {
    "id": "520123",
    "country": "JP",
    "zipcode": "510-8",
    "name": "Higashitarusakacho",
    "region": "Mie Ken",
    "short_region": "23",
    "lat": "35.006000",
    "lon": "136.620300"
  },
  {
    "id": "520124",
    "country": "JP",
    "zipcode": "510-8",
    "name": "Minamitarusakacho",
    "region": "Mie Ken",
    "short_region": "23",
    "lat": "35.004100",
    "lon": "136.612200"
  },
  {
    "id": "520125",
    "country": "JP",
    "zipcode": "510-8",
    "name": "Tarusakacho",
    "region": "Mie Ken",
    "short_region": "23",
    "lat": "35.008100",
    "lon": "136.614800"
  },
  {
    "id": "520126",
    "country": "JP",
    "zipcode": "510-8",
    "name": "Tarusakashimmachi",
    "region": "Mie Ken",
    "short_region": "23",
    "lat": "35.002800",
    "lon": "136.609400"
  },
  {
    "id": "520127",
    "country": "JP",
    "zipcode": "510-8",
    "name": "Oyachishimmachi",
    "region": "Mie Ken",
    "short_region": "23",
    "lat": "35.023100",
    "lon": "136.628000"
  },
  {
    "id": "520128",
    "country": "JP",
    "zipcode": "510-8",
    "name": "Daikyocho",
    "region": "Mie Ken",
    "short_region": "23",
    "lat": "35.009900",
    "lon": "136.647000"
  },
  {
    "id": "520129",
    "country": "JP",
    "zipcode": "510-8",
    "name": "Nishisuehirocho",
    "region": "Mie Ken",
    "short_region": "23",
    "lat": "35.009900",
    "lon": "136.647000"
  },
  {
    "id": "520130",
    "country": "JP",
    "zipcode": "510-8",
    "name": "Suwasakaemachi",
    "region": "Mie Ken",
    "short_region": "23",
    "lat": "35.009900",
    "lon": "136.647000"
  },
  {
    "id": "520131",
    "country": "JP",
    "zipcode": "510-8",
    "name": "Nakanayacho",
    "region": "Mie Ken",
    "short_region": "23",
    "lat": "35.009900",
    "lon": "136.647000"
  },
  {
    "id": "520132",
    "country": "JP",
    "zipcode": "510-8",
    "name": "Shinsho",
    "region": "Mie Ken",
    "short_region": "23",
    "lat": "35.009900",
    "lon": "136.647000"
  },
  {
    "id": "520133",
    "country": "JP",
    "zipcode": "510-8",
    "name": "ささがわ通り心・身クリニック",
    "region": "Mie Ken",
    "short_region": "23",
    "lat": "35.009900",
    "lon": "136.647000"
  },
  {
    "id": "520134",
    "country": "JP",
    "zipcode": "510-8",
    "name": "Unomori",
    "region": "Mie Ken",
    "short_region": "23",
    "lat": "35.009900",
    "lon": "136.647000"
  },
  {
    "id": "520135",
    "country": "JP",
    "zipcode": "510-8",
    "name": "Shimmachi",
    "region": "Mie Ken",
    "short_region": "23",
    "lat": "35.009900",
    "lon": "136.647000"
  },
  {
    "id": "520136",
    "country": "JP",
    "zipcode": "510-8",
    "name": "Kitahamamachi",
    "region": "Mie Ken",
    "short_region": "23",
    "lat": "35.009900",
    "lon": "136.647000"
  },
  {
    "id": "520137",
    "country": "JP",
    "zipcode": "510-8",
    "name": "Saneicho",
    "region": "Mie Ken",
    "short_region": "23",
    "lat": "35.009900",
    "lon": "136.647000"
  },
  {
    "id": "520138",
    "country": "JP",
    "zipcode": "510-8",
    "name": "Hamadacho",
    "region": "Mie Ken",
    "short_region": "23",
    "lat": "35.009900",
    "lon": "136.647000"
  },
  {
    "id": "520139",
    "country": "JP",
    "zipcode": "510-8",
    "name": "Tohocho",
    "region": "Mie Ken",
    "short_region": "23",
    "lat": "35.009900",
    "lon": "136.647000"
  },
  {
    "id": "520140",
    "country": "JP",
    "zipcode": "510-8",
    "name": "Kasumi",
    "region": "Mie Ken",
    "short_region": "23",
    "lat": "35.009900",
    "lon": "136.647000"
  },
  {
    "id": "520141",
    "country": "JP",
    "zipcode": "510-8",
    "name": "Kawashirimachi",
    "region": "Mie Ken",
    "short_region": "23",
    "lat": "35.009900",
    "lon": "136.647000"
  },
  {
    "id": "520142",
    "country": "JP",
    "zipcode": "510-8",
    "name": "Kitahamadacho",
    "region": "Mie Ken",
    "short_region": "23",
    "lat": "35.009900",
    "lon": "136.647000"
  },
  {
    "id": "520143",
    "country": "JP",
    "zipcode": "510-8",
    "name": "Nishiura",
    "region": "Mie Ken",
    "short_region": "23",
    "lat": "35.009900",
    "lon": "136.647000"
  },
  {
    "id": "520144",
    "country": "JP",
    "zipcode": "510-8",
    "name": "Hasedashi",
    "region": "Mie Ken",
    "short_region": "23",
    "lat": "35.009900",
    "lon": "136.647000"
  },
  {
    "id": "520145",
    "country": "JP",
    "zipcode": "510-8",
    "name": "三重県立　総合医療センター",
    "region": "Mie Ken",
    "short_region": "23",
    "lat": "35.009900",
    "lon": "136.647000"
  },
  {
    "id": "520146",
    "country": "JP",
    "zipcode": "510-8",
    "name": "三重県立　四日市南高等学校",
    "region": "Mie Ken",
    "short_region": "23",
    "lat": "35.009900",
    "lon": "136.647000"
  },
  {
    "id": "520147",
    "country": "JP",
    "zipcode": "510-8",
    "name": "Shibata",
    "region": "Mie Ken",
    "short_region": "23",
    "lat": "35.009900",
    "lon": "136.647000"
  },
  {
    "id": "520148",
    "country": "JP",
    "zipcode": "510-8",
    "name": "社会医療法人居仁会　総合心療センターひなが",
    "region": "Mie Ken",
    "short_region": "23",
    "lat": "35.009900",
    "lon": "136.647000"
  },
  {
    "id": "520149",
    "country": "JP",
    "zipcode": "510-8",
    "name": "Yasujima",
    "region": "Mie Ken",
    "short_region": "23",
    "lat": "35.009900",
    "lon": "136.647000"
  },
  {
    "id": "520150",
    "country": "JP",
    "zipcode": "510-8",
    "name": "太陽化学　株式会社",
    "region": "Mie Ken",
    "short_region": "23",
    "lat": "35.009900",
    "lon": "136.647000"
  },
  {
    "id": "520151",
    "country": "JP",
    "zipcode": "510-8",
    "name": "Suwacho",
    "region": "Mie Ken",
    "short_region": "23",
    "lat": "35.009900",
    "lon": "136.647000"
  },
  {
    "id": "520152",
    "country": "JP",
    "zipcode": "510-8",
    "name": "Ogamicho",
    "region": "Mie Ken",
    "short_region": "23",
    "lat": "35.009900",
    "lon": "136.647000"
  },
  {
    "id": "520153",
    "country": "JP",
    "zipcode": "510-8",
    "name": "Okinoshimacho",
    "region": "Mie Ken",
    "short_region": "23",
    "lat": "35.009900",
    "lon": "136.647000"
  },
  {
    "id": "520154",
    "country": "JP",
    "zipcode": "510-8",
    "name": "Nishishinchi",
    "region": "Mie Ken",
    "short_region": "23",
    "lat": "35.009900",
    "lon": "136.647000"
  },
  {
    "id": "520155",
    "country": "JP",
    "zipcode": "510-8",
    "name": "Fujicho",
    "region": "Mie Ken",
    "short_region": "23",
    "lat": "35.009900",
    "lon": "136.647000"
  },
  {
    "id": "520156",
    "country": "JP",
    "zipcode": "512-0",
    "name": "Suizawanodacho",
    "region": "Mie Ken",
    "short_region": "23",
    "lat": "34.960500",
    "lon": "136.482800"
  },
  {
    "id": "520157",
    "country": "JP",
    "zipcode": "512-0",
    "name": "Otanidai",
    "region": "Mie Ken",
    "short_region": "23",
    "lat": "35.000300",
    "lon": "136.604700"
  },
  {
    "id": "520158",
    "country": "JP",
    "zipcode": "512-0",
    "name": "Kosugicho",
    "region": "Mie Ken",
    "short_region": "23",
    "lat": "34.991000",
    "lon": "136.607800"
  },
  {
    "id": "520159",
    "country": "JP",
    "zipcode": "512-0",
    "name": "Kosugishimmachi",
    "region": "Mie Ken",
    "short_region": "23",
    "lat": "34.999000",
    "lon": "136.608200"
  },
  {
    "id": "520160",
    "country": "JP",
    "zipcode": "512-0",
    "name": "Higashisakabecho",
    "region": "Mie Ken",
    "short_region": "23",
    "lat": "34.997500",
    "lon": "136.599800"
  },
  {
    "id": "520161",
    "country": "JP",
    "zipcode": "512-0",
    "name": "Sakabegaoka",
    "region": "Mie Ken",
    "short_region": "23",
    "lat": "35.000300",
    "lon": "136.604700"
  },
  {
    "id": "520162",
    "country": "JP",
    "zipcode": "512-0",
    "name": "Yamanoisshikicho",
    "region": "Mie Ken",
    "short_region": "23",
    "lat": "35.012700",
    "lon": "136.600900"
  },
  {
    "id": "520163",
    "country": "JP",
    "zipcode": "512-0",
    "name": "Higashigatani",
    "region": "Mie Ken",
    "short_region": "23",
    "lat": "35.001600",
    "lon": "136.607000"
  },
  {
    "id": "520164",
    "country": "JP",
    "zipcode": "512-0",
    "name": "Sakabedai",
    "region": "Mie Ken",
    "short_region": "23",
    "lat": "35.000300",
    "lon": "136.604700"
  },
  {
    "id": "520165",
    "country": "JP",
    "zipcode": "512-0",
    "name": "Ikuwacho",
    "region": "Mie Ken",
    "short_region": "23",
    "lat": "34.983900",
    "lon": "136.600000"
  },
  {
    "id": "520166",
    "country": "JP",
    "zipcode": "512-0",
    "name": "Mie",
    "region": "Mie Ken",
    "short_region": "23",
    "lat": "34.993100",
    "lon": "136.592700"
  },
  {
    "id": "520167",
    "country": "JP",
    "zipcode": "512-0",
    "name": "Nishisakabecho",
    "region": "Mie Ken",
    "short_region": "23",
    "lat": "35.004100",
    "lon": "136.585300"
  },
  {
    "id": "520168",
    "country": "JP",
    "zipcode": "512-0",
    "name": "Minamisakabecho",
    "region": "Mie Ken",
    "short_region": "23",
    "lat": "34.991300",
    "lon": "136.592800"
  },
  {
    "id": "520169",
    "country": "JP",
    "zipcode": "512-0",
    "name": "Obiracho",
    "region": "Mie Ken",
    "short_region": "23",
    "lat": "34.978500",
    "lon": "136.588800"
  },
  {
    "id": "520170",
    "country": "JP",
    "zipcode": "512-0",
    "name": "Soicho",
    "region": "Mie Ken",
    "short_region": "23",
    "lat": "34.986900",
    "lon": "136.575400"
  },
  {
    "id": "520171",
    "country": "JP",
    "zipcode": "512-0",
    "name": "Takatsunocho",
    "region": "Mie Ken",
    "short_region": "23",
    "lat": "34.985300",
    "lon": "136.558600"
  },
  {
    "id": "520172",
    "country": "JP",
    "zipcode": "512-0",
    "name": "Teragatacho",
    "region": "Mie Ken",
    "short_region": "23",
    "lat": "34.993100",
    "lon": "136.564500"
  },
  {
    "id": "520173",
    "country": "JP",
    "zipcode": "512-0",
    "name": "Sugaharacho",
    "region": "Mie Ken",
    "short_region": "23",
    "lat": "34.994600",
    "lon": "136.555700"
  },
  {
    "id": "520174",
    "country": "JP",
    "zipcode": "512-0",
    "name": "Ukihashi",
    "region": "Mie Ken",
    "short_region": "23",
    "lat": "34.973400",
    "lon": "136.562200"
  },
  {
    "id": "520175",
    "country": "JP",
    "zipcode": "512-0",
    "name": "Komocho",
    "region": "Mie Ken",
    "short_region": "23",
    "lat": "34.975100",
    "lon": "136.577300"
  },
  {
    "id": "520176",
    "country": "JP",
    "zipcode": "512-0",
    "name": "Mitakidai",
    "region": "Mie Ken",
    "short_region": "23",
    "lat": "34.973400",
    "lon": "136.562200"
  },
  {
    "id": "520177",
    "country": "JP",
    "zipcode": "512-0",
    "name": "Kawashimacho",
    "region": "Mie Ken",
    "short_region": "23",
    "lat": "34.968700",
    "lon": "136.549900"
  },
  {
    "id": "520178",
    "country": "JP",
    "zipcode": "512-0",
    "name": "Kawashimashimmachi",
    "region": "Mie Ken",
    "short_region": "23",
    "lat": "34.976300",
    "lon": "136.559500"
  },
  {
    "id": "520179",
    "country": "JP",
    "zipcode": "512-0",
    "name": "Betsuyama",
    "region": "Mie Ken",
    "short_region": "23",
    "lat": "34.973400",
    "lon": "136.562200"
  },
  {
    "id": "520180",
    "country": "JP",
    "zipcode": "512-1",
    "name": "Uchiyamacho",
    "region": "Mie Ken",
    "short_region": "23",
    "lat": "34.963600",
    "lon": "136.539600"
  },
  {
    "id": "520181",
    "country": "JP",
    "zipcode": "512-1",
    "name": "Oyamacho",
    "region": "Mie Ken",
    "short_region": "23",
    "lat": "34.966100",
    "lon": "136.525600"
  },
  {
    "id": "520182",
    "country": "JP",
    "zipcode": "512-1",
    "name": "Nishiyamacho",
    "region": "Mie Ken",
    "short_region": "23",
    "lat": "34.962900",
    "lon": "136.518400"
  },
  {
    "id": "520183",
    "country": "JP",
    "zipcode": "512-1",
    "name": "Misatocho",
    "region": "Mie Ken",
    "short_region": "23",
    "lat": "34.960800",
    "lon": "136.508800"
  },
  {
    "id": "520184",
    "country": "JP",
    "zipcode": "512-1",
    "name": "Suizawacho",
    "region": "Mie Ken",
    "short_region": "23",
    "lat": "34.976700",
    "lon": "136.487500"
  },
  {
    "id": "520185",
    "country": "JP",
    "zipcode": "512-1",
    "name": "Yamadacho",
    "region": "Mie Ken",
    "short_region": "23",
    "lat": "34.945100",
    "lon": "136.537100"
  },
  {
    "id": "520186",
    "country": "JP",
    "zipcode": "512-1",
    "name": "Shikamacho",
    "region": "Mie Ken",
    "short_region": "23",
    "lat": "34.930300",
    "lon": "136.533400"
  },
  {
    "id": "520187",
    "country": "JP",
    "zipcode": "512-1",
    "name": "Wandacho",
    "region": "Mie Ken",
    "short_region": "23",
    "lat": "34.939500",
    "lon": "136.517400"
  },
  {
    "id": "520188",
    "country": "JP",
    "zipcode": "512-1",
    "name": "Dogayamacho",
    "region": "Mie Ken",
    "short_region": "23",
    "lat": "34.951600",
    "lon": "136.508600"
  },
  {
    "id": "520189",
    "country": "JP",
    "zipcode": "512-1",
    "name": "Rokumyocho",
    "region": "Mie Ken",
    "short_region": "23",
    "lat": "34.939800",
    "lon": "136.527700"
  },
  {
    "id": "520190",
    "country": "JP",
    "zipcode": "512-1",
    "name": "Kamiebicho",
    "region": "Mie Ken",
    "short_region": "23",
    "lat": "35.025600",
    "lon": "136.559400"
  },
  {
    "id": "520191",
    "country": "JP",
    "zipcode": "512-1",
    "name": "Agatagaoka",
    "region": "Mie Ken",
    "short_region": "23",
    "lat": "35.013300",
    "lon": "136.553700"
  },
  {
    "id": "520192",
    "country": "JP",
    "zipcode": "512-1",
    "name": "Shimoebicho",
    "region": "Mie Ken",
    "short_region": "23",
    "lat": "35.016100",
    "lon": "136.574700"
  },
  {
    "id": "520193",
    "country": "JP",
    "zipcode": "512-1",
    "name": "Akozucho",
    "region": "Mie Ken",
    "short_region": "23",
    "lat": "35.012200",
    "lon": "136.556400"
  },
  {
    "id": "520194",
    "country": "JP",
    "zipcode": "512-1",
    "name": "Hiraocho",
    "region": "Mie Ken",
    "short_region": "23",
    "lat": "35.002800",
    "lon": "136.557600"
  },
  {
    "id": "520195",
    "country": "JP",
    "zipcode": "512-1",
    "name": "Emuracho",
    "region": "Mie Ken",
    "short_region": "23",
    "lat": "35.008900",
    "lon": "136.545900"
  },
  {
    "id": "520196",
    "country": "JP",
    "zipcode": "512-1",
    "name": "Kurodacho",
    "region": "Mie Ken",
    "short_region": "23",
    "lat": "35.012700",
    "lon": "136.538300"
  },
  {
    "id": "520197",
    "country": "JP",
    "zipcode": "512-1",
    "name": "Kitanocho",
    "region": "Mie Ken",
    "short_region": "23",
    "lat": "35.014800",
    "lon": "136.543700"
  },
  {
    "id": "520198",
    "country": "JP",
    "zipcode": "512-1",
    "name": "Sakuracho",
    "region": "Mie Ken",
    "short_region": "23",
    "lat": "34.988000",
    "lon": "136.506200"
  },
  {
    "id": "520199",
    "country": "JP",
    "zipcode": "512-1",
    "name": "Chishakucho",
    "region": "Mie Ken",
    "short_region": "23",
    "lat": "34.987600",
    "lon": "136.546900"
  },
  {
    "id": "520200",
    "country": "JP",
    "zipcode": "512-1",
    "name": "Sakuradaihommachi",
    "region": "Mie Ken",
    "short_region": "23",
    "lat": "34.988800",
    "lon": "136.538200"
  },
  {
    "id": "520201",
    "country": "JP",
    "zipcode": "512-1",
    "name": "Sakuradai",
    "region": "Mie Ken",
    "short_region": "23",
    "lat": "34.988100",
    "lon": "136.530500"
  },
  {
    "id": "520202",
    "country": "JP",
    "zipcode": "512-1",
    "name": "Sakurashimmachi",
    "region": "Mie Ken",
    "short_region": "23",
    "lat": "34.988100",
    "lon": "136.530500"
  },
  {
    "id": "520203",
    "country": "JP",
    "zipcode": "512-1",
    "name": "Okadai",
    "region": "Mie Ken",
    "short_region": "23",
    "lat": "34.988100",
    "lon": "136.530500"
  },
  {
    "id": "520204",
    "country": "JP",
    "zipcode": "512-1",
    "name": "Takamidai",
    "region": "Mie Ken",
    "short_region": "23",
    "lat": "35.050300",
    "lon": "136.562000"
  },
  {
    "id": "520205",
    "country": "JP",
    "zipcode": "512-1",
    "name": "Ichibacho",
    "region": "Mie Ken",
    "short_region": "23",
    "lat": "35.058500",
    "lon": "136.561200"
  },
  {
    "id": "520206",
    "country": "JP",
    "zipcode": "512-1",
    "name": "Komakicho",
    "region": "Mie Ken",
    "short_region": "23",
    "lat": "35.044600",
    "lon": "136.572100"
  },
  {
    "id": "520207",
    "country": "JP",
    "zipcode": "512-1",
    "name": "Nakanocho",
    "region": "Mie Ken",
    "short_region": "23",
    "lat": "35.044000",
    "lon": "136.560200"
  },
  {
    "id": "520208",
    "country": "JP",
    "zipcode": "512-1",
    "name": "Nishimuracho",
    "region": "Mie Ken",
    "short_region": "23",
    "lat": "35.054000",
    "lon": "136.554600"
  },
  {
    "id": "520209",
    "country": "JP",
    "zipcode": "512-1",
    "name": "Makinokidai",
    "region": "Mie Ken",
    "short_region": "23",
    "lat": "35.050300",
    "lon": "136.562000"
  },
  {
    "id": "520210",
    "country": "JP",
    "zipcode": "512-8",
    "name": "Yamakecho",
    "region": "Mie Ken",
    "short_region": "23",
    "lat": "35.026800",
    "lon": "136.632500"
  },
  {
    "id": "520211",
    "country": "JP",
    "zipcode": "512-8",
    "name": "Heizucho",
    "region": "Mie Ken",
    "short_region": "23",
    "lat": "35.024000",
    "lon": "136.618000"
  },
  {
    "id": "520212",
    "country": "JP",
    "zipcode": "512-8",
    "name": "Heizushimmachi",
    "region": "Mie Ken",
    "short_region": "23",
    "lat": "35.024800",
    "lon": "136.623500"
  },
  {
    "id": "520213",
    "country": "JP",
    "zipcode": "512-8",
    "name": "Nakamuracho",
    "region": "Mie Ken",
    "short_region": "23",
    "lat": "35.026500",
    "lon": "136.610100"
  },
  {
    "id": "520214",
    "country": "JP",
    "zipcode": "512-8",
    "name": "Kayocho",
    "region": "Mie Ken",
    "short_region": "23",
    "lat": "35.022300",
    "lon": "136.603500"
  },
  {
    "id": "520215",
    "country": "JP",
    "zipcode": "512-8",
    "name": "Akatsukidai",
    "region": "Mie Ken",
    "short_region": "23",
    "lat": "35.025500",
    "lon": "136.610800"
  },
  {
    "id": "520216",
    "country": "JP",
    "zipcode": "512-8",
    "name": "Yachiyodai",
    "region": "Mie Ken",
    "short_region": "23",
    "lat": "35.025500",
    "lon": "136.610800"
  },
  {
    "id": "520217",
    "country": "JP",
    "zipcode": "512-8",
    "name": "Yamajocho",
    "region": "Mie Ken",
    "short_region": "23",
    "lat": "35.028600",
    "lon": "136.577300"
  },
  {
    "id": "520218",
    "country": "JP",
    "zipcode": "512-8",
    "name": "Kitayamacho",
    "region": "Mie Ken",
    "short_region": "23",
    "lat": "35.042900",
    "lon": "136.589200"
  },
  {
    "id": "520219",
    "country": "JP",
    "zipcode": "512-8",
    "name": "Nishioganecho",
    "region": "Mie Ken",
    "short_region": "23",
    "lat": "35.043300",
    "lon": "136.602100"
  },
  {
    "id": "520220",
    "country": "JP",
    "zipcode": "512-8",
    "name": "Oganecho",
    "region": "Mie Ken",
    "short_region": "23",
    "lat": "35.038000",
    "lon": "136.606500"
  },
  {
    "id": "520221",
    "country": "JP",
    "zipcode": "512-8",
    "name": "Asakecho",
    "region": "Mie Ken",
    "short_region": "23",
    "lat": "35.039500",
    "lon": "136.587000"
  },
  {
    "id": "520222",
    "country": "JP",
    "zipcode": "512-8",
    "name": "Asakegaoka",
    "region": "Mie Ken",
    "short_region": "23",
    "lat": "35.040200",
    "lon": "136.591600"
  },
  {
    "id": "520223",
    "country": "JP",
    "zipcode": "512-8",
    "name": "Satsubacho",
    "region": "Mie Ken",
    "short_region": "23",
    "lat": "35.037100",
    "lon": "136.573300"
  },
  {
    "id": "520224",
    "country": "JP",
    "zipcode": "512-8",
    "name": "Hironagacho",
    "region": "Mie Ken",
    "short_region": "23",
    "lat": "35.030700",
    "lon": "136.641000"
  },
  {
    "id": "520225",
    "country": "JP",
    "zipcode": "512-8",
    "name": "Koganecho",
    "region": "Mie Ken",
    "short_region": "23",
    "lat": "35.027300",
    "lon": "136.637400"
  },
  {
    "id": "520226",
    "country": "JP",
    "zipcode": "512-8",
    "name": "Yamamuracho",
    "region": "Mie Ken",
    "short_region": "23",
    "lat": "35.038100",
    "lon": "136.637600"
  },
  {
    "id": "520227",
    "country": "JP",
    "zipcode": "512-8",
    "name": "Isakacho",
    "region": "Mie Ken",
    "short_region": "23",
    "lat": "35.039200",
    "lon": "136.624000"
  },
  {
    "id": "520228",
    "country": "JP",
    "zipcode": "512-8",
    "name": "Chiyodacho",
    "region": "Mie Ken",
    "short_region": "23",
    "lat": "35.031600",
    "lon": "136.620500"
  },
  {
    "id": "520229",
    "country": "JP",
    "zipcode": "512-8",
    "name": "Isakadai",
    "region": "Mie Ken",
    "short_region": "23",
    "lat": "35.033400",
    "lon": "136.632100"
  },
  {
    "id": "520230",
    "country": "JP",
    "zipcode": "512-8",
    "name": "Yamanoisshikicho",
    "region": "Mie Ken",
    "short_region": "23",
    "lat": "35.032300",
    "lon": "136.611400"
  },
  {
    "id": "520231",
    "country": "JP",
    "zipcode": "516-0",
    "name": "Ikanikeisaiganaibaai",
    "region": "Mie Ken",
    "short_region": "23",
    "lat": "34.345100",
    "lon": "136.713800"
  },
  {
    "id": "520232",
    "country": "JP",
    "zipcode": "516-0",
    "name": "Gokashora",
    "region": "Mie Ken",
    "short_region": "23",
    "lat": "34.345100",
    "lon": "136.713800"
  },
  {
    "id": "520233",
    "country": "JP",
    "zipcode": "516-0",
    "name": "Kirihara",
    "region": "Mie Ken",
    "short_region": "23",
    "lat": "34.373800",
    "lon": "136.713400"
  },
  {
    "id": "520234",
    "country": "JP",
    "zipcode": "516-0",
    "name": "Izumi",
    "region": "Mie Ken",
    "short_region": "23",
    "lat": "34.357700",
    "lon": "136.725500"
  },
  {
    "id": "520235",
    "country": "JP",
    "zipcode": "516-0",
    "name": "Konsa",
    "region": "Mie Ken",
    "short_region": "23",
    "lat": "34.351500",
    "lon": "136.735300"
  },
  {
    "id": "520236",
    "country": "JP",
    "zipcode": "516-0",
    "name": "Shimotsura",
    "region": "Mie Ken",
    "short_region": "23",
    "lat": "34.330200",
    "lon": "136.735000"
  },
  {
    "id": "520237",
    "country": "JP",
    "zipcode": "516-0",
    "name": "Kidani",
    "region": "Mie Ken",
    "short_region": "23",
    "lat": "34.322900",
    "lon": "136.722700"
  },
  {
    "id": "520238",
    "country": "JP",
    "zipcode": "516-0",
    "name": "Hamma",
    "region": "Mie Ken",
    "short_region": "23",
    "lat": "34.346000",
    "lon": "136.710900"
  },
  {
    "id": "520239",
    "country": "JP",
    "zipcode": "516-0",
    "name": "Nakatsuhamaura",
    "region": "Mie Ken",
    "short_region": "23",
    "lat": "34.330100",
    "lon": "136.686600"
  },
  {
    "id": "520240",
    "country": "JP",
    "zipcode": "516-0",
    "name": "Funakoshi",
    "region": "Mie Ken",
    "short_region": "23",
    "lat": "34.348400",
    "lon": "136.681000"
  },
  {
    "id": "520241",
    "country": "JP",
    "zipcode": "516-0",
    "name": "Naize",
    "region": "Mie Ken",
    "short_region": "23",
    "lat": "34.348600",
    "lon": "136.658800"
  },
  {
    "id": "520242",
    "country": "JP",
    "zipcode": "516-0",
    "name": "Iseji",
    "region": "Mie Ken",
    "short_region": "23",
    "lat": "34.366200",
    "lon": "136.655600"
  },
  {
    "id": "520243",
    "country": "JP",
    "zipcode": "516-0",
    "name": "Saita",
    "region": "Mie Ken",
    "short_region": "23",
    "lat": "34.352200",
    "lon": "136.623200"
  },
  {
    "id": "520244",
    "country": "JP",
    "zipcode": "516-0",
    "name": "Hajikami",
    "region": "Mie Ken",
    "short_region": "23",
    "lat": "34.340000",
    "lon": "136.615600"
  },
  {
    "id": "520245",
    "country": "JP",
    "zipcode": "516-0",
    "name": "Oshibuchi",
    "region": "Mie Ken",
    "short_region": "23",
    "lat": "34.321900",
    "lon": "136.614300"
  },
  {
    "id": "520246",
    "country": "JP",
    "zipcode": "516-0",
    "name": "Hasamaura",
    "region": "Mie Ken",
    "short_region": "23",
    "lat": "34.317600",
    "lon": "136.637700"
  },
  {
    "id": "520247",
    "country": "JP",
    "zipcode": "516-0",
    "name": "Sazaraura",
    "region": "Mie Ken",
    "short_region": "23",
    "lat": "34.309100",
    "lon": "136.667600"
  },
  {
    "id": "520248",
    "country": "JP",
    "zipcode": "516-0",
    "name": "Okaura",
    "region": "Mie Ken",
    "short_region": "23",
    "lat": "34.293700",
    "lon": "136.638800"
  },
  {
    "id": "520249",
    "country": "JP",
    "zipcode": "516-0",
    "name": "Shukura",
    "region": "Mie Ken",
    "short_region": "23",
    "lat": "34.308200",
    "lon": "136.699600"
  },
  {
    "id": "520250",
    "country": "JP",
    "zipcode": "516-0",
    "name": "Tasora",
    "region": "Mie Ken",
    "short_region": "23",
    "lat": "34.295000",
    "lon": "136.701700"
  },
  {
    "id": "520251",
    "country": "JP",
    "zipcode": "516-1",
    "name": "Kawaguchi",
    "region": "Mie Ken",
    "short_region": "23",
    "lat": "34.411500",
    "lon": "136.631900"
  },
  {
    "id": "520252",
    "country": "JP",
    "zipcode": "516-1",
    "name": "Kurihara",
    "region": "Mie Ken",
    "short_region": "23",
    "lat": "34.412400",
    "lon": "136.608300"
  },
  {
    "id": "520253",
    "country": "JP",
    "zipcode": "516-1",
    "name": "Hinata",
    "region": "Mie Ken",
    "short_region": "23",
    "lat": "34.393700",
    "lon": "136.611700"
  },
  {
    "id": "520254",
    "country": "JP",
    "zipcode": "516-1",
    "name": "Hiuchiishi",
    "region": "Mie Ken",
    "short_region": "23",
    "lat": "34.378300",
    "lon": "136.620200"
  },
  {
    "id": "520255",
    "country": "JP",
    "zipcode": "516-1",
    "name": "Komagano",
    "region": "Mie Ken",
    "short_region": "23",
    "lat": "34.376300",
    "lon": "136.597300"
  },
  {
    "id": "520256",
    "country": "JP",
    "zipcode": "516-1",
    "name": "Ogawa",
    "region": "Mie Ken",
    "short_region": "23",
    "lat": "34.387400",
    "lon": "136.574700"
  },
  {
    "id": "520257",
    "country": "JP",
    "zipcode": "516-1",
    "name": "Gokanocho",
    "region": "Mie Ken",
    "short_region": "23",
    "lat": "34.395700",
    "lon": "136.585000"
  },
  {
    "id": "520258",
    "country": "JP",
    "zipcode": "516-1",
    "name": "Nakanogo",
    "region": "Mie Ken",
    "short_region": "23",
    "lat": "34.403200",
    "lon": "136.597900"
  },
  {
    "id": "520259",
    "country": "JP",
    "zipcode": "516-1",
    "name": "Yanagi",
    "region": "Mie Ken",
    "short_region": "23",
    "lat": "34.367700",
    "lon": "136.591100"
  },
  {
    "id": "520260",
    "country": "JP",
    "zipcode": "516-1",
    "name": "Ichiba",
    "region": "Mie Ken",
    "short_region": "23",
    "lat": "34.356500",
    "lon": "136.585100"
  },
  {
    "id": "520261",
    "country": "JP",
    "zipcode": "516-1",
    "name": "Waino",
    "region": "Mie Ken",
    "short_region": "23",
    "lat": "34.355600",
    "lon": "136.600200"
  },
  {
    "id": "520262",
    "country": "JP",
    "zipcode": "516-1",
    "name": "Minaminakamura",
    "region": "Mie Ken",
    "short_region": "23",
    "lat": "34.331000",
    "lon": "136.589600"
  },
  {
    "id": "520263",
    "country": "JP",
    "zipcode": "516-1",
    "name": "Kawakami",
    "region": "Mie Ken",
    "short_region": "23",
    "lat": "34.350200",
    "lon": "136.541800"
  },
  {
    "id": "520264",
    "country": "JP",
    "zipcode": "516-1",
    "name": "Wakide",
    "region": "Mie Ken",
    "short_region": "23",
    "lat": "34.350900",
    "lon": "136.579900"
  },
  {
    "id": "520265",
    "country": "JP",
    "zipcode": "516-1",
    "name": "Kohagi",
    "region": "Mie Ken",
    "short_region": "23",
    "lat": "34.370500",
    "lon": "136.565400"
  },
  {
    "id": "520266",
    "country": "JP",
    "zipcode": "516-1",
    "name": "Michikata",
    "region": "Mie Ken",
    "short_region": "23",
    "lat": "34.305300",
    "lon": "136.572300"
  },
  {
    "id": "520267",
    "country": "JP",
    "zipcode": "516-1",
    "name": "Oe",
    "region": "Mie Ken",
    "short_region": "23",
    "lat": "34.299900",
    "lon": "136.609300"
  },
  {
    "id": "520268",
    "country": "JP",
    "zipcode": "516-1",
    "name": "Michiyukugama",
    "region": "Mie Ken",
    "short_region": "23",
    "lat": "34.282900",
    "lon": "136.606800"
  },
  {
    "id": "520269",
    "country": "JP",
    "zipcode": "516-1",
    "name": "Okatagama",
    "region": "Mie Ken",
    "short_region": "23",
    "lat": "34.265900",
    "lon": "136.596400"
  },
  {
    "id": "520270",
    "country": "JP",
    "zipcode": "516-1",
    "name": "Asora",
    "region": "Mie Ken",
    "short_region": "23",
    "lat": "34.260000",
    "lon": "136.595600"
  },
  {
    "id": "520271",
    "country": "JP",
    "zipcode": "516-1",
    "name": "Tashikaraura",
    "region": "Mie Ken",
    "short_region": "23",
    "lat": "34.292100",
    "lon": "136.561500"
  },
  {
    "id": "520272",
    "country": "JP",
    "zipcode": "516-1",
    "name": "Nieura",
    "region": "Mie Ken",
    "short_region": "23",
    "lat": "34.283500",
    "lon": "136.553300"
  },
  {
    "id": "520273",
    "country": "JP",
    "zipcode": "516-1",
    "name": "Nayaura",
    "region": "Mie Ken",
    "short_region": "23",
    "lat": "34.278900",
    "lon": "136.542100"
  },
  {
    "id": "520274",
    "country": "JP",
    "zipcode": "516-1",
    "name": "Togu",
    "region": "Mie Ken",
    "short_region": "23",
    "lat": "34.292100",
    "lon": "136.543500"
  },
  {
    "id": "520275",
    "country": "JP",
    "zipcode": "516-1",
    "name": "Kochi",
    "region": "Mie Ken",
    "short_region": "23",
    "lat": "34.299500",
    "lon": "136.518800"
  },
  {
    "id": "520276",
    "country": "JP",
    "zipcode": "516-1",
    "name": "Kamisakiura",
    "region": "Mie Ken",
    "short_region": "23",
    "lat": "34.260000",
    "lon": "136.505400"
  },
  {
    "id": "520277",
    "country": "JP",
    "zipcode": "516-1",
    "name": "Murayama",
    "region": "Mie Ken",
    "short_region": "23",
    "lat": "34.299600",
    "lon": "136.480200"
  },
  {
    "id": "520278",
    "country": "JP",
    "zipcode": "516-1",
    "name": "Hozaura",
    "region": "Mie Ken",
    "short_region": "23",
    "lat": "34.252600",
    "lon": "136.506500"
  },
  {
    "id": "520279",
    "country": "JP",
    "zipcode": "516-1",
    "name": "Ogatagama",
    "region": "Mie Ken",
    "short_region": "23",
    "lat": "34.246200",
    "lon": "136.490900"
  },
  {
    "id": "520280",
    "country": "JP",
    "zipcode": "516-1",
    "name": "Tochinokigama",
    "region": "Mie Ken",
    "short_region": "23",
    "lat": "34.244600",
    "lon": "136.471100"
  },
  {
    "id": "520281",
    "country": "JP",
    "zipcode": "516-1",
    "name": "Kowaura",
    "region": "Mie Ken",
    "short_region": "23",
    "lat": "34.269700",
    "lon": "136.451100"
  },
  {
    "id": "520282",
    "country": "JP",
    "zipcode": "516-1",
    "name": "Tanahashigama",
    "region": "Mie Ken",
    "short_region": "23",
    "lat": "34.254900",
    "lon": "136.429200"
  },
  {
    "id": "520283",
    "country": "JP",
    "zipcode": "516-1",
    "name": "Sarakuwagama",
    "region": "Mie Ken",
    "short_region": "23",
    "lat": "34.232900",
    "lon": "136.436900"
  },
  {
    "id": "520284",
    "country": "JP",
    "zipcode": "516-2",
    "name": "Ikanikeisaiganaibaai",
    "region": "Mie Ken",
    "short_region": "23",
    "lat": "34.440800",
    "lon": "136.607700"
  },
  {
    "id": "520285",
    "country": "JP",
    "zipcode": "516-2",
    "name": "Kuzuwara",
    "region": "Mie Ken",
    "short_region": "23",
    "lat": "34.450400",
    "lon": "136.644600"
  },
  {
    "id": "520286",
    "country": "JP",
    "zipcode": "516-2",
    "name": "Onoki",
    "region": "Mie Ken",
    "short_region": "23",
    "lat": "34.442300",
    "lon": "136.635900"
  },
  {
    "id": "520287",
    "country": "JP",
    "zipcode": "516-2",
    "name": "Tanahashi",
    "region": "Mie Ken",
    "short_region": "23",
    "lat": "34.444300",
    "lon": "136.619900"
  },
  {
    "id": "520288",
    "country": "JP",
    "zipcode": "516-2",
    "name": "Makido",
    "region": "Mie Ken",
    "short_region": "23",
    "lat": "34.444400",
    "lon": "136.609600"
  },
  {
    "id": "520289",
    "country": "JP",
    "zipcode": "516-2",
    "name": "Hiro",
    "region": "Mie Ken",
    "short_region": "23",
    "lat": "34.446500",
    "lon": "136.598500"
  },
  {
    "id": "520290",
    "country": "JP",
    "zipcode": "516-2",
    "name": "Okubo",
    "region": "Mie Ken",
    "short_region": "23",
    "lat": "34.441700",
    "lon": "136.586100"
  },
  {
    "id": "520291",
    "country": "JP",
    "zipcode": "516-2",
    "name": "Tachioka",
    "region": "Mie Ken",
    "short_region": "23",
    "lat": "34.438800",
    "lon": "136.580600"
  },
  {
    "id": "520292",
    "country": "JP",
    "zipcode": "516-2",
    "name": "Haikawa",
    "region": "Mie Ken",
    "short_region": "23",
    "lat": "34.417600",
    "lon": "136.586400"
  },
  {
    "id": "520293",
    "country": "JP",
    "zipcode": "516-2",
    "name": "Shimokugu",
    "region": "Mie Ken",
    "short_region": "23",
    "lat": "34.427000",
    "lon": "136.617300"
  },
  {
    "id": "520294",
    "country": "JP",
    "zipcode": "516-2",
    "name": "Kamikugu",
    "region": "Mie Ken",
    "short_region": "23",
    "lat": "34.425600",
    "lon": "136.602800"
  },
  {
    "id": "520295",
    "country": "JP",
    "zipcode": "516-2",
    "name": "Tama",
    "region": "Mie Ken",
    "short_region": "23",
    "lat": "34.434400",
    "lon": "136.599500"
  },
  {
    "id": "520296",
    "country": "JP",
    "zipcode": "516-2",
    "name": "Tozu",
    "region": "Mie Ken",
    "short_region": "23",
    "lat": "34.428600",
    "lon": "136.575200"
  },
  {
    "id": "520297",
    "country": "JP",
    "zipcode": "516-2",
    "name": "Nagawara",
    "region": "Mie Ken",
    "short_region": "23",
    "lat": "34.417900",
    "lon": "136.565900"
  },
  {
    "id": "520298",
    "country": "JP",
    "zipcode": "516-2",
    "name": "Sakai",
    "region": "Mie Ken",
    "short_region": "23",
    "lat": "34.443800",
    "lon": "136.568100"
  },
  {
    "id": "520299",
    "country": "JP",
    "zipcode": "516-2",
    "name": "Makae",
    "region": "Mie Ken",
    "short_region": "23",
    "lat": "34.436100",
    "lon": "136.557400"
  },
  {
    "id": "520300",
    "country": "JP",
    "zipcode": "516-2",
    "name": "Taguchi",
    "region": "Mie Ken",
    "short_region": "23",
    "lat": "34.439600",
    "lon": "136.550000"
  },
  {
    "id": "520301",
    "country": "JP",
    "zipcode": "516-2",
    "name": "Shimesasu",
    "region": "Mie Ken",
    "short_region": "23",
    "lat": "34.404100",
    "lon": "136.540500"
  },
  {
    "id": "520302",
    "country": "JP",
    "zipcode": "519-0",
    "name": "Ikanikeisaiganaibaai",
    "region": "Mie Ken",
    "short_region": "23",
    "lat": "34.507000",
    "lon": "136.629100"
  },
  {
    "id": "520303",
    "country": "JP",
    "zipcode": "519-0",
    "name": "Seko",
    "region": "Mie Ken",
    "short_region": "23",
    "lat": "34.514400",
    "lon": "136.626800"
  },
  {
    "id": "520304",
    "country": "JP",
    "zipcode": "519-0",
    "name": "Monzen",
    "region": "Mie Ken",
    "short_region": "23",
    "lat": "34.509700",
    "lon": "136.629500"
  },
  {
    "id": "520305",
    "country": "JP",
    "zipcode": "519-0",
    "name": "Igura",
    "region": "Mie Ken",
    "short_region": "23",
    "lat": "34.511100",
    "lon": "136.640600"
  },
  {
    "id": "520306",
    "country": "JP",
    "zipcode": "519-0",
    "name": "Nagafuke",
    "region": "Mie Ken",
    "short_region": "23",
    "lat": "34.503800",
    "lon": "136.637900"
  },
  {
    "id": "520307",
    "country": "JP",
    "zipcode": "519-0",
    "name": "Hyuga",
    "region": "Mie Ken",
    "short_region": "23",
    "lat": "34.506100",
    "lon": "136.627700"
  },
  {
    "id": "520308",
    "country": "JP",
    "zipcode": "519-0",
    "name": "Okamura",
    "region": "Mie Ken",
    "short_region": "23",
    "lat": "34.499400",
    "lon": "136.628300"
  },
  {
    "id": "520309",
    "country": "JP",
    "zipcode": "519-0",
    "name": "Tamagawa",
    "region": "Mie Ken",
    "short_region": "23",
    "lat": "34.502900",
    "lon": "136.620800"
  },
  {
    "id": "520310",
    "country": "JP",
    "zipcode": "519-0",
    "name": "Sakamoto",
    "region": "Mie Ken",
    "short_region": "23",
    "lat": "34.508900",
    "lon": "136.621200"
  },
  {
    "id": "520311",
    "country": "JP",
    "zipcode": "519-0",
    "name": "Kubo",
    "region": "Mie Ken",
    "short_region": "23",
    "lat": "34.500700",
    "lon": "136.653700"
  },
  {
    "id": "520312",
    "country": "JP",
    "zipcode": "519-0",
    "name": "Churaku",
    "region": "Mie Ken",
    "short_region": "23",
    "lat": "34.497400",
    "lon": "136.645200"
  },
  {
    "id": "520313",
    "country": "JP",
    "zipcode": "519-0",
    "name": "Myohoji",
    "region": "Mie Ken",
    "short_region": "23",
    "lat": "34.495700",
    "lon": "136.639100"
  },
  {
    "id": "520314",
    "country": "JP",
    "zipcode": "519-0",
    "name": "Sata",
    "region": "Mie Ken",
    "short_region": "23",
    "lat": "34.488400",
    "lon": "136.639500"
  },
  {
    "id": "520315",
    "country": "JP",
    "zipcode": "519-0",
    "name": "Tamaru",
    "region": "Mie Ken",
    "short_region": "23",
    "lat": "34.491400",
    "lon": "136.632700"
  },
  {
    "id": "520316",
    "country": "JP",
    "zipcode": "519-0",
    "name": "Shimotanui",
    "region": "Mie Ken",
    "short_region": "23",
    "lat": "34.493700",
    "lon": "136.623800"
  },
  {
    "id": "520317",
    "country": "JP",
    "zipcode": "519-0",
    "name": "Kamitanui",
    "region": "Mie Ken",
    "short_region": "23",
    "lat": "34.498600",
    "lon": "136.610300"
  },
  {
    "id": "520318",
    "country": "JP",
    "zipcode": "519-0",
    "name": "Tomioka",
    "region": "Mie Ken",
    "short_region": "23",
    "lat": "34.485200",
    "lon": "136.652200"
  },
  {
    "id": "520319",
    "country": "JP",
    "zipcode": "519-0",
    "name": "Ogososone",
    "region": "Mie Ken",
    "short_region": "23",
    "lat": "34.478700",
    "lon": "136.651900"
  },
  {
    "id": "520320",
    "country": "JP",
    "zipcode": "519-0",
    "name": "Hiruda",
    "region": "Mie Ken",
    "short_region": "23",
    "lat": "34.475400",
    "lon": "136.665300"
  },
  {
    "id": "520321",
    "country": "JP",
    "zipcode": "519-0",
    "name": "Yamaoka",
    "region": "Mie Ken",
    "short_region": "23",
    "lat": "34.475200",
    "lon": "136.654500"
  },
  {
    "id": "520322",
    "country": "JP",
    "zipcode": "519-0",
    "name": "Iwade",
    "region": "Mie Ken",
    "short_region": "23",
    "lat": "34.463400",
    "lon": "136.647400"
  },
  {
    "id": "520323",
    "country": "JP",
    "zipcode": "519-0",
    "name": "Nakatsuno",
    "region": "Mie Ken",
    "short_region": "23",
    "lat": "34.468200",
    "lon": "136.645500"
  },
  {
    "id": "520324",
    "country": "JP",
    "zipcode": "519-0",
    "name": "Miyako",
    "region": "Mie Ken",
    "short_region": "23",
    "lat": "34.465600",
    "lon": "136.630500"
  },
  {
    "id": "520325",
    "country": "JP",
    "zipcode": "519-0",
    "name": "Okade",
    "region": "Mie Ken",
    "short_region": "23",
    "lat": "34.480500",
    "lon": "136.640900"
  },
  {
    "id": "520326",
    "country": "JP",
    "zipcode": "519-0",
    "name": "Kano",
    "region": "Mie Ken",
    "short_region": "23",
    "lat": "34.487300",
    "lon": "136.599200"
  },
  {
    "id": "520327",
    "country": "JP",
    "zipcode": "519-0",
    "name": "Nojino",
    "region": "Mie Ken",
    "short_region": "23",
    "lat": "34.485400",
    "lon": "136.615900"
  },
  {
    "id": "520328",
    "country": "JP",
    "zipcode": "519-0",
    "name": "Katsuta",
    "region": "Mie Ken",
    "short_region": "23",
    "lat": "34.474600",
    "lon": "136.621300"
  },
  {
    "id": "520329",
    "country": "JP",
    "zipcode": "519-0",
    "name": "Tamiyaji",
    "region": "Mie Ken",
    "short_region": "23",
    "lat": "34.470000",
    "lon": "136.614200"
  },
  {
    "id": "520330",
    "country": "JP",
    "zipcode": "519-0",
    "name": "Yano",
    "region": "Mie Ken",
    "short_region": "23",
    "lat": "34.481500",
    "lon": "136.609100"
  },
  {
    "id": "520331",
    "country": "JP",
    "zipcode": "519-0",
    "name": "Yamakami",
    "region": "Mie Ken",
    "short_region": "23",
    "lat": "34.464900",
    "lon": "136.606400"
  },
  {
    "id": "520332",
    "country": "JP",
    "zipcode": "519-0",
    "name": "Tsumuro",
    "region": "Mie Ken",
    "short_region": "23",
    "lat": "34.463900",
    "lon": "136.596500"
  },
  {
    "id": "520333",
    "country": "JP",
    "zipcode": "519-0",
    "name": "Hara",
    "region": "Mie Ken",
    "short_region": "23",
    "lat": "34.470400",
    "lon": "136.586700"
  },
  {
    "id": "520334",
    "country": "JP",
    "zipcode": "519-0",
    "name": "Sada",
    "region": "Mie Ken",
    "short_region": "23",
    "lat": "34.488100",
    "lon": "136.629500"
  },
  {
    "id": "520335",
    "country": "JP",
    "zipcode": "519-2",
    "name": "Ikanikeisaiganaibaai",
    "region": "Mie Ken",
    "short_region": "23",
    "lat": "34.371600",
    "lon": "136.423900"
  },
  {
    "id": "520336",
    "country": "JP",
    "zipcode": "519-2",
    "name": "Funaki",
    "region": "Mie Ken",
    "short_region": "23",
    "lat": "34.393800",
    "lon": "136.417600"
  },
  {
    "id": "520337",
    "country": "JP",
    "zipcode": "519-2",
    "name": "Misegawa",
    "region": "Mie Ken",
    "short_region": "23",
    "lat": "34.390700",
    "lon": "136.427400"
  },
  {
    "id": "520338",
    "country": "JP",
    "zipcode": "519-2",
    "name": "Takihara",
    "region": "Mie Ken",
    "short_region": "23",
    "lat": "34.367600",
    "lon": "136.430600"
  },
  {
    "id": "520339",
    "country": "JP",
    "zipcode": "519-2",
    "name": "Aso",
    "region": "Mie Ken",
    "short_region": "23",
    "lat": "34.334200",
    "lon": "136.420100"
  },
  {
    "id": "520340",
    "country": "JP",
    "zipcode": "519-2",
    "name": "Nowara",
    "region": "Mie Ken",
    "short_region": "23",
    "lat": "34.414500",
    "lon": "136.519300"
  },
  {
    "id": "520341",
    "country": "JP",
    "zipcode": "519-2",
    "name": "Nozoe",
    "region": "Mie Ken",
    "short_region": "23",
    "lat": "34.411700",
    "lon": "136.494200"
  },
  {
    "id": "520342",
    "country": "JP",
    "zipcode": "519-2",
    "name": "Kanawa",
    "region": "Mie Ken",
    "short_region": "23",
    "lat": "34.389400",
    "lon": "136.503600"
  },
  {
    "id": "520343",
    "country": "JP",
    "zipcode": "519-2",
    "name": "Eikai",
    "region": "Mie Ken",
    "short_region": "23",
    "lat": "34.363300",
    "lon": "136.484200"
  },
  {
    "id": "520344",
    "country": "JP",
    "zipcode": "519-2",
    "name": "Konohara",
    "region": "Mie Ken",
    "short_region": "23",
    "lat": "34.394200",
    "lon": "136.456900"
  },
  {
    "id": "520345",
    "country": "JP",
    "zipcode": "519-2",
    "name": "Uchimi",
    "region": "Mie Ken",
    "short_region": "23",
    "lat": "34.411000",
    "lon": "136.478100"
  },
  {
    "id": "520346",
    "country": "JP",
    "zipcode": "519-2",
    "name": "Kashiwano",
    "region": "Mie Ken",
    "short_region": "23",
    "lat": "34.309300",
    "lon": "136.426700"
  },
  {
    "id": "520347",
    "country": "JP",
    "zipcode": "519-2",
    "name": "Saki",
    "region": "Mie Ken",
    "short_region": "23",
    "lat": "34.298700",
    "lon": "136.396400"
  },
  {
    "id": "520348",
    "country": "JP",
    "zipcode": "519-2",
    "name": "Nishiki",
    "region": "Mie Ken",
    "short_region": "23",
    "lat": "34.236800",
    "lon": "136.395400"
  },
  {
    "id": "520349",
    "country": "JP",
    "zipcode": "519-3",
    "name": "Ouchiyama",
    "region": "Mie Ken",
    "short_region": "23",
    "lat": "34.274500",
    "lon": "136.326600"
  },
  {
    "id": "520350",
    "country": "JP",
    "zipcode": "510-0",
    "name": "Kawagecho Nishichisato",
    "region": "Mie Ken",
    "short_region": "23",
    "lat": "34.932200",
    "lon": "136.604300"
  },
  {
    "id": "520351",
    "country": "JP",
    "zipcode": "510-0",
    "name": "Kawagecho Chisatogaoka",
    "region": "Mie Ken",
    "short_region": "23",
    "lat": "34.932200",
    "lon": "136.604300"
  },
  {
    "id": "520352",
    "country": "JP",
    "zipcode": "510-0",
    "name": "Kawagecho Higashichisato",
    "region": "Mie Ken",
    "short_region": "23",
    "lat": "34.932200",
    "lon": "136.604300"
  },
  {
    "id": "520353",
    "country": "JP",
    "zipcode": "510-0",
    "name": "Kawagecho Ueno",
    "region": "Mie Ken",
    "short_region": "23",
    "lat": "34.932200",
    "lon": "136.604300"
  },
  {
    "id": "520354",
    "country": "JP",
    "zipcode": "510-0",
    "name": "Kawagecho Nakabeppo",
    "region": "Mie Ken",
    "short_region": "23",
    "lat": "34.932200",
    "lon": "136.604300"
  },
  {
    "id": "520355",
    "country": "JP",
    "zipcode": "510-0",
    "name": "Kawagecho Isshiki",
    "region": "Mie Ken",
    "short_region": "23",
    "lat": "34.932200",
    "lon": "136.604300"
  },
  {
    "id": "520356",
    "country": "JP",
    "zipcode": "510-0",
    "name": "Kawagecho Kageshige",
    "region": "Mie Ken",
    "short_region": "23",
    "lat": "34.932200",
    "lon": "136.604300"
  },
  {
    "id": "520357",
    "country": "JP",
    "zipcode": "510-0",
    "name": "Kawagecho Nakaze",
    "region": "Mie Ken",
    "short_region": "23",
    "lat": "34.932200",
    "lon": "136.604300"
  },
  {
    "id": "520358",
    "country": "JP",
    "zipcode": "510-0",
    "name": "Kawagecho Miyuki",
    "region": "Mie Ken",
    "short_region": "23",
    "lat": "34.932200",
    "lon": "136.604300"
  },
  {
    "id": "520359",
    "country": "JP",
    "zipcode": "510-0",
    "name": "Kawagecho Kuchino",
    "region": "Mie Ken",
    "short_region": "23",
    "lat": "34.932200",
    "lon": "136.604300"
  },
  {
    "id": "520360",
    "country": "JP",
    "zipcode": "510-0",
    "name": "Kawagecho Akabu",
    "region": "Mie Ken",
    "short_region": "23",
    "lat": "34.932200",
    "lon": "136.604300"
  },
  {
    "id": "520361",
    "country": "JP",
    "zipcode": "510-0",
    "name": "Kawagecho Hamada",
    "region": "Mie Ken",
    "short_region": "23",
    "lat": "34.932200",
    "lon": "136.604300"
  },
  {
    "id": "520362",
    "country": "JP",
    "zipcode": "510-0",
    "name": "Kawagecho Takasa",
    "region": "Mie Ken",
    "short_region": "23",
    "lat": "34.932200",
    "lon": "136.604300"
  },
  {
    "id": "520363",
    "country": "JP",
    "zipcode": "510-0",
    "name": "Kawagecho Minamikuroda",
    "region": "Mie Ken",
    "short_region": "23",
    "lat": "34.932200",
    "lon": "136.604300"
  },
  {
    "id": "520364",
    "country": "JP",
    "zipcode": "510-0",
    "name": "Kawagecho Kitakuroda",
    "region": "Mie Ken",
    "short_region": "23",
    "lat": "34.932200",
    "lon": "136.604300"
  },
  {
    "id": "520365",
    "country": "JP",
    "zipcode": "510-0",
    "name": "Kawagecho Morinomachi",
    "region": "Mie Ken",
    "short_region": "23",
    "lat": "34.932200",
    "lon": "136.604300"
  },
  {
    "id": "520366",
    "country": "JP",
    "zipcode": "510-0",
    "name": "津市　河芸総合支所",
    "region": "Mie Ken",
    "short_region": "23",
    "lat": "34.932200",
    "lon": "136.604300"
  },
  {
    "id": "520367",
    "country": "JP",
    "zipcode": "514-0",
    "name": "Ikanikeisaiganaibaai",
    "region": "Mie Ken",
    "short_region": "23",
    "lat": "34.718500",
    "lon": "136.504700"
  },
  {
    "id": "520368",
    "country": "JP",
    "zipcode": "514-0",
    "name": "Edobashi",
    "region": "Mie Ken",
    "short_region": "23",
    "lat": "34.718500",
    "lon": "136.504700"
  },
  {
    "id": "520369",
    "country": "JP",
    "zipcode": "514-0",
    "name": "Shimazakicho",
    "region": "Mie Ken",
    "short_region": "23",
    "lat": "34.732200",
    "lon": "136.524200"
  },
  {
    "id": "520370",
    "country": "JP",
    "zipcode": "514-0",
    "name": "Sakurabashi",
    "region": "Mie Ken",
    "short_region": "23",
    "lat": "34.718500",
    "lon": "136.504700"
  },
  {
    "id": "520371",
    "country": "JP",
    "zipcode": "514-0",
    "name": "Sakaemachi",
    "region": "Mie Ken",
    "short_region": "23",
    "lat": "34.718500",
    "lon": "136.504700"
  },
  {
    "id": "520372",
    "country": "JP",
    "zipcode": "514-0",
    "name": "Toriicho",
    "region": "Mie Ken",
    "short_region": "23",
    "lat": "34.726200",
    "lon": "136.505600"
  },
  {
    "id": "520373",
    "country": "JP",
    "zipcode": "514-0",
    "name": "Komeicho",
    "region": "Mie Ken",
    "short_region": "23",
    "lat": "34.731300",
    "lon": "136.507000"
  },
  {
    "id": "520374",
    "country": "JP",
    "zipcode": "514-0",
    "name": "Otanicho",
    "region": "Mie Ken",
    "short_region": "23",
    "lat": "34.736600",
    "lon": "136.506200"
  },
  {
    "id": "520375",
    "country": "JP",
    "zipcode": "514-0",
    "name": "Kamihamacho",
    "region": "Mie Ken",
    "short_region": "23",
    "lat": "34.718500",
    "lon": "136.504700"
  },
  {
    "id": "520376",
    "country": "JP",
    "zipcode": "514-0",
    "name": "Hadokorocho",
    "region": "Mie Ken",
    "short_region": "23",
    "lat": "34.733400",
    "lon": "136.511200"
  },
  {
    "id": "520377",
    "country": "JP",
    "zipcode": "514-0",
    "name": "Nagisamachi",
    "region": "Mie Ken",
    "short_region": "23",
    "lat": "34.711900",
    "lon": "136.524300"
  },
  {
    "id": "520378",
    "country": "JP",
    "zipcode": "514-0",
    "name": "Takasucho",
    "region": "Mie Ken",
    "short_region": "23",
    "lat": "34.727700",
    "lon": "136.525500"
  },
  {
    "id": "520379",
    "country": "JP",
    "zipcode": "514-0",
    "name": "Suehirocho",
    "region": "Mie Ken",
    "short_region": "23",
    "lat": "34.721300",
    "lon": "136.524200"
  },
  {
    "id": "520380",
    "country": "JP",
    "zipcode": "514-0",
    "name": "Kaigancho",
    "region": "Mie Ken",
    "short_region": "23",
    "lat": "34.716900",
    "lon": "136.522800"
  },
  {
    "id": "520381",
    "country": "JP",
    "zipcode": "514-0",
    "name": "Minatomachi",
    "region": "Mie Ken",
    "short_region": "23",
    "lat": "34.713800",
    "lon": "136.523400"
  },
  {
    "id": "520382",
    "country": "JP",
    "zipcode": "514-0",
    "name": "Kotobukicho",
    "region": "Mie Ken",
    "short_region": "23",
    "lat": "34.714300",
    "lon": "136.516900"
  },
  {
    "id": "520383",
    "country": "JP",
    "zipcode": "514-0",
    "name": "Otobe",
    "region": "Mie Ken",
    "short_region": "23",
    "lat": "34.720100",
    "lon": "136.517700"
  },
  {
    "id": "520384",
    "country": "JP",
    "zipcode": "514-0",
    "name": "Aioicho",
    "region": "Mie Ken",
    "short_region": "23",
    "lat": "34.724200",
    "lon": "136.515000"
  },
  {
    "id": "520385",
    "country": "JP",
    "zipcode": "514-0",
    "name": "Nakagawara",
    "region": "Mie Ken",
    "short_region": "23",
    "lat": "34.724000",
    "lon": "136.519800"
  },
  {
    "id": "520386",
    "country": "JP",
    "zipcode": "514-0",
    "name": "Sumiyoshicho",
    "region": "Mie Ken",
    "short_region": "23",
    "lat": "34.727400",
    "lon": "136.520500"
  },
  {
    "id": "520387",
    "country": "JP",
    "zipcode": "514-0",
    "name": "Yorozumachi Tsu",
    "region": "Mie Ken",
    "short_region": "23",
    "lat": "34.724800",
    "lon": "136.511300"
  },
  {
    "id": "520388",
    "country": "JP",
    "zipcode": "514-0",
    "name": "Atagocho",
    "region": "Mie Ken",
    "short_region": "23",
    "lat": "34.725000",
    "lon": "136.512800"
  },
  {
    "id": "520389",
    "country": "JP",
    "zipcode": "514-0",
    "name": "Kitamachi Tsu",
    "region": "Mie Ken",
    "short_region": "23",
    "lat": "34.722800",
    "lon": "136.511900"
  },
  {
    "id": "520390",
    "country": "JP",
    "zipcode": "514-0",
    "name": "Shintatemachi Tsu",
    "region": "Mie Ken",
    "short_region": "23",
    "lat": "34.717700",
    "lon": "136.512700"
  },
  {
    "id": "520391",
    "country": "JP",
    "zipcode": "514-0",
    "name": "Higashimachi Tsu",
    "region": "Mie Ken",
    "short_region": "23",
    "lat": "34.721900",
    "lon": "136.512100"
  },
  {
    "id": "520392",
    "country": "JP",
    "zipcode": "514-0",
    "name": "Shinhigashimachi Tose",
    "region": "Mie Ken",
    "short_region": "23",
    "lat": "34.717700",
    "lon": "136.512700"
  },
  {
    "id": "520393",
    "country": "JP",
    "zipcode": "514-0",
    "name": "Daimon",
    "region": "Mie Ken",
    "short_region": "23",
    "lat": "34.719300",
    "lon": "136.513200"
  },
  {
    "id": "520394",
    "country": "JP",
    "zipcode": "514-0",
    "name": "Higashimarunochi",
    "region": "Mie Ken",
    "short_region": "23",
    "lat": "34.715800",
    "lon": "136.512000"
  },
  {
    "id": "520395",
    "country": "JP",
    "zipcode": "514-0",
    "name": "Kitamarunochi",
    "region": "Mie Ken",
    "short_region": "23",
    "lat": "34.723700",
    "lon": "136.509100"
  },
  {
    "id": "520396",
    "country": "JP",
    "zipcode": "514-0",
    "name": "Chuo",
    "region": "Mie Ken",
    "short_region": "23",
    "lat": "34.720200",
    "lon": "136.509000"
  },
  {
    "id": "520397",
    "country": "JP",
    "zipcode": "514-0",
    "name": "Marunochi",
    "region": "Mie Ken",
    "short_region": "23",
    "lat": "34.716300",
    "lon": "136.507300"
  },
  {
    "id": "520398",
    "country": "JP",
    "zipcode": "514-0",
    "name": "Minamimarunochi",
    "region": "Mie Ken",
    "short_region": "23",
    "lat": "34.714000",
    "lon": "136.502400"
  },
  {
    "id": "520399",
    "country": "JP",
    "zipcode": "514-0",
    "name": "Nishimarunochi",
    "region": "Mie Ken",
    "short_region": "23",
    "lat": "34.718300",
    "lon": "136.503500"
  },
  {
    "id": "520400",
    "country": "JP",
    "zipcode": "514-0",
    "name": "Marunochi Yoseicho",
    "region": "Mie Ken",
    "short_region": "23",
    "lat": "34.719800",
    "lon": "136.501000"
  },
  {
    "id": "520401",
    "country": "JP",
    "zipcode": "514-0",
    "name": "Higashifurukawacho",
    "region": "Mie Ken",
    "short_region": "23",
    "lat": "34.720800",
    "lon": "136.500300"
  },
  {
    "id": "520402",
    "country": "JP",
    "zipcode": "514-0",
    "name": "Nishifurukawacho",
    "region": "Mie Ken",
    "short_region": "23",
    "lat": "34.722400",
    "lon": "136.497900"
  },
  {
    "id": "520403",
    "country": "JP",
    "zipcode": "514-0",
    "name": "Oshikabecho",
    "region": "Mie Ken",
    "short_region": "23",
    "lat": "34.723300",
    "lon": "136.494000"
  },
  {
    "id": "520404",
    "country": "JP",
    "zipcode": "514-0",
    "name": "Hatcho",
    "region": "Mie Ken",
    "short_region": "23",
    "lat": "34.719700",
    "lon": "136.495800"
  },
  {
    "id": "520405",
    "country": "JP",
    "zipcode": "514-0",
    "name": "Shimmachi",
    "region": "Mie Ken",
    "short_region": "23",
    "lat": "34.717400",
    "lon": "136.495400"
  },
  {
    "id": "520406",
    "country": "JP",
    "zipcode": "514-0",
    "name": "Minamishimmachi",
    "region": "Mie Ken",
    "short_region": "23",
    "lat": "34.713500",
    "lon": "136.497300"
  },
  {
    "id": "520407",
    "country": "JP",
    "zipcode": "514-0",
    "name": "Kawazoecho",
    "region": "Mie Ken",
    "short_region": "23",
    "lat": "34.711800",
    "lon": "136.495600"
  },
  {
    "id": "520408",
    "country": "JP",
    "zipcode": "514-0",
    "name": "Mikawacho",
    "region": "Mie Ken",
    "short_region": "23",
    "lat": "34.712800",
    "lon": "136.491500"
  },
  {
    "id": "520409",
    "country": "JP",
    "zipcode": "514-0",
    "name": "Ozonocho",
    "region": "Mie Ken",
    "short_region": "23",
    "lat": "34.715300",
    "lon": "136.493000"
  },
  {
    "id": "520410",
    "country": "JP",
    "zipcode": "514-0",
    "name": "Sakuradacho",
    "region": "Mie Ken",
    "short_region": "23",
    "lat": "34.717000",
    "lon": "136.489400"
  },
  {
    "id": "520411",
    "country": "JP",
    "zipcode": "514-0",
    "name": "Nosocho",
    "region": "Mie Ken",
    "short_region": "23",
    "lat": "34.728700",
    "lon": "136.484100"
  },
  {
    "id": "520412",
    "country": "JP",
    "zipcode": "514-0",
    "name": "Kanocho",
    "region": "Mie Ken",
    "short_region": "23",
    "lat": "34.723600",
    "lon": "136.486100"
  },
  {
    "id": "520413",
    "country": "JP",
    "zipcode": "514-0",
    "name": "Hakatacho",
    "region": "Mie Ken",
    "short_region": "23",
    "lat": "34.720900",
    "lon": "136.486900"
  },
  {
    "id": "520414",
    "country": "JP",
    "zipcode": "514-0",
    "name": "Kano",
    "region": "Mie Ken",
    "short_region": "23",
    "lat": "34.718700",
    "lon": "136.487300"
  },
  {
    "id": "520415",
    "country": "JP",
    "zipcode": "514-0",
    "name": "Minamikoji",
    "region": "Mie Ken",
    "short_region": "23",
    "lat": "34.721500",
    "lon": "136.478500"
  },
  {
    "id": "520416",
    "country": "JP",
    "zipcode": "514-0",
    "name": "Kitakojicho",
    "region": "Mie Ken",
    "short_region": "23",
    "lat": "34.725700",
    "lon": "136.477600"
  },
  {
    "id": "520417",
    "country": "JP",
    "zipcode": "514-0",
    "name": "Isshikicho",
    "region": "Mie Ken",
    "short_region": "23",
    "lat": "34.728900",
    "lon": "136.472100"
  },
  {
    "id": "520418",
    "country": "JP",
    "zipcode": "514-0",
    "name": "Antocho",
    "region": "Mie Ken",
    "short_region": "23",
    "lat": "34.738800",
    "lon": "136.469100"
  },
  {
    "id": "520419",
    "country": "JP",
    "zipcode": "514-0",
    "name": "Isshinden Kozubeta",
    "region": "Mie Ken",
    "short_region": "23",
    "lat": "34.718500",
    "lon": "136.504700"
  },
  {
    "id": "520420",
    "country": "JP",
    "zipcode": "514-0",
    "name": "Kannonjicho",
    "region": "Mie Ken",
    "short_region": "23",
    "lat": "34.730500",
    "lon": "136.499500"
  },
  {
    "id": "520421",
    "country": "JP",
    "zipcode": "514-0",
    "name": "Shibumicho",
    "region": "Mie Ken",
    "short_region": "23",
    "lat": "34.734900",
    "lon": "136.493800"
  },
  {
    "id": "520422",
    "country": "JP",
    "zipcode": "514-0",
    "name": "Nagaokacho",
    "region": "Mie Ken",
    "short_region": "23",
    "lat": "34.740200",
    "lon": "136.488600"
  },
  {
    "id": "520423",
    "country": "JP",
    "zipcode": "514-0",
    "name": "Kobecho",
    "region": "Mie Ken",
    "short_region": "23",
    "lat": "34.745400",
    "lon": "136.480400"
  },
  {
    "id": "520424",
    "country": "JP",
    "zipcode": "514-0",
    "name": "Wakebe",
    "region": "Mie Ken",
    "short_region": "23",
    "lat": "34.733700",
    "lon": "136.452500"
  },
  {
    "id": "520425",
    "country": "JP",
    "zipcode": "514-0",
    "name": "Obune",
    "region": "Mie Ken",
    "short_region": "23",
    "lat": "34.728900",
    "lon": "136.462700"
  },
  {
    "id": "520426",
    "country": "JP",
    "zipcode": "514-0",
    "name": "Tonomura",
    "region": "Mie Ken",
    "short_region": "23",
    "lat": "34.723000",
    "lon": "136.461800"
  },
  {
    "id": "520427",
    "country": "JP",
    "zipcode": "514-0",
    "name": "Katada Hasebacho",
    "region": "Mie Ken",
    "short_region": "23",
    "lat": "34.718500",
    "lon": "136.504700"
  },
  {
    "id": "520428",
    "country": "JP",
    "zipcode": "514-0",
    "name": "Katada Shibukurocho",
    "region": "Mie Ken",
    "short_region": "23",
    "lat": "34.718500",
    "lon": "136.504700"
  },
  {
    "id": "520429",
    "country": "JP",
    "zipcode": "514-0",
    "name": "Ubushina",
    "region": "Mie Ken",
    "short_region": "23",
    "lat": "34.723000",
    "lon": "136.443900"
  },
  {
    "id": "520430",
    "country": "JP",
    "zipcode": "514-0",
    "name": "Katada Hasecho",
    "region": "Mie Ken",
    "short_region": "23",
    "lat": "34.718500",
    "lon": "136.504700"
  },
  {
    "id": "520431",
    "country": "JP",
    "zipcode": "514-0",
    "name": "Katada Tanakacho",
    "region": "Mie Ken",
    "short_region": "23",
    "lat": "34.718500",
    "lon": "136.504700"
  },
  {
    "id": "520432",
    "country": "JP",
    "zipcode": "514-0",
    "name": "Katada Idocho",
    "region": "Mie Ken",
    "short_region": "23",
    "lat": "34.718500",
    "lon": "136.504700"
  },
  {
    "id": "520433",
    "country": "JP",
    "zipcode": "514-0",
    "name": "Katada Shimmachi",
    "region": "Mie Ken",
    "short_region": "23",
    "lat": "34.718500",
    "lon": "136.504700"
  },
  {
    "id": "520434",
    "country": "JP",
    "zipcode": "514-0",
    "name": "Katadacho",
    "region": "Mie Ken",
    "short_region": "23",
    "lat": "34.694400",
    "lon": "136.442600"
  },
  {
    "id": "520435",
    "country": "JP",
    "zipcode": "514-0",
    "name": "Katada Kubocho",
    "region": "Mie Ken",
    "short_region": "23",
    "lat": "34.718500",
    "lon": "136.504700"
  },
  {
    "id": "520436",
    "country": "JP",
    "zipcode": "514-0",
    "name": "Katada Yakuojicho",
    "region": "Mie Ken",
    "short_region": "23",
    "lat": "34.718500",
    "lon": "136.504700"
  },
  {
    "id": "520437",
    "country": "JP",
    "zipcode": "514-0",
    "name": "Shiratsukacho",
    "region": "Mie Ken",
    "short_region": "23",
    "lat": "34.764100",
    "lon": "136.531700"
  },
  {
    "id": "520438",
    "country": "JP",
    "zipcode": "514-0",
    "name": "Kurima Machiyacho",
    "region": "Mie Ken",
    "short_region": "23",
    "lat": "34.764100",
    "lon": "136.531700"
  },
  {
    "id": "520439",
    "country": "JP",
    "zipcode": "514-0",
    "name": "Kurima Nakayamacho",
    "region": "Mie Ken",
    "short_region": "23",
    "lat": "34.764100",
    "lon": "136.531700"
  },
  {
    "id": "520440",
    "country": "JP",
    "zipcode": "514-0",
    "name": "Kurima Kogawacho",
    "region": "Mie Ken",
    "short_region": "23",
    "lat": "34.764100",
    "lon": "136.531700"
  },
  {
    "id": "520441",
    "country": "JP",
    "zipcode": "514-0",
    "name": "Isshinden Hirano",
    "region": "Mie Ken",
    "short_region": "23",
    "lat": "34.762000",
    "lon": "136.506800"
  },
  {
    "id": "520442",
    "country": "JP",
    "zipcode": "514-0",
    "name": "Isshinden Nakano",
    "region": "Mie Ken",
    "short_region": "23",
    "lat": "34.762000",
    "lon": "136.506800"
  },
  {
    "id": "520443",
    "country": "JP",
    "zipcode": "514-0",
    "name": "Isshinden Ogoso",
    "region": "Mie Ken",
    "short_region": "23",
    "lat": "34.762000",
    "lon": "136.506800"
  },
  {
    "id": "520444",
    "country": "JP",
    "zipcode": "514-0",
    "name": "Isshindencho",
    "region": "Mie Ken",
    "short_region": "23",
    "lat": "34.762000",
    "lon": "136.506800"
  },
  {
    "id": "520445",
    "country": "JP",
    "zipcode": "514-0",
    "name": "Isshinden Toyono",
    "region": "Mie Ken",
    "short_region": "23",
    "lat": "34.762000",
    "lon": "136.506800"
  },
  {
    "id": "520446",
    "country": "JP",
    "zipcode": "514-0",
    "name": "Yumegaoka",
    "region": "Mie Ken",
    "short_region": "23",
    "lat": "34.762000",
    "lon": "136.506800"
  },
  {
    "id": "520447",
    "country": "JP",
    "zipcode": "514-0",
    "name": "Ozato Yamamurocho",
    "region": "Mie Ken",
    "short_region": "23",
    "lat": "34.762900",
    "lon": "136.516800"
  },
  {
    "id": "520448",
    "country": "JP",
    "zipcode": "514-0",
    "name": "Ozato Nodacho",
    "region": "Mie Ken",
    "short_region": "23",
    "lat": "34.762900",
    "lon": "136.516800"
  },
  {
    "id": "520449",
    "country": "JP",
    "zipcode": "514-0",
    "name": "Ozato Konodacho",
    "region": "Mie Ken",
    "short_region": "23",
    "lat": "34.762900",
    "lon": "136.516800"
  },
  {
    "id": "520450",
    "country": "JP",
    "zipcode": "514-0",
    "name": "Ozato Kawakitacho",
    "region": "Mie Ken",
    "short_region": "23",
    "lat": "34.762900",
    "lon": "136.516800"
  },
  {
    "id": "520451",
    "country": "JP",
    "zipcode": "514-0",
    "name": "Ozato Kubotacho",
    "region": "Mie Ken",
    "short_region": "23",
    "lat": "34.762900",
    "lon": "136.516800"
  },
  {
    "id": "520452",
    "country": "JP",
    "zipcode": "514-0",
    "name": "Ozato Mutsuaicho",
    "region": "Mie Ken",
    "short_region": "23",
    "lat": "34.762900",
    "lon": "136.516800"
  },
  {
    "id": "520453",
    "country": "JP",
    "zipcode": "514-0",
    "name": "Anotsudai",
    "region": "Mie Ken",
    "short_region": "23",
    "lat": "34.762900",
    "lon": "136.516800"
  },
  {
    "id": "520454",
    "country": "JP",
    "zipcode": "514-0",
    "name": "Kumozu Kokancho",
    "region": "Mie Ken",
    "short_region": "23",
    "lat": "34.721700",
    "lon": "136.503400"
  },
  {
    "id": "520455",
    "country": "JP",
    "zipcode": "514-0",
    "name": "Kumozu Igurazucho",
    "region": "Mie Ken",
    "short_region": "23",
    "lat": "34.721700",
    "lon": "136.503400"
  },
  {
    "id": "520456",
    "country": "JP",
    "zipcode": "514-0",
    "name": "Kumozu Nagatsunecho",
    "region": "Mie Ken",
    "short_region": "23",
    "lat": "34.721700",
    "lon": "136.503400"
  },
  {
    "id": "520457",
    "country": "JP",
    "zipcode": "514-0",
    "name": "Kumozu Hongocho",
    "region": "Mie Ken",
    "short_region": "23",
    "lat": "34.721700",
    "lon": "136.503400"
  },
  {
    "id": "520458",
    "country": "JP",
    "zipcode": "514-0",
    "name": "Kumozu Shimanukicho",
    "region": "Mie Ken",
    "short_region": "23",
    "lat": "34.721700",
    "lon": "136.503400"
  },
  {
    "id": "520459",
    "country": "JP",
    "zipcode": "514-0",
    "name": "Karasucho (Inaba)",
    "region": "Mie Ken",
    "short_region": "23",
    "lat": "34.721700",
    "lon": "136.503400"
  },
  {
    "id": "520460",
    "country": "JP",
    "zipcode": "514-0",
    "name": "Karasucho (Komatsu)",
    "region": "Mie Ken",
    "short_region": "23",
    "lat": "34.721700",
    "lon": "136.503400"
  },
  {
    "id": "520461",
    "country": "JP",
    "zipcode": "514-0",
    "name": "Karasucho (Hamaura)",
    "region": "Mie Ken",
    "short_region": "23",
    "lat": "34.721700",
    "lon": "136.503400"
  },
  {
    "id": "520462",
    "country": "JP",
    "zipcode": "514-0",
    "name": "Karasucho (Takasago)",
    "region": "Mie Ken",
    "short_region": "23",
    "lat": "34.721700",
    "lon": "136.503400"
  },
  {
    "id": "520463",
    "country": "JP",
    "zipcode": "514-0",
    "name": "Karasucho(Sonota)",
    "region": "Mie Ken",
    "short_region": "23",
    "lat": "34.721700",
    "lon": "136.503400"
  },
  {
    "id": "520464",
    "country": "JP",
    "zipcode": "514-0",
    "name": "Karasucho (Sunahara)",
    "region": "Mie Ken",
    "short_region": "23",
    "lat": "34.721700",
    "lon": "136.503400"
  },
  {
    "id": "520465",
    "country": "JP",
    "zipcode": "514-0",
    "name": "Karasucho (Baba)",
    "region": "Mie Ken",
    "short_region": "23",
    "lat": "34.721700",
    "lon": "136.503400"
  },
  {
    "id": "520466",
    "country": "JP",
    "zipcode": "514-0",
    "name": "Karasucho (Jike)",
    "region": "Mie Ken",
    "short_region": "23",
    "lat": "34.721700",
    "lon": "136.503400"
  },
  {
    "id": "520467",
    "country": "JP",
    "zipcode": "514-0",
    "name": "Karasucho (Sakuramachi)",
    "region": "Mie Ken",
    "short_region": "23",
    "lat": "34.721700",
    "lon": "136.503400"
  },
  {
    "id": "520468",
    "country": "JP",
    "zipcode": "514-0",
    "name": "Karasucho (Kawahara)",
    "region": "Mie Ken",
    "short_region": "23",
    "lat": "34.721700",
    "lon": "136.503400"
  },
  {
    "id": "520469",
    "country": "JP",
    "zipcode": "514-0",
    "name": "津市　香良洲総合支所",
    "region": "Mie Ken",
    "short_region": "23",
    "lat": "34.721700",
    "lon": "136.503400"
  },
  {
    "id": "520470",
    "country": "JP",
    "zipcode": "514-0",
    "name": "ＪＦＥエンジニアリング　株式会社　津製作所",
    "region": "Mie Ken",
    "short_region": "23",
    "lat": "34.721700",
    "lon": "136.503400"
  },
  {
    "id": "520471",
    "country": "JP",
    "zipcode": "514-0",
    "name": "中部運輸局　三重運輸支局",
    "region": "Mie Ken",
    "short_region": "23",
    "lat": "34.721700",
    "lon": "136.503400"
  },
  {
    "id": "520472",
    "country": "JP",
    "zipcode": "514-0",
    "name": "カヤバシステムマシナリー　株式会社",
    "region": "Mie Ken",
    "short_region": "23",
    "lat": "34.721700",
    "lon": "136.503400"
  },
  {
    "id": "520473",
    "country": "JP",
    "zipcode": "514-0",
    "name": "ＵＤトラックス　株式会社",
    "region": "Mie Ken",
    "short_region": "23",
    "lat": "34.721700",
    "lon": "136.503400"
  },
  {
    "id": "520474",
    "country": "JP",
    "zipcode": "514-0",
    "name": "ジャパンマリンユナイテッド　株式会社",
    "region": "Mie Ken",
    "short_region": "23",
    "lat": "34.721700",
    "lon": "136.503400"
  },
  {
    "id": "520475",
    "country": "JP",
    "zipcode": "514-0",
    "name": "Sendomachi Tsuoki",
    "region": "Mie Ken",
    "short_region": "23",
    "lat": "34.702300",
    "lon": "136.508500"
  },
  {
    "id": "520476",
    "country": "JP",
    "zipcode": "514-0",
    "name": "Miecho Tsuoki",
    "region": "Mie Ken",
    "short_region": "23",
    "lat": "34.702300",
    "lon": "136.508500"
  },
  {
    "id": "520477",
    "country": "JP",
    "zipcode": "514-0",
    "name": "Yanagiyama Tsuoki",
    "region": "Mie Ken",
    "short_region": "23",
    "lat": "34.702300",
    "lon": "136.508500"
  },
  {
    "id": "520478",
    "country": "JP",
    "zipcode": "514-0",
    "name": "Kamibezaimachi Tsuoki",
    "region": "Mie Ken",
    "short_region": "23",
    "lat": "34.702300",
    "lon": "136.508500"
  },
  {
    "id": "520479",
    "country": "JP",
    "zipcode": "514-0",
    "name": "Shimobezaimachi Tsuoki",
    "region": "Mie Ken",
    "short_region": "23",
    "lat": "34.702300",
    "lon": "136.508500"
  },
  {
    "id": "520480",
    "country": "JP",
    "zipcode": "514-0",
    "name": "Kamibezaicho",
    "region": "Mie Ken",
    "short_region": "23",
    "lat": "34.701300",
    "lon": "136.508500"
  },
  {
    "id": "520481",
    "country": "JP",
    "zipcode": "514-0",
    "name": "Akogimachi",
    "region": "Mie Ken",
    "short_region": "23",
    "lat": "34.674600",
    "lon": "136.506300"
  },
  {
    "id": "520482",
    "country": "JP",
    "zipcode": "514-0",
    "name": "Tsuoki",
    "region": "Mie Ken",
    "short_region": "23",
    "lat": "34.695500",
    "lon": "136.518500"
  },
  {
    "id": "520483",
    "country": "JP",
    "zipcode": "514-0",
    "name": "Yahatacho",
    "region": "Mie Ken",
    "short_region": "23",
    "lat": "34.674600",
    "lon": "136.506300"
  },
  {
    "id": "520484",
    "country": "JP",
    "zipcode": "514-0",
    "name": "Fujiedacho",
    "region": "Mie Ken",
    "short_region": "23",
    "lat": "34.693600",
    "lon": "136.511500"
  },
  {
    "id": "520485",
    "country": "JP",
    "zipcode": "514-0",
    "name": "Fujikata",
    "region": "Mie Ken",
    "short_region": "23",
    "lat": "34.690400",
    "lon": "136.516300"
  },
  {
    "id": "520486",
    "country": "JP",
    "zipcode": "514-0",
    "name": "Takajayakomoriuenocho",
    "region": "Mie Ken",
    "short_region": "23",
    "lat": "34.678500",
    "lon": "136.518100"
  },
  {
    "id": "520487",
    "country": "JP",
    "zipcode": "514-0",
    "name": "Takajayakomoricho",
    "region": "Mie Ken",
    "short_region": "23",
    "lat": "34.669300",
    "lon": "136.491000"
  },
  {
    "id": "520488",
    "country": "JP",
    "zipcode": "514-0",
    "name": "Shiroyama",
    "region": "Mie Ken",
    "short_region": "23",
    "lat": "34.677600",
    "lon": "136.506100"
  },
  {
    "id": "520489",
    "country": "JP",
    "zipcode": "514-0",
    "name": "Takajaya",
    "region": "Mie Ken",
    "short_region": "23",
    "lat": "34.671700",
    "lon": "136.506500"
  },
  {
    "id": "520490",
    "country": "JP",
    "zipcode": "514-0",
    "name": "Tarumi",
    "region": "Mie Ken",
    "short_region": "23",
    "lat": "34.690900",
    "lon": "136.506900"
  },
  {
    "id": "520491",
    "country": "JP",
    "zipcode": "514-0",
    "name": "Minamigaoka",
    "region": "Mie Ken",
    "short_region": "23",
    "lat": "34.700100",
    "lon": "136.506700"
  },
  {
    "id": "520492",
    "country": "JP",
    "zipcode": "514-0",
    "name": "Handa",
    "region": "Mie Ken",
    "short_region": "23",
    "lat": "34.701500",
    "lon": "136.494500"
  },
  {
    "id": "520493",
    "country": "JP",
    "zipcode": "514-0",
    "name": "Kambe",
    "region": "Mie Ken",
    "short_region": "23",
    "lat": "34.705800",
    "lon": "136.474000"
  },
  {
    "id": "520494",
    "country": "JP",
    "zipcode": "514-0",
    "name": "Midorigaoka",
    "region": "Mie Ken",
    "short_region": "23",
    "lat": "34.700100",
    "lon": "136.506700"
  },
  {
    "id": "520495",
    "country": "JP",
    "zipcode": "514-0",
    "name": "Noda",
    "region": "Mie Ken",
    "short_region": "23",
    "lat": "34.710200",
    "lon": "136.463000"
  },
  {
    "id": "520496",
    "country": "JP",
    "zipcode": "514-0",
    "name": "Hommachi",
    "region": "Mie Ken",
    "short_region": "23",
    "lat": "34.711100",
    "lon": "136.510400"
  },
  {
    "id": "520497",
    "country": "JP",
    "zipcode": "514-0",
    "name": "Minamichuo",
    "region": "Mie Ken",
    "short_region": "23",
    "lat": "34.706300",
    "lon": "136.509100"
  },
  {
    "id": "520498",
    "country": "JP",
    "zipcode": "514-0",
    "name": "Nishiakogicho Iwata",
    "region": "Mie Ken",
    "short_region": "23",
    "lat": "34.708200",
    "lon": "136.506500"
  },
  {
    "id": "520499",
    "country": "JP",
    "zipcode": "514-0",
    "name": "Okura",
    "region": "Mie Ken",
    "short_region": "23",
    "lat": "34.703000",
    "lon": "136.506100"
  },
  {
    "id": "520500",
    "country": "JP",
    "zipcode": "514-0",
    "name": "Saiwaicho",
    "region": "Mie Ken",
    "short_region": "23",
    "lat": "34.707500",
    "lon": "136.504500"
  },