[
  {
    "id": "790001",
    "country": "MX",
    "zipcode": "97370",
    "name": "Valle Azul",
    "region": "Yucatán",
    "short_region": "31",
    "lat": "20.997600",
    "lon": "-89.558100"
  },
  {
    "id": "790002",
    "country": "MX",
    "zipcode": "97370",
    "name": "Amalia Solorzano II",
    "region": "Yucatán",
    "short_region": "31",
    "lat": "20.997600",
    "lon": "-89.558100"
  },
  {
    "id": "790003",
    "country": "MX",
    "zipcode": "97370",
    "name": "Las Haciendas",
    "region": "Yucatán",
    "short_region": "31",
    "lat": "20.997600",
    "lon": "-89.558100"
  },
  {
    "id": "790004",
    "country": "MX",
    "zipcode": "97370",
    "name": "San Pedro Noh Pat",
    "region": "Yucatán",
    "short_region": "31",
    "lat": "20.997600",
    "lon": "-89.558100"
  },
  {
    "id": "790005",
    "country": "MX",
    "zipcode": "97370",
    "name": "Leona Vicario II",
    "region": "Yucatán",
    "short_region": "31",
    "lat": "20.997600",
    "lon": "-89.558100"
  },
  {
    "id": "790006",
    "country": "MX",
    "zipcode": "97370",
    "name": "Los Encinos",
    "region": "Yucatán",
    "short_region": "31",
    "lat": "20.997600",
    "lon": "-89.558100"
  },
  {
    "id": "790007",
    "country": "MX",
    "zipcode": "97370",
    "name": "Los Arcos de Kanasín",
    "region": "Yucatán",
    "short_region": "31",
    "lat": "20.997600",
    "lon": "-89.558100"
  },
  {
    "id": "790008",
    "country": "MX",
    "zipcode": "97370",
    "name": "Brisas de Oriente",
    "region": "Yucatán",
    "short_region": "31",
    "lat": "20.997600",
    "lon": "-89.558100"
  },
  {
    "id": "790009",
    "country": "MX",
    "zipcode": "97370",
    "name": "Cecilio Chi",
    "region": "Yucatán",
    "short_region": "31",
    "lat": "20.997600",
    "lon": "-89.558100"
  },
  {
    "id": "790010",
    "country": "MX",
    "zipcode": "97370",
    "name": "Colibrí",
    "region": "Yucatán",
    "short_region": "31",
    "lat": "20.997600",
    "lon": "-89.558100"
  },
  {
    "id": "790011",
    "country": "MX",
    "zipcode": "97370",
    "name": "Reparto Las Granjas",
    "region": "Yucatán",
    "short_region": "31",
    "lat": "20.997600",
    "lon": "-89.558100"
  },
  {
    "id": "790012",
    "country": "MX",
    "zipcode": "97370",
    "name": "Puerta Esmeralda",
    "region": "Yucatán",
    "short_region": "31",
    "lat": "20.997600",
    "lon": "-89.558100"
  },
  {
    "id": "790013",
    "country": "MX",
    "zipcode": "97370",
    "name": "Pedregales de Kanasín II",
    "region": "Yucatán",
    "short_region": "31",
    "lat": "20.997600",
    "lon": "-89.558100"
  },
  {
    "id": "790014",
    "country": "MX",
    "zipcode": "97370",
    "name": "CROC",
    "region": "Yucatán",
    "short_region": "31",
    "lat": "20.997600",
    "lon": "-89.558100"
  },
  {
    "id": "790015",
    "country": "MX",
    "zipcode": "97370",
    "name": "Valle Oriente",
    "region": "Yucatán",
    "short_region": "31",
    "lat": "20.997600",
    "lon": "-89.558100"
  },
  {
    "id": "790016",
    "country": "MX",
    "zipcode": "97370",
    "name": "Villas del Oriente",
    "region": "Yucatán",
    "short_region": "31",
    "lat": "20.997600",
    "lon": "-89.558100"
  },
  {
    "id": "790017",
    "country": "MX",
    "zipcode": "97370",
    "name": "Amalia Solórzano III",
    "region": "Yucatán",
    "short_region": "31",
    "lat": "20.997600",
    "lon": "-89.558100"
  },
  {
    "id": "790018",
    "country": "MX",
    "zipcode": "97370",
    "name": "Pedregales de Mulchechen Kanasín",
    "region": "Yucatán",
    "short_region": "31",
    "lat": "20.997600",
    "lon": "-89.558100"
  },
  {
    "id": "790019",
    "country": "MX",
    "zipcode": "97370",
    "name": "Hector Victoria",
    "region": "Yucatán",
    "short_region": "31",
    "lat": "20.997600",
    "lon": "-89.558100"
  },
  {
    "id": "790020",
    "country": "MX",
    "zipcode": "97370",
    "name": "Pablo Moreno",
    "region": "Yucatán",
    "short_region": "31",
    "lat": "20.997600",
    "lon": "-89.558100"
  },
  {
    "id": "790021",
    "country": "MX",
    "zipcode": "97370",
    "name": "Ampliación Hector Victoria",
    "region": "Yucatán",
    "short_region": "31",
    "lat": "20.997600",
    "lon": "-89.558100"
  },
  {
    "id": "790022",
    "country": "MX",
    "zipcode": "97370",
    "name": "Privada del Sol",
    "region": "Yucatán",
    "short_region": "31",
    "lat": "20.997600",
    "lon": "-89.558100"
  },
  {
    "id": "790023",
    "country": "MX",
    "zipcode": "97370",
    "name": "Arecas",
    "region": "Yucatán",
    "short_region": "31",
    "lat": "20.997600",
    "lon": "-89.558100"
  },
  {
    "id": "790024",
    "country": "MX",
    "zipcode": "97370",
    "name": "Girasoles",
    "region": "Yucatán",
    "short_region": "31",
    "lat": "20.997600",
    "lon": "-89.558100"
  },
  {
    "id": "790025",
    "country": "MX",
    "zipcode": "97370",
    "name": "Jardines de Kanasín",
    "region": "Yucatán",
    "short_region": "31",
    "lat": "20.997600",
    "lon": "-89.558100"
  },
  {
    "id": "790026",
    "country": "MX",
    "zipcode": "97370",
    "name": "Jardines de Mulchechen",
    "region": "Yucatán",
    "short_region": "31",
    "lat": "20.997600",
    "lon": "-89.558100"
  },
  {
    "id": "790027",
    "country": "MX",
    "zipcode": "97370",
    "name": "Privada Lomas Campestre",
    "region": "Yucatán",
    "short_region": "31",
    "lat": "20.997600",
    "lon": "-89.558100"
  },
  {
    "id": "790028",
    "country": "MX",
    "zipcode": "97370",
    "name": "San Pedro Oriente",
    "region": "Yucatán",
    "short_region": "31",
    "lat": "20.997600",
    "lon": "-89.558100"
  },
  {
    "id": "790029",
    "country": "MX",
    "zipcode": "97370",
    "name": "Palmas San Pedro",
    "region": "Yucatán",
    "short_region": "31",
    "lat": "20.997600",
    "lon": "-89.558100"
  },
  {
    "id": "790030",
    "country": "MX",
    "zipcode": "97370",
    "name": "Montecarlos",
    "region": "Yucatán",
    "short_region": "31",
    "lat": "20.997600",
    "lon": "-89.558100"
  },
  {
    "id": "790031",
    "country": "MX",
    "zipcode": "97370",
    "name": "San Camilo",
    "region": "Yucatán",
    "short_region": "31",
    "lat": "20.997600",
    "lon": "-89.558100"
  },
  {
    "id": "790032",
    "country": "MX",
    "zipcode": "97370",
    "name": "Privada los Naranjos",
    "region": "Yucatán",
    "short_region": "31",
    "lat": "20.997600",
    "lon": "-89.558100"
  },
  {
    "id": "790033",
    "country": "MX",
    "zipcode": "97370",
    "name": "Puerta del Sol",
    "region": "Yucatán",
    "short_region": "31",
    "lat": "20.997600",
    "lon": "-89.558100"
  },
  {
    "id": "790034",
    "country": "MX",
    "zipcode": "97370",
    "name": "Jardines de San Pedro Noh Pat",
    "region": "Yucatán",
    "short_region": "31",
    "lat": "20.997600",
    "lon": "-89.558100"
  },
  {
    "id": "790035",
    "country": "MX",
    "zipcode": "97370",
    "name": "Bosques de Kanasín",
    "region": "Yucatán",
    "short_region": "31",
    "lat": "20.997600",
    "lon": "-89.558100"
  },
  {
    "id": "790036",
    "country": "MX",
    "zipcode": "97370",
    "name": "Kanasín Centro",
    "region": "Yucatán",
    "short_region": "31",
    "lat": "20.997600",
    "lon": "-89.558100"
  },
  {
    "id": "790037",
    "country": "MX",
    "zipcode": "97370",
    "name": "Los Tulipanes",
    "region": "Yucatán",
    "short_region": "31",
    "lat": "20.997600",
    "lon": "-89.558100"
  },
  {
    "id": "790038",
    "country": "MX",
    "zipcode": "97370",
    "name": "Los Robles III",
    "region": "Yucatán",
    "short_region": "31",
    "lat": "20.997600",
    "lon": "-89.558100"
  },
  {
    "id": "790039",
    "country": "MX",
    "zipcode": "97370",
    "name": "Los Robles",
    "region": "Yucatán",
    "short_region": "31",
    "lat": "20.997600",
    "lon": "-89.558100"
  },
  {
    "id": "790040",
    "country": "MX",
    "zipcode": "97370",
    "name": "La Joya",
    "region": "Yucatán",
    "short_region": "31",
    "lat": "20.997600",
    "lon": "-89.558100"
  },
  {
    "id": "790041",
    "country": "MX",
    "zipcode": "97370",
    "name": "Francisco Villa Oriente",
    "region": "Yucatán",
    "short_region": "31",
    "lat": "20.997600",
    "lon": "-89.558100"
  },
  {
    "id": "790042",
    "country": "MX",
    "zipcode": "97370",
    "name": "Los Pinos de Mulchechen",
    "region": "Yucatán",
    "short_region": "31",
    "lat": "20.997600",
    "lon": "-89.558100"
  },
  {
    "id": "790043",
    "country": "MX",
    "zipcode": "97370",
    "name": "Brisas del Mayab",
    "region": "Yucatán",
    "short_region": "31",
    "lat": "20.997600",
    "lon": "-89.558100"
  },
  {
    "id": "790044",
    "country": "MX",
    "zipcode": "97370",
    "name": "Las Palmeras",
    "region": "Yucatán",
    "short_region": "31",
    "lat": "20.997600",
    "lon": "-89.558100"
  },
  {
    "id": "790045",
    "country": "MX",
    "zipcode": "97373",
    "name": "Santa Isabel",
    "region": "Yucatán",
    "short_region": "31",
    "lat": "20.918500",
    "lon": "-89.536900"
  },
  {
    "id": "790046",
    "country": "MX",
    "zipcode": "97373",
    "name": "Huxectaman",
    "region": "Yucatán",
    "short_region": "31",
    "lat": "20.933700",
    "lon": "-89.544600"
  },
  {
    "id": "790047",
    "country": "MX",
    "zipcode": "97374",
    "name": "San Aroldo",
    "region": "Yucatán",
    "short_region": "31",
    "lat": "20.943200",
    "lon": "-89.536800"
  },
  {
    "id": "790048",
    "country": "MX",
    "zipcode": "97374",
    "name": "Teya",
    "region": "Yucatán",
    "short_region": "31",
    "lat": "20.936500",
    "lon": "-89.520400"
  },
  {
    "id": "790049",
    "country": "MX",
    "zipcode": "97374",
    "name": "San Pedro",
    "region": "Yucatán",
    "short_region": "31",
    "lat": "20.949800",
    "lon": "-89.553300"
  },
  {
    "id": "790050",
    "country": "MX",
    "zipcode": "97376",
    "name": "San Antonio Tehuitz",
    "region": "Yucatán",
    "short_region": "31",
    "lat": "20.899600",
    "lon": "-89.520500"
  },
  {
    "id": "790051",
    "country": "MX",
    "zipcode": "97670",
    "name": "Kantunil",
    "region": "Yucatán",
    "short_region": "31",
    "lat": "20.796500",
    "lon": "-89.035400"
  },
  {
    "id": "790052",
    "country": "MX",
    "zipcode": "97674",
    "name": "Suxutunich",
    "region": "Yucatán",
    "short_region": "31",
    "lat": "20.789800",
    "lon": "-88.904400"
  },
  {
    "id": "790053",
    "country": "MX",
    "zipcode": "97675",
    "name": "Kamcabchen",
    "region": "Yucatán",
    "short_region": "31",
    "lat": "20.756500",
    "lon": "-88.929200"
  },
  {
    "id": "790054",
    "country": "MX",
    "zipcode": "97675",
    "name": "Holca",
    "region": "Yucatán",
    "short_region": "31",
    "lat": "20.756500",
    "lon": "-88.929200"
  },
  {
    "id": "790055",
    "country": "MX",
    "zipcode": "97764",
    "name": "Xtzeal",
    "region": "Yucatán",
    "short_region": "31",
    "lat": "20.621900",
    "lon": "-88.415800"
  },
  {
    "id": "790056",
    "country": "MX",
    "zipcode": "97764",
    "name": "Kaua",
    "region": "Yucatán",
    "short_region": "31",
    "lat": "20.621900",
    "lon": "-88.415800"
  },
  {
    "id": "790057",
    "country": "MX",
    "zipcode": "97765",
    "name": "San Esteban",
    "region": "Yucatán",
    "short_region": "31",
    "lat": "20.661100",
    "lon": "-88.410800"
  },
  {
    "id": "790058",
    "country": "MX",
    "zipcode": "97765",
    "name": "San Lorenzo",
    "region": "Yucatán",
    "short_region": "31",
    "lat": "20.599600",
    "lon": "-88.437500"
  },
  {
    "id": "790059",
    "country": "MX",
    "zipcode": "97360",
    "name": "Kinchil",
    "region": "Yucatán",
    "short_region": "31",
    "lat": "20.915200",
    "lon": "-89.948300"
  },
  {
    "id": "790060",
    "country": "MX",
    "zipcode": "97362",
    "name": "Tamchén",
    "region": "Yucatán",
    "short_region": "31",
    "lat": "20.875000",
    "lon": "-89.931500"
  },
  {
    "id": "790061",
    "country": "MX",
    "zipcode": "97363",
    "name": "Bella Flor",
    "region": "Yucatán",
    "short_region": "31",
    "lat": "20.869800",
    "lon": "-90.062500"
  },
  {
    "id": "790062",
    "country": "MX",
    "zipcode": "97818",
    "name": "Kopoma",
    "region": "Yucatán",
    "short_region": "31",
    "lat": "20.649100",
    "lon": "-89.899900"
  },
  {
    "id": "790063",
    "country": "MX",
    "zipcode": "97818",
    "name": "San Bernardo",
    "region": "Yucatán",
    "short_region": "31",
    "lat": "20.636800",
    "lon": "-89.953600"
  },
  {
    "id": "790064",
    "country": "MX",
    "zipcode": "97900",
    "name": "Mama",
    "region": "Yucatán",
    "short_region": "31",
    "lat": "20.478600",
    "lon": "-89.365000"
  },
  {
    "id": "790065",
    "country": "MX",
    "zipcode": "97850",
    "name": "Mani",
    "region": "Yucatán",
    "short_region": "31",
    "lat": "20.387700",
    "lon": "-89.391900"
  },
  {
    "id": "790066",
    "country": "MX",
    "zipcode": "97851",
    "name": "Tipikal",
    "region": "Yucatán",
    "short_region": "31",
    "lat": "20.407000",
    "lon": "-89.342500"
  },
  {
    "id": "790067",
    "country": "MX",
    "zipcode": "97800",
    "name": "La Sirena",
    "region": "Yucatán",
    "short_region": "31",
    "lat": "20.584600",
    "lon": "-90.001000"
  },
  {
    "id": "790068",
    "country": "MX",
    "zipcode": "97800",
    "name": "Guadalupe",
    "region": "Yucatán",
    "short_region": "31",
    "lat": "20.621900",
    "lon": "-90.069700"
  },
  {
    "id": "790069",
    "country": "MX",
    "zipcode": "97800",
    "name": "Maxcanu",
    "region": "Yucatán",
    "short_region": "31",
    "lat": "20.584600",
    "lon": "-90.001000"
  },
  {
    "id": "790070",
    "country": "MX",
    "zipcode": "97803",
    "name": "Granada (Chican Granada)",
    "region": "Yucatán",
    "short_region": "31",
    "lat": "20.607600",
    "lon": "-89.949000"
  },
  {
    "id": "790071",
    "country": "MX",
    "zipcode": "97803",
    "name": "Santa Cruz",
    "region": "Yucatán",
    "short_region": "31",
    "lat": "20.609900",
    "lon": "-90.010100"
  },
  {
    "id": "790072",
    "country": "MX",
    "zipcode": "97803",
    "name": "Kanachén",
    "region": "Yucatán",
    "short_region": "31",
    "lat": "20.621900",
    "lon": "-90.069700"
  },
  {
    "id": "790073",
    "country": "MX",
    "zipcode": "97804",
    "name": "Yaxcaba",
    "region": "Yucatán",
    "short_region": "31",
    "lat": "20.621900",
    "lon": "-90.069700"
  },
  {
    "id": "790074",
    "country": "MX",
    "zipcode": "97804",
    "name": "Cacal",
    "region": "Yucatán",
    "short_region": "31",
    "lat": "20.643400",
    "lon": "-90.118400"
  },
  {
    "id": "790075",
    "country": "MX",
    "zipcode": "97804",
    "name": "San Lázaro",
    "region": "Yucatán",
    "short_region": "31",
    "lat": "20.643400",
    "lon": "-90.118400"
  },
  {
    "id": "790076",
    "country": "MX",
    "zipcode": "97804",
    "name": "Cárdenas",
    "region": "Yucatán",
    "short_region": "31",
    "lat": "20.643400",
    "lon": "-90.118400"
  },
  {
    "id": "790077",
    "country": "MX",
    "zipcode": "97804",
    "name": "Santa Rosa",
    "region": "Yucatán",
    "short_region": "31",
    "lat": "20.606000",
    "lon": "-90.088200"
  },
  {
    "id": "790078",
    "country": "MX",
    "zipcode": "97804",
    "name": "Paraíso",
    "region": "Yucatán",
    "short_region": "31",
    "lat": "20.675600",
    "lon": "-90.117100"
  },
  {
    "id": "790079",
    "country": "MX",
    "zipcode": "97804",
    "name": "Kochol",
    "region": "Yucatán",
    "short_region": "31",
    "lat": "20.618700",
    "lon": "-90.159100"
  },
  {
    "id": "790080",
    "country": "MX",
    "zipcode": "97804",
    "name": "San Fernando",
    "region": "Yucatán",
    "short_region": "31",
    "lat": "20.650200",
    "lon": "-90.067800"
  },
  {
    "id": "790081",
    "country": "MX",
    "zipcode": "97804",
    "name": "Coahuila",
    "region": "Yucatán",
    "short_region": "31",
    "lat": "20.665100",
    "lon": "-90.170300"
  },
  {
    "id": "790082",
    "country": "MX",
    "zipcode": "97804",
    "name": "Santo Domingo",
    "region": "Yucatán",
    "short_region": "31",
    "lat": "20.644700",
    "lon": "-90.107800"
  },
  {
    "id": "790083",
    "country": "MX",
    "zipcode": "97805",
    "name": "San Simón Sinkehuel",
    "region": "Yucatán",
    "short_region": "31",
    "lat": "20.688700",
    "lon": "-90.285600"
  },
  {
    "id": "790084",
    "country": "MX",
    "zipcode": "97805",
    "name": "El Naranjo",
    "region": "Yucatán",
    "short_region": "31",
    "lat": "20.621900",
    "lon": "-90.069700"
  },
  {
    "id": "790085",
    "country": "MX",
    "zipcode": "97805",
    "name": "Chunchucmil",
    "region": "Yucatán",
    "short_region": "31",
    "lat": "20.643000",
    "lon": "-90.214100"
  },
  {
    "id": "790086",
    "country": "MX",
    "zipcode": "97806",
    "name": "San Rafael",
    "region": "Yucatán",
    "short_region": "31",
    "lat": "20.703200",
    "lon": "-90.158400"
  },
  {
    "id": "790087",
    "country": "MX",
    "zipcode": "97807",
    "name": "Chencoh",
    "region": "Yucatán",
    "short_region": "31",
    "lat": "20.682800",
    "lon": "-90.031500"
  },
  {
    "id": "790088",
    "country": "MX",
    "zipcode": "97908",
    "name": "Mayapan",
    "region": "Yucatán",
    "short_region": "31",
    "lat": "20.468400",
    "lon": "-89.214000"
  },
  {
    "id": "790089",
    "country": "MX",
    "zipcode": "97908",
    "name": "Cenote Isila",
    "region": "Yucatán",
    "short_region": "31",
    "lat": "20.468400",
    "lon": "-89.214000"
  },
  {
    "id": "790090",
    "country": "MX",
    "zipcode": "97000",
    "name": "Merida Centro",
    "region": "Yucatán",
    "short_region": "31",
    "lat": "20.989200",
    "lon": "-89.756400"
  },
  {
    "id": "790091",
    "country": "MX",
    "zipcode": "97000",
    "name": "Privada Garcia Gineres C - 29",
    "region": "Yucatán",
    "short_region": "31",
    "lat": "20.989200",
    "lon": "-89.756400"
  },
  {
    "id": "790092",
    "country": "MX",
    "zipcode": "97000",
    "name": "La Quinta",
    "region": "Yucatán",
    "short_region": "31",
    "lat": "20.984000",
    "lon": "-89.639500"
  },
  {
    "id": "790093",
    "country": "MX",
    "zipcode": "97000",
    "name": "Los Cocos",
    "region": "Yucatán",
    "short_region": "31",
    "lat": "20.984000",
    "lon": "-89.639500"
  },
  {
    "id": "790094",
    "country": "MX",
    "zipcode": "97000",
    "name": "Privada Del Maestro",
    "region": "Yucatán",
    "short_region": "31",
    "lat": "20.989200",
    "lon": "-89.756400"
  },
  {
    "id": "790095",
    "country": "MX",
    "zipcode": "97000",
    "name": "Jardines de San Sebastian",
    "region": "Yucatán",
    "short_region": "31",
    "lat": "20.989200",
    "lon": "-89.756400"
  },
  {
    "id": "790096",
    "country": "MX",
    "zipcode": "97003",
    "name": "Los Reyes",
    "region": "Yucatán",
    "short_region": "31",
    "lat": "20.860000",
    "lon": "-89.597500"
  },
  {
    "id": "790097",
    "country": "MX",
    "zipcode": "97050",
    "name": "Yucatan",
    "region": "Yucatán",
    "short_region": "31",
    "lat": "20.946100",
    "lon": "-89.703400"
  },
  {
    "id": "790098",
    "country": "MX",
    "zipcode": "97050",
    "name": "Conjunto Residencial Del Norte",
    "region": "Yucatán",
    "short_region": "31",
    "lat": "20.946100",
    "lon": "-89.703400"
  },
  {
    "id": "790099",
    "country": "MX",
    "zipcode": "97050",
    "name": "Alcalá Martín",
    "region": "Yucatán",
    "short_region": "31",
    "lat": "20.946100",
    "lon": "-89.703400"
  },
  {
    "id": "790100",
    "country": "MX",
    "zipcode": "97059",
    "name": "Señorial",
    "region": "Yucatán",
    "short_region": "31",
    "lat": "20.946100",
    "lon": "-89.703400"
  },
  {
    "id": "790101",
    "country": "MX",
    "zipcode": "97060",
    "name": "Carrillo Ancona",
    "region": "Yucatán",
    "short_region": "31",
    "lat": "20.946100",
    "lon": "-89.703400"
  },
  {
    "id": "790102",
    "country": "MX",
    "zipcode": "97068",
    "name": "Itzaes",
    "region": "Yucatán",
    "short_region": "31",
    "lat": "20.946100",
    "lon": "-89.703400"
  },
  {
    "id": "790103",
    "country": "MX",
    "zipcode": "97069",
    "name": "Inalámbrica",
    "region": "Yucatán",
    "short_region": "31",
    "lat": "20.946100",
    "lon": "-89.703400"
  },
  {
    "id": "790104",
    "country": "MX",
    "zipcode": "97070",
    "name": "Dolores Patron",
    "region": "Yucatán",
    "short_region": "31",
    "lat": "20.946100",
    "lon": "-89.703400"
  },
  {
    "id": "790105",
    "country": "MX",
    "zipcode": "97070",
    "name": "Garcia Gineres",
    "region": "Yucatán",
    "short_region": "31",
    "lat": "20.946100",
    "lon": "-89.703400"
  },
  {
    "id": "790106",
    "country": "MX",
    "zipcode": "97070",
    "name": "El Pedregal",
    "region": "Yucatán",
    "short_region": "31",
    "lat": "20.984000",
    "lon": "-89.639500"
  },
  {
    "id": "790107",
    "country": "MX",
    "zipcode": "97080",
    "name": "La Huerta",
    "region": "Yucatán",
    "short_region": "31",
    "lat": "20.946100",
    "lon": "-89.703400"
  },
  {
    "id": "790108",
    "country": "MX",
    "zipcode": "97088",
    "name": "Santa Cecilia",
    "region": "Yucatán",
    "short_region": "31",
    "lat": "20.984000",
    "lon": "-89.639500"
  },
  {
    "id": "790109",
    "country": "MX",
    "zipcode": "97089",
    "name": "Cupules",
    "region": "Yucatán",
    "short_region": "31",
    "lat": "20.946100",
    "lon": "-89.703400"
  },
  {
    "id": "790110",
    "country": "MX",
    "zipcode": "97098",
    "name": "Lourdes",
    "region": "Yucatán",
    "short_region": "31",
    "lat": "20.984000",
    "lon": "-89.639500"
  },
  {
    "id": "790111",
    "country": "MX",
    "zipcode": "97099",
    "name": "Waspa",
    "region": "Yucatán",
    "short_region": "31",
    "lat": "20.946100",
    "lon": "-89.703400"
  },
  {
    "id": "790112",
    "country": "MX",
    "zipcode": "97100",
    "name": "Rinconada Itzmina",
    "region": "Yucatán",
    "short_region": "31",
    "lat": "20.959800",
    "lon": "-89.596000"
  },
  {
    "id": "790113",
    "country": "MX",
    "zipcode": "97100",
    "name": "Itzimna 2",
    "region": "Yucatán",
    "short_region": "31",
    "lat": "20.959800",
    "lon": "-89.596000"
  },
  {
    "id": "790114",
    "country": "MX",
    "zipcode": "97100",
    "name": "Itzimna",
    "region": "Yucatán",
    "short_region": "31",
    "lat": "20.959800",
    "lon": "-89.596000"
  },
  {
    "id": "790115",
    "country": "MX",
    "zipcode": "97107",
    "name": "Manola",
    "region": "Yucatán",
    "short_region": "31",
    "lat": "20.959800",
    "lon": "-89.596000"
  },
  {
    "id": "790116",
    "country": "MX",
    "zipcode": "97108",
    "name": "Las Arboledas",
    "region": "Yucatán",
    "short_region": "31",
    "lat": "20.959800",
    "lon": "-89.596000"
  },
  {
    "id": "790117",
    "country": "MX",
    "zipcode": "97109",
    "name": "Ferrocarrileros",
    "region": "Yucatán",
    "short_region": "31",
    "lat": "20.959800",
    "lon": "-89.596000"
  },
  {
    "id": "790118",
    "country": "MX",
    "zipcode": "97109",
    "name": "Jesús Carranza",
    "region": "Yucatán",
    "short_region": "31",
    "lat": "20.959800",
    "lon": "-89.596000"
  },
  {
    "id": "790119",
    "country": "MX",
    "zipcode": "97110",
    "name": "Unidad Habitacional Revolución I (Cordemex)",
    "region": "Yucatán",
    "short_region": "31",
    "lat": "21.101900",
    "lon": "-89.676400"
  },
  {
    "id": "790120",
    "country": "MX",
    "zipcode": "97110",
    "name": "Unidad Revolución",
    "region": "Yucatán",
    "short_region": "31",
    "lat": "21.101900",
    "lon": "-89.676400"
  },
  {
    "id": "790121",
    "country": "MX",
    "zipcode": "97113",
    "name": "Xaman-Tan",
    "region": "Yucatán",
    "short_region": "31",
    "lat": "21.065400",
    "lon": "-89.674300"
  },
  {
    "id": "790122",
    "country": "MX",
    "zipcode": "97113",
    "name": "Sol Campestre",
    "region": "Yucatán",
    "short_region": "31",
    "lat": "21.065400",
    "lon": "-89.674300"
  },
  {
    "id": "790123",
    "country": "MX",
    "zipcode": "97113",
    "name": "Montebello",
    "region": "Yucatán",
    "short_region": "31",
    "lat": "21.065400",
    "lon": "-89.674300"
  },
  {
    "id": "790124",
    "country": "MX",
    "zipcode": "97113",
    "name": "Montebello II",
    "region": "Yucatán",
    "short_region": "31",
    "lat": "21.065400",
    "lon": "-89.674300"
  },
  {
    "id": "790125",
    "country": "MX",
    "zipcode": "97113",
    "name": "Gran Royal Altabrisa",
    "region": "Yucatán",
    "short_region": "31",
    "lat": "21.065400",
    "lon": "-89.674300"
  },
  {
    "id": "790126",
    "country": "MX",
    "zipcode": "97113",
    "name": "San Antonio",
    "region": "Yucatán",
    "short_region": "31",
    "lat": "21.065400",
    "lon": "-89.674300"
  },
  {
    "id": "790127",
    "country": "MX",
    "zipcode": "97114",
    "name": "Monte Alban",
    "region": "Yucatán",
    "short_region": "31",
    "lat": "21.042200",
    "lon": "-89.661800"
  },
  {
    "id": "790128",
    "country": "MX",
    "zipcode": "97114",
    "name": "Residencial Sol Campestre",
    "region": "Yucatán",
    "short_region": "31",
    "lat": "21.042200",
    "lon": "-89.661800"
  },
  {
    "id": "790129",
    "country": "MX",
    "zipcode": "97114",
    "name": "Privada Monterreal Plus",
    "region": "Yucatán",
    "short_region": "31",
    "lat": "21.042200",
    "lon": "-89.661800"
  },
  {
    "id": "790130",
    "country": "MX",
    "zipcode": "97115",
    "name": "Gonzalo Guerrero",
    "region": "Yucatán",
    "short_region": "31",
    "lat": "21.101900",
    "lon": "-89.676400"
  },
  {
    "id": "790131",
    "country": "MX",
    "zipcode": "97115",
    "name": "Hacienda Dzodzil",
    "region": "Yucatán",
    "short_region": "31",
    "lat": "21.101900",
    "lon": "-89.676400"
  },
  {
    "id": "790132",
    "country": "MX",
    "zipcode": "97115",
    "name": "Cordemex",
    "region": "Yucatán",
    "short_region": "31",
    "lat": "21.101900",
    "lon": "-89.676400"
  },
  {
    "id": "790133",
    "country": "MX",
    "zipcode": "97115",
    "name": "Ampliación Revolución",
    "region": "Yucatán",
    "short_region": "31",
    "lat": "21.101900",
    "lon": "-89.676400"
  },
  {
    "id": "790134",
    "country": "MX",
    "zipcode": "97115",
    "name": "Ampliación Cordemex",
    "region": "Yucatán",
    "short_region": "31",
    "lat": "21.101900",
    "lon": "-89.676400"
  },
  {
    "id": "790135",
    "country": "MX",
    "zipcode": "97115",
    "name": "Royal del Norte",
    "region": "Yucatán",
    "short_region": "31",
    "lat": "21.101900",
    "lon": "-89.676400"
  },
  {
    "id": "790136",
    "country": "MX",
    "zipcode": "97115",
    "name": "Montes de Ame",
    "region": "Yucatán",
    "short_region": "31",
    "lat": "21.101900",
    "lon": "-89.676400"
  },
  {
    "id": "790137",
    "country": "MX",
    "zipcode": "97115",
    "name": "Residencial San Angelo",
    "region": "Yucatán",
    "short_region": "31",
    "lat": "21.101900",
    "lon": "-89.676400"
  },
  {
    "id": "790138",
    "country": "MX",
    "zipcode": "97115",
    "name": "Residencial Montejo Norte",
    "region": "Yucatán",
    "short_region": "31",
    "lat": "21.101900",
    "lon": "-89.676400"
  },
  {
    "id": "790139",
    "country": "MX",
    "zipcode": "97115",
    "name": "Revolución",
    "region": "Yucatán",
    "short_region": "31",
    "lat": "21.101900",
    "lon": "-89.676400"
  },
  {
    "id": "790140",
    "country": "MX",
    "zipcode": "97116",
    "name": "Privada San Antonio Cucul",
    "region": "Yucatán",
    "short_region": "31",
    "lat": "21.042200",
    "lon": "-89.661800"
  },
  {
    "id": "790141",
    "country": "MX",
    "zipcode": "97116",
    "name": "San Antonio Cucul",
    "region": "Yucatán",
    "short_region": "31",
    "lat": "21.042200",
    "lon": "-89.661800"
  },
  {
    "id": "790142",
    "country": "MX",
    "zipcode": "97117",
    "name": "San Ramon Sur",
    "region": "Yucatán",
    "short_region": "31",
    "lat": "21.042200",
    "lon": "-89.661800"
  },
  {
    "id": "790143",
    "country": "MX",
    "zipcode": "97117",
    "name": "San Ramon Norte",
    "region": "Yucatán",
    "short_region": "31",
    "lat": "21.042200",
    "lon": "-89.661800"
  },
  {
    "id": "790144",
    "country": "MX",
    "zipcode": "97117",
    "name": "Villareal",
    "region": "Yucatán",
    "short_region": "31",
    "lat": "21.042200",
    "lon": "-89.661800"
  },
  {
    "id": "790145",
    "country": "MX",
    "zipcode": "97117",
    "name": "Xaman-Kab",
    "region": "Yucatán",
    "short_region": "31",
    "lat": "21.042200",
    "lon": "-89.661800"
  },
  {
    "id": "790146",
    "country": "MX",
    "zipcode": "97117",
    "name": "San Ramon Norte I",
    "region": "Yucatán",
    "short_region": "31",
    "lat": "21.042200",
    "lon": "-89.661800"
  },
  {
    "id": "790147",
    "country": "MX",
    "zipcode": "97118",
    "name": "Ampliación Plan de Ayala (Villas del Sol)",
    "region": "Yucatán",
    "short_region": "31",
    "lat": "20.899500",
    "lon": "-89.620300"
  },
  {
    "id": "790148",
    "country": "MX",
    "zipcode": "97118",
    "name": "Villas Del Sol",
    "region": "Yucatán",
    "short_region": "31",
    "lat": "20.899500",
    "lon": "-89.620300"
  },
  {
    "id": "790149",
    "country": "MX",
    "zipcode": "97118",
    "name": "Plan de Ayala",
    "region": "Yucatán",
    "short_region": "31",
    "lat": "20.899500",
    "lon": "-89.620300"
  },
  {
    "id": "790150",
    "country": "MX",
    "zipcode": "97119",
    "name": "Villas del Rey",
    "region": "Yucatán",
    "short_region": "31",
    "lat": "21.042200",
    "lon": "-89.661800"
  },
  {
    "id": "790151",
    "country": "MX",
    "zipcode": "97119",
    "name": "Villas La Hacienda",
    "region": "Yucatán",
    "short_region": "31",
    "lat": "21.042200",
    "lon": "-89.661800"
  },
  {
    "id": "790152",
    "country": "MX",
    "zipcode": "97119",
    "name": "Benito Juárez Nte",
    "region": "Yucatán",
    "short_region": "31",
    "lat": "21.042200",
    "lon": "-89.661800"
  },
  {
    "id": "790153",
    "country": "MX",
    "zipcode": "97119",
    "name": "Gonzalo Guerrero",
    "region": "Yucatán",
    "short_region": "31",
    "lat": "21.042200",
    "lon": "-89.661800"
  },
  {
    "id": "790154",
    "country": "MX",
    "zipcode": "97120",
    "name": "Campestre",
    "region": "Yucatán",
    "short_region": "31",
    "lat": "20.959800",
    "lon": "-89.596000"
  },
  {
    "id": "790155",
    "country": "MX",
    "zipcode": "97120",
    "name": "Ampliación del Norte (1a. Ampliación)",
    "region": "Yucatán",
    "short_region": "31",
    "lat": "20.959800",
    "lon": "-89.596000"
  },
  {
    "id": "790156",
    "country": "MX",
    "zipcode": "97120",
    "name": "Tecnológico",
    "region": "Yucatán",
    "short_region": "31",
    "lat": "20.959800",
    "lon": "-89.596000"
  },
  {
    "id": "790157",
    "country": "MX",
    "zipcode": "97120",
    "name": "Del Norte",
    "region": "Yucatán",
    "short_region": "31",
    "lat": "20.984000",
    "lon": "-89.639500"
  },
  {
    "id": "790158",
    "country": "MX",
    "zipcode": "97121",
    "name": "Centro Sct Yucatán",
    "region": "Yucatán",
    "short_region": "31",
    "lat": "20.959800",
    "lon": "-89.596000"
  },
  {
    "id": "790159",
    "country": "MX",
    "zipcode": "97125",
    "name": "México",
    "region": "Yucatán",
    "short_region": "31",
    "lat": "20.959800",
    "lon": "-89.596000"
  },
  {
    "id": "790160",
    "country": "MX",
    "zipcode": "97125",
    "name": "Privada Nuevo México",
    "region": "Yucatán",
    "short_region": "31",
    "lat": "20.959800",
    "lon": "-89.596000"
  },
  {
    "id": "790161",
    "country": "MX",
    "zipcode": "97127",
    "name": "Buenavista",
    "region": "Yucatán",
    "short_region": "31",
    "lat": "20.984000",
    "lon": "-89.639500"
  },
  {
    "id": "790162",
    "country": "MX",
    "zipcode": "97127",
    "name": "Montejo",
    "region": "Yucatán",
    "short_region": "31",
    "lat": "20.959800",
    "lon": "-89.596000"
  },
  {
    "id": "790163",
    "country": "MX",
    "zipcode": "97128",
    "name": "Residencial Colonia México",
    "region": "Yucatán",
    "short_region": "31",
    "lat": "20.959800",
    "lon": "-89.596000"
  },
  {
    "id": "790164",
    "country": "MX",
    "zipcode": "97128",
    "name": "México Norte",
    "region": "Yucatán",
    "short_region": "31",
    "lat": "20.959800",
    "lon": "-89.596000"
  },
  {
    "id": "790165",
    "country": "MX",
    "zipcode": "97128",
    "name": "Privada Mediterráneo",
    "region": "Yucatán",
    "short_region": "31",
    "lat": "20.959800",
    "lon": "-89.596000"
  },
  {
    "id": "790166",
    "country": "MX",
    "zipcode": "97128",
    "name": "Privada Real México",
    "region": "Yucatán",
    "short_region": "31",
    "lat": "20.959800",
    "lon": "-89.596000"
  },
  {
    "id": "790167",
    "country": "MX",
    "zipcode": "97129",
    "name": "Emiliano Zapata Nte",
    "region": "Yucatán",
    "short_region": "31",
    "lat": "20.959800",
    "lon": "-89.596000"
  },
  {
    "id": "790168",
    "country": "MX",
    "zipcode": "97130",
    "name": "Missan II",
    "region": "Yucatán",
    "short_region": "31",
    "lat": "20.937700",
    "lon": "-89.592300"
  },
  {
    "id": "790169",
    "country": "MX",
    "zipcode": "97130",
    "name": "Altabrisa",
    "region": "Yucatán",
    "short_region": "31",
    "lat": "20.937700",
    "lon": "-89.592300"
  },
  {
    "id": "790170",
    "country": "MX",
    "zipcode": "97130",
    "name": "San Remo",
    "region": "Yucatán",
    "short_region": "31",
    "lat": "20.937700",
    "lon": "-89.592300"
  },
  {
    "id": "790171",
    "country": "MX",
    "zipcode": "97130",
    "name": "Residencial Palmerales de Altabrisa",
    "region": "Yucatán",
    "short_region": "31",
    "lat": "20.937700",
    "lon": "-89.592300"
  },
  {
    "id": "790172",
    "country": "MX",
    "zipcode": "97130",
    "name": "Santa Rita Cholul",
    "region": "Yucatán",
    "short_region": "31",
    "lat": "20.937700",
    "lon": "-89.592300"
  },
  {
    "id": "790173",
    "country": "MX",
    "zipcode": "97130",
    "name": "Torremolinos",
    "region": "Yucatán",
    "short_region": "31",
    "lat": "20.937700",
    "lon": "-89.592300"
  },
  {
    "id": "790174",
    "country": "MX",
    "zipcode": "97130",
    "name": "Vista Alegre Norte",
    "region": "Yucatán",
    "short_region": "31",
    "lat": "20.937700",
    "lon": "-89.592300"
  },
  {
    "id": "790175",
    "country": "MX",
    "zipcode": "97130",
    "name": "Privada Vista Alegre",
    "region": "Yucatán",
    "short_region": "31",
    "lat": "20.937700",
    "lon": "-89.592300"
  },
  {
    "id": "790176",
    "country": "MX",
    "zipcode": "97130",
    "name": "Montecarlo Norte",
    "region": "Yucatán",
    "short_region": "31",
    "lat": "20.937700",
    "lon": "-89.592300"
  },
  {
    "id": "790177",
    "country": "MX",
    "zipcode": "97130",
    "name": "Diaz Ordaz",
    "region": "Yucatán",
    "short_region": "31",
    "lat": "20.937700",
    "lon": "-89.592300"
  },
  {
    "id": "790178",
    "country": "MX",
    "zipcode": "97130",
    "name": "Montecarlo",
    "region": "Yucatán",
    "short_region": "31",
    "lat": "20.937700",
    "lon": "-89.592300"
  },
  {
    "id": "790179",
    "country": "MX",
    "zipcode": "97130",
    "name": "Privada Maya",
    "region": "Yucatán",
    "short_region": "31",
    "lat": "20.937700",
    "lon": "-89.592300"
  },
  {
    "id": "790180",
    "country": "MX",
    "zipcode": "97130",
    "name": "Cumbres de Altabrisa",
    "region": "Yucatán",
    "short_region": "31",
    "lat": "20.937700",
    "lon": "-89.592300"
  },
  {
    "id": "790181",
    "country": "MX",
    "zipcode": "97130",
    "name": "Vista Alegre",
    "region": "Yucatán",
    "short_region": "31",
    "lat": "21.016700",
    "lon": "-89.583300"
  },
  {
    "id": "790182",
    "country": "MX",
    "zipcode": "97130",
    "name": "San Carlos",
    "region": "Yucatán",
    "short_region": "31",
    "lat": "20.858800",
    "lon": "-89.601300"
  },
  {
    "id": "790183",
    "country": "MX",
    "zipcode": "97133",
    "name": "Montecristo",
    "region": "Yucatán",
    "short_region": "31",
    "lat": "20.984000",
    "lon": "-89.639500"
  },
  {
    "id": "790184",
    "country": "MX",
    "zipcode": "97133",
    "name": "Los Palmares de Altabrisa",
    "region": "Yucatán",
    "short_region": "31",
    "lat": "20.931000",
    "lon": "-89.588700"
  },
  {
    "id": "790185",
    "country": "MX",
    "zipcode": "97133",
    "name": "Camara de Comercio Norte",
    "region": "Yucatán",
    "short_region": "31",
    "lat": "20.931000",
    "lon": "-89.588700"
  },
  {
    "id": "790186",
    "country": "MX",
    "zipcode": "97133",
    "name": "Monterreal",
    "region": "Yucatán",
    "short_region": "31",
    "lat": "20.931000",
    "lon": "-89.588700"
  },
  {
    "id": "790187",
    "country": "MX",
    "zipcode": "97133",
    "name": "Residencial Camara de Comercio Norte",
    "region": "Yucatán",
    "short_region": "31",
    "lat": "20.931000",
    "lon": "-89.588700"
  },
  {
    "id": "790188",
    "country": "MX",
    "zipcode": "97133",
    "name": "Montevideo",
    "region": "Yucatán",
    "short_region": "31",
    "lat": "20.931000",
    "lon": "-89.588700"
  },
  {
    "id": "790189",
    "country": "MX",
    "zipcode": "97134",
    "name": "Jose Maria Iturralde",
    "region": "Yucatán",
    "short_region": "31",
    "lat": "20.931000",
    "lon": "-89.588700"
  },
  {
    "id": "790190",
    "country": "MX",
    "zipcode": "97134",
    "name": "Paraíso Maya",
    "region": "Yucatán",
    "short_region": "31",
    "lat": "20.931000",
    "lon": "-89.588700"
  },
  {
    "id": "790191",
    "country": "MX",
    "zipcode": "97134",
    "name": "Privada Villa Cholul",
    "region": "Yucatán",
    "short_region": "31",
    "lat": "20.931000",
    "lon": "-89.588700"
  },
  {
    "id": "790192",
    "country": "MX",
    "zipcode": "97134",
    "name": "Maya",
    "region": "Yucatán",
    "short_region": "31",
    "lat": "20.931000",
    "lon": "-89.588700"
  },
  {
    "id": "790193",
    "country": "MX",
    "zipcode": "97135",
    "name": "Jardines de Mérida",
    "region": "Yucatán",
    "short_region": "31",
    "lat": "20.931000",
    "lon": "-89.588700"
  },
  {
    "id": "790194",
    "country": "MX",
    "zipcode": "97136",
    "name": "Felipe Carrillo Puerto Nte",
    "region": "Yucatán",
    "short_region": "31",
    "lat": "20.931000",
    "lon": "-89.588700"
  },
  {
    "id": "790195",
    "country": "MX",
    "zipcode": "97137",
    "name": "México Oriente",
    "region": "Yucatán",
    "short_region": "31",
    "lat": "20.931000",
    "lon": "-89.588700"
  },
  {
    "id": "790196",
    "country": "MX",
    "zipcode": "97138",
    "name": "Residencial Bancarios",
    "region": "Yucatán",
    "short_region": "31",
    "lat": "20.924300",
    "lon": "-89.585000"
  },
  {
    "id": "790197",
    "country": "MX",
    "zipcode": "97138",
    "name": "Jardines del Noreste",
    "region": "Yucatán",
    "short_region": "31",
    "lat": "20.924300",
    "lon": "-89.585000"
  },
  {
    "id": "790198",
    "country": "MX",
    "zipcode": "97138",
    "name": "El Arco",
    "region": "Yucatán",
    "short_region": "31",
    "lat": "20.924300",
    "lon": "-89.585000"
  },
  {
    "id": "790199",
    "country": "MX",
    "zipcode": "97138",
    "name": "Jardines Del Norte",
    "region": "Yucatán",
    "short_region": "31",
    "lat": "20.924300",
    "lon": "-89.585000"
  },
  {
    "id": "790200",
    "country": "MX",
    "zipcode": "97138",
    "name": "Jardines de Vista Alegre",
    "region": "Yucatán",
    "short_region": "31",
    "lat": "20.924300",
    "lon": "-89.585000"
  },
  {
    "id": "790201",
    "country": "MX",
    "zipcode": "97138",
    "name": "Pinos Norte II",
    "region": "Yucatán",
    "short_region": "31",
    "lat": "20.924300",
    "lon": "-89.585000"
  },
  {
    "id": "790202",
    "country": "MX",
    "zipcode": "97138",
    "name": "Vista Alegre Lotificacion",
    "region": "Yucatán",
    "short_region": "31",
    "lat": "20.924300",
    "lon": "-89.585000"
  },
  {
    "id": "790203",
    "country": "MX",
    "zipcode": "97138",
    "name": "La Florida",
    "region": "Yucatán",
    "short_region": "31",
    "lat": "20.924300",
    "lon": "-89.585000"
  },
  {
    "id": "790204",
    "country": "MX",
    "zipcode": "97138",
    "name": "Jardines de Vista Alegre II",
    "region": "Yucatán",
    "short_region": "31",
    "lat": "20.924300",
    "lon": "-89.585000"
  },
  {
    "id": "790205",
    "country": "MX",
    "zipcode": "97138",
    "name": "Residencial Del Arco",
    "region": "Yucatán",
    "short_region": "31",
    "lat": "20.924300",
    "lon": "-89.585000"
  },
  {
    "id": "790206",
    "country": "MX",
    "zipcode": "97138",
    "name": "Santa Maria",
    "region": "Yucatán",
    "short_region": "31",
    "lat": "20.816700",
    "lon": "-89.616700"
  },
  {
    "id": "790207",
    "country": "MX",
    "zipcode": "97138",
    "name": "San Pedro Cholul",
    "region": "Yucatán",
    "short_region": "31",
    "lat": "21.031900",
    "lon": "-89.553300"
  },
  {
    "id": "790208",
    "country": "MX",
    "zipcode": "97138",
    "name": "Los Pinos",
    "region": "Yucatán",
    "short_region": "31",
    "lat": "20.984000",
    "lon": "-89.639500"
  },
  {
    "id": "790209",
    "country": "MX",
    "zipcode": "97138",
    "name": "Los Álamos",
    "region": "Yucatán",
    "short_region": "31",
    "lat": "20.984000",
    "lon": "-89.639500"
  },
  {
    "id": "790210",
    "country": "MX",
    "zipcode": "97139",
    "name": "Jardines Del Norte",
    "region": "Yucatán",
    "short_region": "31",
    "lat": "20.931000",
    "lon": "-89.588700"
  },
  {
    "id": "790211",
    "country": "MX",
    "zipcode": "97139",
    "name": "Prado Norte",
    "region": "Yucatán",
    "short_region": "31",
    "lat": "20.931000",
    "lon": "-89.588700"
  },
  {
    "id": "790212",
    "country": "MX",
    "zipcode": "97139",
    "name": "San Antonio Cinta",
    "region": "Yucatán",
    "short_region": "31",
    "lat": "20.931000",
    "lon": "-89.588700"
  },
  {
    "id": "790213",
    "country": "MX",
    "zipcode": "97139",
    "name": "San Antonio Cinta II",
    "region": "Yucatán",
    "short_region": "31",
    "lat": "20.931000",
    "lon": "-89.588700"
  },
  {
    "id": "790214",
    "country": "MX",
    "zipcode": "97139",
    "name": "San Antonio Cinta III",
    "region": "Yucatán",
    "short_region": "31",
    "lat": "20.931000",
    "lon": "-89.588700"
  },
  {
    "id": "790215",
    "country": "MX",
    "zipcode": "97139",
    "name": "Mail Express",
    "region": "Yucatán",
    "short_region": "31",
    "lat": "20.931000",
    "lon": "-89.588700"
  },
  {
    "id": "790216",
    "country": "MX",
    "zipcode": "97140",
    "name": "San Luis",
    "region": "Yucatán",
    "short_region": "31",
    "lat": "20.984000",
    "lon": "-89.639500"
  },
  {
    "id": "790217",
    "country": "MX",
    "zipcode": "97140",
    "name": "Lopez Mateos",
    "region": "Yucatán",
    "short_region": "31",
    "lat": "20.984000",
    "lon": "-89.639500"
  },
  {
    "id": "790218",
    "country": "MX",
    "zipcode": "97140",
    "name": "San Miguel",
    "region": "Yucatán",
    "short_region": "31",
    "lat": "20.871400",
    "lon": "-89.585300"
  },
  {
    "id": "790219",
    "country": "MX",
    "zipcode": "97142",
    "name": "Polígono CTM",
    "region": "Yucatán",
    "short_region": "31",
    "lat": "20.975800",
    "lon": "-89.534500"
  },
  {
    "id": "790220",
    "country": "MX",
    "zipcode": "97142",
    "name": "Antonia Jimenez Trava",
    "region": "Yucatán",
    "short_region": "31",
    "lat": "20.975800",
    "lon": "-89.534500"
  },
  {
    "id": "790221",
    "country": "MX",
    "zipcode": "97142",
    "name": "San Vicente Oriente",
    "region": "Yucatán",
    "short_region": "31",
    "lat": "20.975800",
    "lon": "-89.534500"
  },
  {
    "id": "790222",
    "country": "MX",
    "zipcode": "97142",
    "name": "Unidad Habitacional CTM",
    "region": "Yucatán",
    "short_region": "31",
    "lat": "20.975800",
    "lon": "-89.534500"
  },
  {
    "id": "790223",
    "country": "MX",
    "zipcode": "97142",
    "name": "Antonia Jimenez Trava II",
    "region": "Yucatán",
    "short_region": "31",
    "lat": "20.975800",
    "lon": "-89.534500"
  },
  {
    "id": "790224",
    "country": "MX",
    "zipcode": "97143",
    "name": "Brisas Del Bosque",
    "region": "Yucatán",
    "short_region": "31",
    "lat": "20.975800",
    "lon": "-89.534500"
  },
  {
    "id": "790225",
    "country": "MX",
    "zipcode": "97143",
    "name": "Vicente Guerrero",
    "region": "Yucatán",
    "short_region": "31",
    "lat": "20.975800",
    "lon": "-89.534500"
  },
  {
    "id": "790226",
    "country": "MX",
    "zipcode": "97143",
    "name": "San Vicente",
    "region": "Yucatán",
    "short_region": "31",
    "lat": "20.975800",
    "lon": "-89.534500"
  },
  {
    "id": "790227",
    "country": "MX",
    "zipcode": "97143",
    "name": "Boulevares de Oriente",
    "region": "Yucatán",
    "short_region": "31",
    "lat": "20.975800",
    "lon": "-89.534500"
  },
  {
    "id": "790228",
    "country": "MX",
    "zipcode": "97143",
    "name": "Confederación de Trabajadores Del Estado de Yucatán",
    "region": "Yucatán",
    "short_region": "31",
    "lat": "20.975800",
    "lon": "-89.534500"
  },
  {
    "id": "790229",
    "country": "MX",
    "zipcode": "97143",
    "name": "Bulevares de Oriente",
    "region": "Yucatán",
    "short_region": "31",
    "lat": "20.975800",
    "lon": "-89.534500"
  },
  {
    "id": "790230",
    "country": "MX",
    "zipcode": "97143",
    "name": "Itzimna 108",
    "region": "Yucatán",
    "short_region": "31",
    "lat": "20.975800",
    "lon": "-89.534500"
  },
  {
    "id": "790231",
    "country": "MX",
    "zipcode": "97143",
    "name": "Luis Donaldo Colosio",
    "region": "Yucatán",
    "short_region": "31",
    "lat": "20.984000",
    "lon": "-89.639500"
  },
  {
    "id": "790232",
    "country": "MX",
    "zipcode": "97143",
    "name": "La Isla",
    "region": "Yucatán",
    "short_region": "31",
    "lat": "20.984000",
    "lon": "-89.639500"
  },
  {
    "id": "790233",
    "country": "MX",
    "zipcode": "97143",
    "name": "Polígono 108",
    "region": "Yucatán",
    "short_region": "31",
    "lat": "20.975800",
    "lon": "-89.534500"
  },
  {
    "id": "790234",
    "country": "MX",
    "zipcode": "97143",
    "name": "Leandro Valle",
    "region": "Yucatán",
    "short_region": "31",
    "lat": "20.975800",
    "lon": "-89.534500"
  },
  {
    "id": "790235",
    "country": "MX",
    "zipcode": "97144",
    "name": "Ampliación las Brisas",
    "region": "Yucatán",
    "short_region": "31",
    "lat": "20.975800",
    "lon": "-89.534500"
  },
  {
    "id": "790236",
    "country": "MX",
    "zipcode": "97144",
    "name": "Emiliano Zapata Ote",
    "region": "Yucatán",
    "short_region": "31",
    "lat": "20.975800",
    "lon": "-89.534500"
  },
  {
    "id": "790237",
    "country": "MX",
    "zipcode": "97144",
    "name": "Las Brisas Del Norte",
    "region": "Yucatán",
    "short_region": "31",
    "lat": "20.975800",
    "lon": "-89.534500"
  },
  {
    "id": "790238",
    "country": "MX",
    "zipcode": "97144",
    "name": "Las Brisas",
    "region": "Yucatán",
    "short_region": "31",
    "lat": "20.984000",
    "lon": "-89.639500"
  },
  {
    "id": "790239",
    "country": "MX",
    "zipcode": "97145",
    "name": "Las Palmas",
    "region": "Yucatán",
    "short_region": "31",
    "lat": "20.984000",
    "lon": "-89.639500"
  },
  {
    "id": "790240",
    "country": "MX",
    "zipcode": "97145",
    "name": "San Juan Grande",
    "region": "Yucatán",
    "short_region": "31",
    "lat": "20.983300",
    "lon": "-89.600000"
  },
  {
    "id": "790241",
    "country": "MX",
    "zipcode": "97145",
    "name": "Pet-kanche",
    "region": "Yucatán",
    "short_region": "31",
    "lat": "20.983300",
    "lon": "-89.600000"
  },
  {
    "id": "790242",
    "country": "MX",
    "zipcode": "97145",
    "name": "Nueva Alemán",
    "region": "Yucatán",
    "short_region": "31",
    "lat": "20.983300",
    "lon": "-89.600000"
  },
  {
    "id": "790243",
    "country": "MX",
    "zipcode": "97145",
    "name": "Noria II",
    "region": "Yucatán",
    "short_region": "31",
    "lat": "20.983300",
    "lon": "-89.600000"
  },
  {
    "id": "790244",
    "country": "MX",
    "zipcode": "97145",
    "name": "Los Álamos Alemán",
    "region": "Yucatán",
    "short_region": "31",
    "lat": "20.983300",
    "lon": "-89.600000"
  },
  {
    "id": "790245",
    "country": "MX",
    "zipcode": "97145",
    "name": "Nueva Alemán Etapa III Pet-kanche",
    "region": "Yucatán",
    "short_region": "31",
    "lat": "20.983300",
    "lon": "-89.600000"
  },
  {
    "id": "790246",
    "country": "MX",
    "zipcode": "97145",
    "name": "Petkanche",
    "region": "Yucatán",
    "short_region": "31",
    "lat": "20.983300",
    "lon": "-89.600000"
  },
  {
    "id": "790247",
    "country": "MX",
    "zipcode": "97146",
    "name": "Las Flores",
    "region": "Yucatán",
    "short_region": "31",
    "lat": "20.984000",
    "lon": "-89.639500"
  },
  {
    "id": "790248",
    "country": "MX",
    "zipcode": "97146",
    "name": "Nueva Alemán",
    "region": "Yucatán",
    "short_region": "31",
    "lat": "21.072800",
    "lon": "-89.418300"
  },
  {
    "id": "790249",
    "country": "MX",
    "zipcode": "97147",
    "name": "San Nicolás",
    "region": "Yucatán",
    "short_region": "31",
    "lat": "20.984000",
    "lon": "-89.639500"
  },
  {
    "id": "790250",
    "country": "MX",
    "zipcode": "97147",
    "name": "Nuevo Yucatán",
    "region": "Yucatán",
    "short_region": "31",
    "lat": "20.975800",
    "lon": "-89.534500"
  },
  {
    "id": "790251",
    "country": "MX",
    "zipcode": "97147",
    "name": "San Nicolás Del Norte",
    "region": "Yucatán",
    "short_region": "31",
    "lat": "20.975800",
    "lon": "-89.534500"
  },
  {
    "id": "790252",
    "country": "MX",
    "zipcode": "97148",
    "name": "Miguel Alemán",
    "region": "Yucatán",
    "short_region": "31",
    "lat": "20.975800",
    "lon": "-89.534500"
  },
  {
    "id": "790253",
    "country": "MX",
    "zipcode": "97149",
    "name": "San Esteban",
    "region": "Yucatán",
    "short_region": "31",
    "lat": "20.984000",
    "lon": "-89.639500"
  },
  {
    "id": "790254",
    "country": "MX",
    "zipcode": "97150",
    "name": "Trava Quintero",
    "region": "Yucatán",
    "short_region": "31",
    "lat": "20.872500",
    "lon": "-89.551000"
  },
  {
    "id": "790255",
    "country": "MX",
    "zipcode": "97150",
    "name": "Industrial",
    "region": "Yucatán",
    "short_region": "31",
    "lat": "20.872500",
    "lon": "-89.551000"
  },
  {
    "id": "790256",
    "country": "MX",
    "zipcode": "97155",
    "name": "Villa Fontana",
    "region": "Yucatán",
    "short_region": "31",
    "lat": "20.885000",
    "lon": "-89.504500"
  },
  {
    "id": "790257",
    "country": "MX",
    "zipcode": "97155",
    "name": "Lourdes Industrial",
    "region": "Yucatán",
    "short_region": "31",
    "lat": "20.885000",
    "lon": "-89.504500"
  },
  {
    "id": "790258",
    "country": "MX",
    "zipcode": "97155",
    "name": "Fenix",
    "region": "Yucatán",
    "short_region": "31",
    "lat": "20.984000",
    "lon": "-89.639500"
  },
  {
    "id": "790259",
    "country": "MX",
    "zipcode": "97156",
    "name": "Los Reyes",
    "region": "Yucatán",
    "short_region": "31",
    "lat": "20.860000",
    "lon": "-89.597500"
  },
  {
    "id": "790260",
    "country": "MX",
    "zipcode": "97157",
    "name": "Lázaro Cárdenas Ote",
    "region": "Yucatán",
    "short_region": "31",
    "lat": "20.872500",
    "lon": "-89.551000"
  },
  {
    "id": "790261",
    "country": "MX",
    "zipcode": "97157",
    "name": "Nueva Mayapan",
    "region": "Yucatán",
    "short_region": "31",
    "lat": "20.872500",
    "lon": "-89.551000"
  },
  {
    "id": "790262",
    "country": "MX",
    "zipcode": "97158",
    "name": "Chuminopolis",
    "region": "Yucatán",
    "short_region": "31",
    "lat": "20.872500",
    "lon": "-89.551000"
  },
  {
    "id": "790263",
    "country": "MX",
    "zipcode": "97159",
    "name": "Máximo Ancona",
    "region": "Yucatán",
    "short_region": "31",
    "lat": "20.872500",
    "lon": "-89.551000"
  },
  {
    "id": "790264",
    "country": "MX",
    "zipcode": "97159",
    "name": "Mayapan",
    "region": "Yucatán",
    "short_region": "31",
    "lat": "20.984000",
    "lon": "-89.639500"
  },
  {
    "id": "790265",
    "country": "MX",
    "zipcode": "97159",
    "name": "Manuel Avila Camacho",
    "region": "Yucatán",
    "short_region": "31",
    "lat": "20.872500",
    "lon": "-89.551000"
  },
  {
    "id": "790266",
    "country": "MX",
    "zipcode": "97159",
    "name": "Nueva Pacabtun",
    "region": "Yucatán",
    "short_region": "31",
    "lat": "20.872500",
    "lon": "-89.551000"
  },
  {
    "id": "790267",
    "country": "MX",
    "zipcode": "97159",
    "name": "Nueva Mayapan",
    "region": "Yucatán",
    "short_region": "31",
    "lat": "20.872500",
    "lon": "-89.551000"
  },
  {
    "id": "790268",
    "country": "MX",
    "zipcode": "97159",
    "name": "Lotificacion las Brisas",
    "region": "Yucatán",
    "short_region": "31",
    "lat": "20.872500",
    "lon": "-89.551000"
  },
  {
    "id": "790269",
    "country": "MX",
    "zipcode": "97160",
    "name": "Manuel Avila Camacho",
    "region": "Yucatán",
    "short_region": "31",
    "lat": "20.983300",
    "lon": "-89.566700"
  },
  {
    "id": "790270",
    "country": "MX",
    "zipcode": "97160",
    "name": "Privada Del Autotransporte CTM",
    "region": "Yucatán",
    "short_region": "31",
    "lat": "20.983300",
    "lon": "-89.566700"
  },
  {
    "id": "790271",
    "country": "MX",
    "zipcode": "97160",
    "name": "Del Parque",
    "region": "Yucatán",
    "short_region": "31",
    "lat": "20.983300",
    "lon": "-89.566700"
  },
  {
    "id": "790272",
    "country": "MX",
    "zipcode": "97160",
    "name": "Pacabtun",
    "region": "Yucatán",
    "short_region": "31",
    "lat": "20.983300",
    "lon": "-89.566700"
  },
  {
    "id": "790273",
    "country": "MX",
    "zipcode": "97165",
    "name": "Melchor Ocampo",
    "region": "Yucatán",
    "short_region": "31",
    "lat": "20.983300",
    "lon": "-89.566700"
  },
  {
    "id": "790274",
    "country": "MX",
    "zipcode": "97165",
    "name": "Melchor Ocampo II",
    "region": "Yucatán",
    "short_region": "31",
    "lat": "20.983300",
    "lon": "-89.566700"
  },
  {
    "id": "790275",
    "country": "MX",
    "zipcode": "97166",
    "name": "Fidel Velázquez 2a Etapa",
    "region": "Yucatán",
    "short_region": "31",
    "lat": "20.983300",
    "lon": "-89.566700"
  },
  {
    "id": "790276",
    "country": "MX",
    "zipcode": "97166",
    "name": "Fidel Velázquez",
    "region": "Yucatán",
    "short_region": "31",
    "lat": "20.983300",
    "lon": "-89.566700"
  },
  {
    "id": "790277",
    "country": "MX",
    "zipcode": "97166",
    "name": "Salvador Alvarado Oriente",
    "region": "Yucatán",
    "short_region": "31",
    "lat": "20.983300",
    "lon": "-89.566700"
  },
  {
    "id": "790278",
    "country": "MX",
    "zipcode": "97167",
    "name": "Emilio Portes Gil",
    "region": "Yucatán",
    "short_region": "31",
    "lat": "20.983300",
    "lon": "-89.566700"
  },
  {
    "id": "790279",
    "country": "MX",
    "zipcode": "97167",
    "name": "Privada Emilio Portes Gil",
    "region": "Yucatán",
    "short_region": "31",
    "lat": "20.983300",
    "lon": "-89.566700"
  },
  {
    "id": "790280",
    "country": "MX",
    "zipcode": "97167",
    "name": "Bosques de Oriente",
    "region": "Yucatán",
    "short_region": "31",
    "lat": "20.983300",
    "lon": "-89.566700"
  },
  {
    "id": "790281",
    "country": "MX",
    "zipcode": "97168",
    "name": "Madrid",
    "region": "Yucatán",
    "short_region": "31",
    "lat": "20.983300",
    "lon": "-89.566700"
  },
  {
    "id": "790282",
    "country": "MX",
    "zipcode": "97168",
    "name": "Del Carmen",
    "region": "Yucatán",
    "short_region": "31",
    "lat": "20.983300",
    "lon": "-89.566700"
  },
  {
    "id": "790283",
    "country": "MX",
    "zipcode": "97168",
    "name": "Jardines de Miraflores",
    "region": "Yucatán",
    "short_region": "31",
    "lat": "20.983300",
    "lon": "-89.566700"
  },
  {
    "id": "790284",
    "country": "MX",
    "zipcode": "97168",
    "name": "Cerillera",
    "region": "Yucatán",
    "short_region": "31",
    "lat": "20.983300",
    "lon": "-89.566700"
  },
  {
    "id": "790285",
    "country": "MX",
    "zipcode": "97168",
    "name": "Cortes Sarmiento",
    "region": "Yucatán",
    "short_region": "31",
    "lat": "20.983300",
    "lon": "-89.566700"
  },
  {
    "id": "790286",
    "country": "MX",
    "zipcode": "97169",
    "name": "Wallis",
    "region": "Yucatán",
    "short_region": "31",
    "lat": "20.983300",
    "lon": "-89.566700"
  },
  {
    "id": "790287",
    "country": "MX",
    "zipcode": "97169",
    "name": "Esperanza",
    "region": "Yucatán",
    "short_region": "31",
    "lat": "20.984000",
    "lon": "-89.639500"
  },
  {
    "id": "790288",
    "country": "MX",
    "zipcode": "97170",
    "name": "Chichen-itza",
    "region": "Yucatán",
    "short_region": "31",
    "lat": "20.984000",
    "lon": "-89.639500"
  },
  {
    "id": "790289",
    "country": "MX",
    "zipcode": "97170",
    "name": "Nueva Chichen-itza",
    "region": "Yucatán",
    "short_region": "31",
    "lat": "20.950000",
    "lon": "-89.616700"
  },
  {
    "id": "790290",
    "country": "MX",
    "zipcode": "97173",
    "name": "Vergel IV",
    "region": "Yucatán",
    "short_region": "31",
    "lat": "20.950000",
    "lon": "-89.616700"
  },
  {
    "id": "790291",
    "country": "MX",
    "zipcode": "97173",
    "name": "Real San José",
    "region": "Yucatán",
    "short_region": "31",
    "lat": "20.950000",
    "lon": "-89.616700"
  },
  {
    "id": "790292",
    "country": "MX",
    "zipcode": "97173",
    "name": "Misne III",
    "region": "Yucatán",
    "short_region": "31",
    "lat": "20.950000",
    "lon": "-89.616700"
  },
  {
    "id": "790293",
    "country": "MX",
    "zipcode": "97173",
    "name": "Vergel III",
    "region": "Yucatán",
    "short_region": "31",
    "lat": "20.950000",
    "lon": "-89.616700"
  },
  {
    "id": "790294",
    "country": "MX",
    "zipcode": "97173",
    "name": "Vergel II",
    "region": "Yucatán",
    "short_region": "31",
    "lat": "20.950000",
    "lon": "-89.616700"
  },
  {
    "id": "790295",
    "country": "MX",
    "zipcode": "97173",
    "name": "Vergel I",
    "region": "Yucatán",
    "short_region": "31",
    "lat": "20.950000",
    "lon": "-89.616700"
  },
  {
    "id": "790296",
    "country": "MX",
    "zipcode": "97173",
    "name": "San Jose Vergel",
    "region": "Yucatán",
    "short_region": "31",
    "lat": "20.950000",
    "lon": "-89.616700"
  },
  {
    "id": "790297",
    "country": "MX",
    "zipcode": "97174",
    "name": "Villas La Macarena",
    "region": "Yucatán",
    "short_region": "31",
    "lat": "20.950000",
    "lon": "-89.616700"
  },
  {
    "id": "790298",
    "country": "MX",
    "zipcode": "97174",
    "name": "Morelos Oriente",
    "region": "Yucatán",
    "short_region": "31",
    "lat": "20.950000",
    "lon": "-89.616700"
  },
  {
    "id": "790299",
    "country": "MX",
    "zipcode": "97174",
    "name": "Azcorra II",
    "region": "Yucatán",
    "short_region": "31",
    "lat": "20.950000",
    "lon": "-89.616700"
  },
  {
    "id": "790300",
    "country": "MX",
    "zipcode": "97175",
    "name": "Amalia Solorzano",
    "region": "Yucatán",
    "short_region": "31",
    "lat": "20.950000",
    "lon": "-89.616700"
  },
  {
    "id": "790301",
    "country": "MX",
    "zipcode": "97176",
    "name": "Vergel 65",
    "region": "Yucatán",
    "short_region": "31",
    "lat": "20.950000",
    "lon": "-89.616700"
  },
  {
    "id": "790302",
    "country": "MX",
    "zipcode": "97176",
    "name": "Paseos Del Vergel",
    "region": "Yucatán",
    "short_region": "31",
    "lat": "20.950000",
    "lon": "-89.616700"
  },
  {
    "id": "790303",
    "country": "MX",
    "zipcode": "97176",
    "name": "San Pablo Oriente",
    "region": "Yucatán",
    "short_region": "31",
    "lat": "20.950000",
    "lon": "-89.616700"
  },
  {
    "id": "790304",
    "country": "MX",
    "zipcode": "97176",
    "name": "San Antonio Kaua",
    "region": "Yucatán",
    "short_region": "31",
    "lat": "20.950000",
    "lon": "-89.616700"
  },
  {
    "id": "790305",
    "country": "MX",
    "zipcode": "97176",
    "name": "Aquaparque",
    "region": "Yucatán",
    "short_region": "31",
    "lat": "20.950000",
    "lon": "-89.616700"
  },
  {
    "id": "790306",
    "country": "MX",
    "zipcode": "97176",
    "name": "Unidad Habitacional Ricardo Flores Magón",
    "region": "Yucatán",
    "short_region": "31",
    "lat": "20.950000",
    "lon": "-89.616700"
  },
  {
    "id": "790307",
    "country": "MX",
    "zipcode": "97176",
    "name": "Misné II",
    "region": "Yucatán",
    "short_region": "31",
    "lat": "20.950000",
    "lon": "-89.616700"
  },
  {
    "id": "790308",
    "country": "MX",
    "zipcode": "97176",
    "name": "Hacienda el Vergel",
    "region": "Yucatán",
    "short_region": "31",
    "lat": "20.950000",
    "lon": "-89.616700"
  },
  {
    "id": "790309",
    "country": "MX",
    "zipcode": "97177",
    "name": "Azcorra",
    "region": "Yucatán",
    "short_region": "31",
    "lat": "20.950000",
    "lon": "-89.616700"
  },
  {
    "id": "790310",
    "country": "MX",
    "zipcode": "97178",
    "name": "Benito Juárez Ote",
    "region": "Yucatán",
    "short_region": "31",
    "lat": "20.950000",
    "lon": "-89.616700"
  },
  {
    "id": "790311",
    "country": "MX",
    "zipcode": "97179",
    "name": "Miraflores",
    "region": "Yucatán",
    "short_region": "31",
    "lat": "20.984000",
    "lon": "-89.639500"
  },
  {
    "id": "790312",
    "country": "MX",
    "zipcode": "97179",
    "name": "Privada Miraflores",
    "region": "Yucatán",
    "short_region": "31",
    "lat": "20.950000",
    "lon": "-89.616700"
  },
  {
    "id": "790313",
    "country": "MX",
    "zipcode": "97180",
    "name": "Vicente Solis",
    "region": "Yucatán",
    "short_region": "31",
    "lat": "20.941500",
    "lon": "-89.616200"
  },
  {
    "id": "790314",
    "country": "MX",
    "zipcode": "97189",
    "name": "Canto",
    "region": "Yucatán",
    "short_region": "31",
    "lat": "21.058900",
    "lon": "-89.571900"
  },
  {
    "id": "790315",
    "country": "MX",
    "zipcode": "97189",
    "name": "San Jose",
    "region": "Yucatán",
    "short_region": "31",
    "lat": "20.824200",
    "lon": "-89.660500"
  },
  {
    "id": "790316",
    "country": "MX",
    "zipcode": "97190",
    "name": "Morelos",
    "region": "Yucatán",
    "short_region": "31",
    "lat": "20.984000",
    "lon": "-89.639500"
  },
  {
    "id": "790317",
    "country": "MX",
    "zipcode": "97190",
    "name": "Morelos Issste Fovissste",
    "region": "Yucatán",
    "short_region": "31",
    "lat": "20.895000",
    "lon": "-89.605000"
  },
  {
    "id": "790318",
    "country": "MX",
    "zipcode": "97195",
    "name": "San Antonio Kaua",
    "region": "Yucatán",
    "short_region": "31",
    "lat": "20.895000",
    "lon": "-89.605000"
  },
  {
    "id": "790319",
    "country": "MX",
    "zipcode": "97195",
    "name": "San Antonio Kaua I",
    "region": "Yucatán",
    "short_region": "31",
    "lat": "20.895000",
    "lon": "-89.605000"
  },
  {
    "id": "790320",
    "country": "MX",
    "zipcode": "97195",
    "name": "Miraflores II",
    "region": "Yucatán",
    "short_region": "31",
    "lat": "20.895000",
    "lon": "-89.605000"
  },
  {
    "id": "790321",
    "country": "MX",
    "zipcode": "97195",
    "name": "Nueva Kukulkan",
    "region": "Yucatán",
    "short_region": "31",
    "lat": "20.895000",
    "lon": "-89.605000"
  },
  {
    "id": "790322",
    "country": "MX",
    "zipcode": "97195",
    "name": "San Antonio Kaua II",
    "region": "Yucatán",
    "short_region": "31",
    "lat": "20.895000",
    "lon": "-89.605000"
  },
  {
    "id": "790323",
    "country": "MX",
    "zipcode": "97195",
    "name": "Jardines de San Antonio Kaua",
    "region": "Yucatán",
    "short_region": "31",
    "lat": "20.895000",
    "lon": "-89.605000"
  },
  {
    "id": "790324",
    "country": "MX",
    "zipcode": "97196",
    "name": "Militar",
    "region": "Yucatán",
    "short_region": "31",
    "lat": "20.895000",
    "lon": "-89.605000"
  },
  {
    "id": "790325",
    "country": "MX",
    "zipcode": "97196",
    "name": "Salvador Alvarado Sur",
    "region": "Yucatán",
    "short_region": "31",
    "lat": "20.895000",
    "lon": "-89.605000"
  },
  {
    "id": "790326",
    "country": "MX",
    "zipcode": "97196",
    "name": "San Antonio Del Sur",
    "region": "Yucatán",
    "short_region": "31",
    "lat": "20.895000",
    "lon": "-89.605000"
  },
  {
    "id": "790327",
    "country": "MX",
    "zipcode": "97196",
    "name": "Salvador Alvarado Sur II",
    "region": "Yucatán",
    "short_region": "31",
    "lat": "20.895000",
    "lon": "-89.605000"
  },
  {
    "id": "790328",
    "country": "MX",
    "zipcode": "97196",
    "name": "Ampliación Salvador Alvarado Sur",
    "region": "Yucatán",
    "short_region": "31",
    "lat": "20.895000",
    "lon": "-89.605000"
  },
  {
    "id": "790329",
    "country": "MX",
    "zipcode": "97197",
    "name": "Granjas",
    "region": "Yucatán",
    "short_region": "31",
    "lat": "20.895000",
    "lon": "-89.605000"
  },
  {
    "id": "790330",
    "country": "MX",
    "zipcode": "97198",
    "name": "Reparto Granjas",
    "region": "Yucatán",
    "short_region": "31",
    "lat": "20.895000",
    "lon": "-89.605000"
  },
  {
    "id": "790331",
    "country": "MX",
    "zipcode": "97198",
    "name": "Kukulcan",
    "region": "Yucatán",
    "short_region": "31",
    "lat": "20.895000",
    "lon": "-89.605000"
  },
  {
    "id": "790332",
    "country": "MX",
    "zipcode": "97198",
    "name": "Ampliación Granjas",
    "region": "Yucatán",
    "short_region": "31",
    "lat": "20.895000",
    "lon": "-89.605000"
  },
  {
    "id": "790333",
    "country": "MX",
    "zipcode": "97199",
    "name": "Maria Luisa",
    "region": "Yucatán",
    "short_region": "31",
    "lat": "20.895000",
    "lon": "-89.605000"
  },
  {
    "id": "790334",
    "country": "MX",
    "zipcode": "97203",
    "name": "San Pablo",
    "region": "Yucatán",
    "short_region": "31",
    "lat": "20.984000",
    "lon": "-89.639500"
  },
  {
    "id": "790335",
    "country": "MX",
    "zipcode": "97203",
    "name": "Magnolias",
    "region": "Yucatán",
    "short_region": "31",
    "lat": "20.984000",
    "lon": "-89.639500"
  },
  {
    "id": "790336",
    "country": "MX",
    "zipcode": "97203",
    "name": "Las Haciendas III",
    "region": "Yucatán",
    "short_region": "31",
    "lat": "20.975400",
    "lon": "-89.617000"
  },
  {
    "id": "790337",
    "country": "MX",
    "zipcode": "97203",
    "name": "Nuevo San José",
    "region": "Yucatán",
    "short_region": "31",
    "lat": "20.975400",
    "lon": "-89.617000"
  },
  {
    "id": "790338",
    "country": "MX",
    "zipcode": "97203",
    "name": "Ampliación Francisco de Montejo",
    "region": "Yucatán",
    "short_region": "31",
    "lat": "20.975400",
    "lon": "-89.617000"
  },
  {
    "id": "790339",
    "country": "MX",
    "zipcode": "97203",
    "name": "El Prado",
    "region": "Yucatán",
    "short_region": "31",
    "lat": "20.975400",
    "lon": "-89.617000"
  },
  {
    "id": "790340",
    "country": "MX",
    "zipcode": "97203",
    "name": "Cocoteros",
    "region": "Yucatán",
    "short_region": "31",
    "lat": "20.975400",
    "lon": "-89.617000"
  },
  {
    "id": "790341",
    "country": "MX",
    "zipcode": "97203",
    "name": "Del Bosque",
    "region": "Yucatán",
    "short_region": "31",
    "lat": "20.975400",
    "lon": "-89.617000"
  },
  {
    "id": "790342",
    "country": "MX",
    "zipcode": "97203",
    "name": "Industrias No Contaminantes",
    "region": "Yucatán",
    "short_region": "31",
    "lat": "20.975400",
    "lon": "-89.617000"
  },
  {
    "id": "790343",
    "country": "MX",
    "zipcode": "97203",
    "name": "Privada Palma Corozal",
    "region": "Yucatán",
    "short_region": "31",
    "lat": "20.975400",
    "lon": "-89.617000"
  },
  {
    "id": "790344",
    "country": "MX",
    "zipcode": "97203",
    "name": "Privada Chuburna de Hidalgo (II)",
    "region": "Yucatán",
    "short_region": "31",
    "lat": "20.975400",
    "lon": "-89.617000"
  },
  {
    "id": "790345",
    "country": "MX",
    "zipcode": "97203",
    "name": "Platino",
    "region": "Yucatán",
    "short_region": "31",
    "lat": "20.975400",
    "lon": "-89.617000"
  },
  {
    "id": "790346",
    "country": "MX",
    "zipcode": "97203",
    "name": "Arboledas Chuburna",
    "region": "Yucatán",
    "short_region": "31",
    "lat": "20.975400",
    "lon": "-89.617000"
  },
  {
    "id": "790347",
    "country": "MX",
    "zipcode": "97203",
    "name": "Arcos del Sol",
    "region": "Yucatán",
    "short_region": "31",
    "lat": "20.975400",
    "lon": "-89.617000"
  },
  {
    "id": "790348",
    "country": "MX",
    "zipcode": "97203",
    "name": "Aurea Residencial",
    "region": "Yucatán",
    "short_region": "31",
    "lat": "20.975400",
    "lon": "-89.617000"
  },
  {
    "id": "790349",
    "country": "MX",
    "zipcode": "97203",
    "name": "Camara de La Construcción",
    "region": "Yucatán",
    "short_region": "31",
    "lat": "20.975400",
    "lon": "-89.617000"
  },
  {
    "id": "790350",
    "country": "MX",
    "zipcode": "97203",
    "name": "Francisco de Montejo II",
    "region": "Yucatán",
    "short_region": "31",
    "lat": "20.975400",
    "lon": "-89.617000"
  },
  {
    "id": "790351",
    "country": "MX",
    "zipcode": "97203",
    "name": "Francisco de Montejo III",
    "region": "Yucatán",
    "short_region": "31",
    "lat": "20.975400",
    "lon": "-89.617000"
  },
  {
    "id": "790352",
    "country": "MX",
    "zipcode": "97203",
    "name": "Francisco de Montejo IV",
    "region": "Yucatán",
    "short_region": "31",
    "lat": "20.975400",
    "lon": "-89.617000"
  },
  {
    "id": "790353",
    "country": "MX",
    "zipcode": "97203",
    "name": "Francisco de Montejo V",
    "region": "Yucatán",
    "short_region": "31",
    "lat": "20.975400",
    "lon": "-89.617000"
  },
  {
    "id": "790354",
    "country": "MX",
    "zipcode": "97203",
    "name": "La Castellana",
    "region": "Yucatán",
    "short_region": "31",
    "lat": "20.975400",
    "lon": "-89.617000"
  },
  {
    "id": "790355",
    "country": "MX",
    "zipcode": "97203",
    "name": "Villas las Palmas",
    "region": "Yucatán",
    "short_region": "31",
    "lat": "20.975400",
    "lon": "-89.617000"
  },
  {
    "id": "790356",
    "country": "MX",
    "zipcode": "97203",
    "name": "Vista Alegre de Chuburna",
    "region": "Yucatán",
    "short_region": "31",
    "lat": "20.975400",
    "lon": "-89.617000"
  },
  {
    "id": "790357",
    "country": "MX",
    "zipcode": "97203",
    "name": "Chuburna de Hidalgo III",
    "region": "Yucatán",
    "short_region": "31",
    "lat": "20.975400",
    "lon": "-89.617000"
  },
  {
    "id": "790358",
    "country": "MX",
    "zipcode": "97203",
    "name": "Nueva San Jose Chuburna",
    "region": "Yucatán",
    "short_region": "31",
    "lat": "20.975400",
    "lon": "-89.617000"
  },
  {
    "id": "790359",
    "country": "MX",
    "zipcode": "97203",
    "name": "Francisco de Montejo",
    "region": "Yucatán",
    "short_region": "31",
    "lat": "20.975400",
    "lon": "-89.617000"
  },
  {
    "id": "790360",
    "country": "MX",
    "zipcode": "97203",
    "name": "San Francisco Chuburna II",
    "region": "Yucatán",
    "short_region": "31",
    "lat": "20.975400",
    "lon": "-89.617000"
  },
  {
    "id": "790361",
    "country": "MX",
    "zipcode": "97203",
    "name": "Almendros",
    "region": "Yucatán",
    "short_region": "31",
    "lat": "20.975400",
    "lon": "-89.617000"
  },
  {
    "id": "790362",
    "country": "MX",
    "zipcode": "97203",
    "name": "Brisas de Chuburna",
    "region": "Yucatán",
    "short_region": "31",
    "lat": "20.975400",
    "lon": "-89.617000"
  },
  {
    "id": "790363",
    "country": "MX",
    "zipcode": "97203",
    "name": "El Conquistador",
    "region": "Yucatán",
    "short_region": "31",
    "lat": "20.975400",
    "lon": "-89.617000"
  },
  {
    "id": "790364",
    "country": "MX",
    "zipcode": "97203",
    "name": "Lotificacion Chuburna de Hidalgo I",
    "region": "Yucatán",
    "short_region": "31",
    "lat": "20.975400",
    "lon": "-89.617000"
  },
  {
    "id": "790365",
    "country": "MX",
    "zipcode": "97203",
    "name": "Terranova",
    "region": "Yucatán",
    "short_region": "31",
    "lat": "20.975400",
    "lon": "-89.617000"
  },
  {
    "id": "790366",
    "country": "MX",
    "zipcode": "97203",
    "name": "Villas Del Prado",
    "region": "Yucatán",
    "short_region": "31",
    "lat": "20.975400",
    "lon": "-89.617000"
  },
  {
    "id": "790367",
    "country": "MX",
    "zipcode": "97203",
    "name": "Chuburna de Hidalgo V",
    "region": "Yucatán",
    "short_region": "31",
    "lat": "20.975400",
    "lon": "-89.617000"
  },
  {
    "id": "790368",
    "country": "MX",
    "zipcode": "97203",
    "name": "Cordeleros de Chuburna",
    "region": "Yucatán",
    "short_region": "31",
    "lat": "20.975400",
    "lon": "-89.617000"
  },
  {
    "id": "790369",
    "country": "MX",
    "zipcode": "97203",
    "name": "Lotificacion Chuburna de Hidalgo II",
    "region": "Yucatán",
    "short_region": "31",
    "lat": "20.975400",
    "lon": "-89.617000"
  },
  {
    "id": "790370",
    "country": "MX",
    "zipcode": "97203",
    "name": "Privada las Palmas",
    "region": "Yucatán",
    "short_region": "31",
    "lat": "20.975400",
    "lon": "-89.617000"
  },
  {
    "id": "790371",
    "country": "MX",
    "zipcode": "97203",
    "name": "Arekas",
    "region": "Yucatán",
    "short_region": "31",
    "lat": "20.975400",
    "lon": "-89.617000"
  },
  {
    "id": "790372",
    "country": "MX",
    "zipcode": "97203",
    "name": "Chuburna de Hidalgo IV",
    "region": "Yucatán",
    "short_region": "31",
    "lat": "20.975400",
    "lon": "-89.617000"
  },
  {
    "id": "790373",
    "country": "MX",
    "zipcode": "97203",
    "name": "Privada Chuburna Plus",
    "region": "Yucatán",
    "short_region": "31",
    "lat": "20.975400",
    "lon": "-89.617000"
  },
  {
    "id": "790374",
    "country": "MX",
    "zipcode": "97203",
    "name": "Privada Villa Palma Real",
    "region": "Yucatán",
    "short_region": "31",
    "lat": "20.975400",
    "lon": "-89.617000"
  },
  {
    "id": "790375",
    "country": "MX",
    "zipcode": "97203",
    "name": "San Pedro Uxmal",
    "region": "Yucatán",
    "short_region": "31",
    "lat": "20.975400",
    "lon": "-89.617000"
  },
  {
    "id": "790376",
    "country": "MX",
    "zipcode": "97203",
    "name": "Mérida",
    "region": "Yucatán",
    "short_region": "31",
    "lat": "20.975400",
    "lon": "-89.617000"
  },
  {
    "id": "790377",
    "country": "MX",
    "zipcode": "97203",
    "name": "Puesta del Sol",
    "region": "Yucatán",
    "short_region": "31",
    "lat": "20.975400",
    "lon": "-89.617000"
  },
  {
    "id": "790378",
    "country": "MX",
    "zipcode": "97203",
    "name": "Tulias de Chuburna",
    "region": "Yucatán",
    "short_region": "31",
    "lat": "20.975400",
    "lon": "-89.617000"
  },
  {
    "id": "790379",
    "country": "MX",
    "zipcode": "97203",
    "name": "Rincón Colonial",
    "region": "Yucatán",
    "short_region": "31",
    "lat": "20.975400",
    "lon": "-89.617000"
  },
  {
    "id": "790380",
    "country": "MX",
    "zipcode": "97204",
    "name": "Vía Montejo",
    "region": "Yucatán",
    "short_region": "31",
    "lat": "21.068500",
    "lon": "-89.655900"
  },
  {
    "id": "790381",
    "country": "MX",
    "zipcode": "97204",
    "name": "Residencial Piedrasul",
    "region": "Yucatán",
    "short_region": "31",
    "lat": "21.068500",
    "lon": "-89.655900"
  },
  {
    "id": "790382",
    "country": "MX",
    "zipcode": "97204",
    "name": "Residencial Galerias",
    "region": "Yucatán",
    "short_region": "31",
    "lat": "21.068500",
    "lon": "-89.655900"
  },
  {
    "id": "790383",
    "country": "MX",
    "zipcode": "97204",
    "name": "Revolución",
    "region": "Yucatán",
    "short_region": "31",
    "lat": "21.101900",
    "lon": "-89.676400"
  },
  {
    "id": "790384",
    "country": "MX",
    "zipcode": "97204",
    "name": "Xcumpich",
    "region": "Yucatán",
    "short_region": "31",
    "lat": "21.035000",
    "lon": "-89.635500"
  },
  {
    "id": "790385",
    "country": "MX",
    "zipcode": "97205",
    "name": "San Luis Chuburna",
    "region": "Yucatán",
    "short_region": "31",
    "lat": "21.077100",
    "lon": "-89.580200"
  },
  {
    "id": "790386",
    "country": "MX",
    "zipcode": "97205",
    "name": "Las Hadas",
    "region": "Yucatán",
    "short_region": "31",
    "lat": "21.077100",
    "lon": "-89.580200"
  },
  {
    "id": "790387",
    "country": "MX",
    "zipcode": "97205",
    "name": "Loma Bonita",
    "region": "Yucatán",
    "short_region": "31",
    "lat": "21.077100",
    "lon": "-89.580200"
  },
  {
    "id": "790388",
    "country": "MX",
    "zipcode": "97205",
    "name": "Privada Arboledas",
    "region": "Yucatán",
    "short_region": "31",
    "lat": "21.077100",
    "lon": "-89.580200"
  },
  {
    "id": "790389",
    "country": "MX",
    "zipcode": "97205",
    "name": "Privada Campestre Chuburna",
    "region": "Yucatán",
    "short_region": "31",
    "lat": "21.077100",
    "lon": "-89.580200"
  },
  {
    "id": "790390",
    "country": "MX",
    "zipcode": "97205",
    "name": "Privada Turquesa",
    "region": "Yucatán",
    "short_region": "31",
    "lat": "21.077100",
    "lon": "-89.580200"
  },
  {
    "id": "790391",
    "country": "MX",
    "zipcode": "97205",
    "name": "Residencial Hacienda Real",
    "region": "Yucatán",
    "short_region": "31",
    "lat": "21.077100",
    "lon": "-89.580200"
  },
  {
    "id": "790392",
    "country": "MX",
    "zipcode": "97205",
    "name": "Floresta",
    "region": "Yucatán",
    "short_region": "31",
    "lat": "21.077100",
    "lon": "-89.580200"
  },
  {
    "id": "790393",
    "country": "MX",
    "zipcode": "97205",
    "name": "Pinzon",
    "region": "Yucatán",
    "short_region": "31",
    "lat": "21.077100",
    "lon": "-89.580200"
  },
  {
    "id": "790394",
    "country": "MX",
    "zipcode": "97205",
    "name": "Paseo de Montejo",
    "region": "Yucatán",
    "short_region": "31",
    "lat": "21.077100",
    "lon": "-89.580200"
  },
  {
    "id": "790395",
    "country": "MX",
    "zipcode": "97205",
    "name": "Chuburna Inn",
    "region": "Yucatán",
    "short_region": "31",
    "lat": "21.077100",
    "lon": "-89.580200"
  },
  {
    "id": "790396",
    "country": "MX",
    "zipcode": "97205",
    "name": "Boulevares de Chuburna",
    "region": "Yucatán",
    "short_region": "31",
    "lat": "21.077100",
    "lon": "-89.580200"
  },
  {
    "id": "790397",
    "country": "MX",
    "zipcode": "97205",
    "name": "Juan B Sosa",
    "region": "Yucatán",
    "short_region": "31",
    "lat": "21.077100",
    "lon": "-89.580200"
  },
  {
    "id": "790398",
    "country": "MX",
    "zipcode": "97205",
    "name": "Villa Carmencita",
    "region": "Yucatán",
    "short_region": "31",
    "lat": "21.077100",
    "lon": "-89.580200"
  },
  {
    "id": "790399",
    "country": "MX",
    "zipcode": "97205",
    "name": "Tabachines",
    "region": "Yucatán",
    "short_region": "31",
    "lat": "21.077100",
    "lon": "-89.580200"
  },
  {
    "id": "790400",
    "country": "MX",
    "zipcode": "97205",
    "name": "Loma Bonita Xcumpich",
    "region": "Yucatán",
    "short_region": "31",
    "lat": "21.077100",
    "lon": "-89.580200"
  },
  {
    "id": "790401",
    "country": "MX",
    "zipcode": "97205",
    "name": "El Campanario",
    "region": "Yucatán",
    "short_region": "31",
    "lat": "21.077100",
    "lon": "-89.580200"
  },
  {
    "id": "790402",
    "country": "MX",
    "zipcode": "97205",
    "name": "Privada las Flores",
    "region": "Yucatán",
    "short_region": "31",
    "lat": "21.077100",
    "lon": "-89.580200"
  },
  {
    "id": "790403",
    "country": "MX",
    "zipcode": "97205",
    "name": "El Cortijo II",
    "region": "Yucatán",
    "short_region": "31",
    "lat": "21.077100",
    "lon": "-89.580200"
  },
  {
    "id": "790404",
    "country": "MX",
    "zipcode": "97205",
    "name": "Privada Pedregal II",
    "region": "Yucatán",
    "short_region": "31",
    "lat": "21.077100",
    "lon": "-89.580200"
  },
  {
    "id": "790405",
    "country": "MX",
    "zipcode": "97205",
    "name": "Privada Cortijo",
    "region": "Yucatán",
    "short_region": "31",
    "lat": "21.077100",
    "lon": "-89.580200"
  },
  {
    "id": "790406",
    "country": "MX",
    "zipcode": "97205",
    "name": "Privada Chuburna de Hidalgo I",
    "region": "Yucatán",
    "short_region": "31",
    "lat": "21.077100",
    "lon": "-89.580200"
  },
  {
    "id": "790407",
    "country": "MX",
    "zipcode": "97205",
    "name": "El Cortijo I",
    "region": "Yucatán",
    "short_region": "31",
    "lat": "21.112200",
    "lon": "-89.747800"
  },
  {
    "id": "790408",
    "country": "MX",
    "zipcode": "97205",
    "name": "Bugambilias",
    "region": "Yucatán",
    "short_region": "31",
    "lat": "20.984000",
    "lon": "-89.639500"
  },
  {
    "id": "790409",
    "country": "MX",
    "zipcode": "97205",
    "name": "San Ángel",
    "region": "Yucatán",
    "short_region": "31",
    "lat": "20.984000",
    "lon": "-89.639500"
  },
  {
    "id": "790410",
    "country": "MX",
    "zipcode": "97205",
    "name": "Chuburna de Hidalgo",
    "region": "Yucatán",
    "short_region": "31",
    "lat": "21.016700",
    "lon": "-89.633300"
  },
  {
    "id": "790411",
    "country": "MX",
    "zipcode": "97206",
    "name": "Residencial Turquesa",
    "region": "Yucatán",
    "short_region": "31",
    "lat": "20.952100",
    "lon": "-89.547400"
  },
  {
    "id": "790412",
    "country": "MX",
    "zipcode": "97206",
    "name": "Privada San Jose",
    "region": "Yucatán",
    "short_region": "31",
    "lat": "20.952100",
    "lon": "-89.547400"
  },
  {
    "id": "790413",
    "country": "MX",
    "zipcode": "97206",
    "name": "San Vicente Chuburna",
    "region": "Yucatán",
    "short_region": "31",
    "lat": "20.952100",
    "lon": "-89.547400"
  },
  {
    "id": "790414",
    "country": "MX",
    "zipcode": "97206",
    "name": "San Jose II",
    "region": "Yucatán",
    "short_region": "31",
    "lat": "20.952100",
    "lon": "-89.547400"
  },
  {
    "id": "790415",
    "country": "MX",
    "zipcode": "97206",
    "name": "Villas Chuburna IV",
    "region": "Yucatán",
    "short_region": "31",
    "lat": "20.952100",
    "lon": "-89.547400"
  },
  {
    "id": "790416",
    "country": "MX",
    "zipcode": "97206",
    "name": "Las Dalias II y III",
    "region": "Yucatán",
    "short_region": "31",
    "lat": "20.952100",
    "lon": "-89.547400"
  },
  {
    "id": "790417",
    "country": "MX",
    "zipcode": "97206",
    "name": "Mérida (Elefante Grande)",
    "region": "Yucatán",
    "short_region": "31",
    "lat": "20.952100",
    "lon": "-89.547400"
  },
  {
    "id": "790418",
    "country": "MX",
    "zipcode": "97206",
    "name": "Privada San Ángel Chuburna",
    "region": "Yucatán",
    "short_region": "31",
    "lat": "20.952100",
    "lon": "-89.547400"
  },
  {
    "id": "790419",
    "country": "MX",
    "zipcode": "97206",
    "name": "Privada La Hacienda",
    "region": "Yucatán",
    "short_region": "31",
    "lat": "20.952100",
    "lon": "-89.547400"
  },
  {
    "id": "790420",
    "country": "MX",
    "zipcode": "97206",
    "name": "Residencial La Noria",
    "region": "Yucatán",
    "short_region": "31",
    "lat": "20.952100",
    "lon": "-89.547400"
  },
  {
    "id": "790421",
    "country": "MX",
    "zipcode": "97206",
    "name": "San Jose I",
    "region": "Yucatán",
    "short_region": "31",
    "lat": "20.952100",
    "lon": "-89.547400"
  },
  {
    "id": "790422",
    "country": "MX",
    "zipcode": "97206",
    "name": "Privada Cipreses",
    "region": "Yucatán",
    "short_region": "31",
    "lat": "20.952100",
    "lon": "-89.547400"
  },
  {
    "id": "790423",
    "country": "MX",
    "zipcode": "97206",
    "name": "San Francisco Chuburna",
    "region": "Yucatán",
    "short_region": "31",
    "lat": "20.952100",
    "lon": "-89.547400"
  },
  {
    "id": "790424",
    "country": "MX",
    "zipcode": "97206",
    "name": "Lotificacion San Vicente Chuburna",
    "region": "Yucatán",
    "short_region": "31",
    "lat": "20.952100",
    "lon": "-89.547400"
  },
  {
    "id": "790425",
    "country": "MX",
    "zipcode": "97206",
    "name": "San Francisco I",
    "region": "Yucatán",
    "short_region": "31",
    "lat": "20.952100",
    "lon": "-89.547400"
  },
  {
    "id": "790426",
    "country": "MX",
    "zipcode": "97206",
    "name": "Paraíso",
    "region": "Yucatán",
    "short_region": "31",
    "lat": "20.870300",
    "lon": "-89.594700"
  },
  {
    "id": "790427",
    "country": "MX",
    "zipcode": "97206",
    "name": "Las Dalias",
    "region": "Yucatán",
    "short_region": "31",
    "lat": "20.984000",
    "lon": "-89.639500"
  },
  {
    "id": "790428",
    "country": "MX",
    "zipcode": "97206",
    "name": "El Rosario",
    "region": "Yucatán",
    "short_region": "31",
    "lat": "20.984000",
    "lon": "-89.639500"
  },
  {
    "id": "790429",
    "country": "MX",
    "zipcode": "97206",
    "name": "Yaxche",
    "region": "Yucatán",
    "short_region": "31",
    "lat": "21.034000",
    "lon": "-89.500200"
  },
  {
    "id": "790430",
    "country": "MX",
    "zipcode": "97207",
    "name": "Callejones de Chuburna",
    "region": "Yucatán",
    "short_region": "31",
    "lat": "21.029400",
    "lon": "-89.599700"
  },
  {
    "id": "790431",
    "country": "MX",
    "zipcode": "97207",
    "name": "Villas de Chuburna",
    "region": "Yucatán",
    "short_region": "31",
    "lat": "21.029400",
    "lon": "-89.599700"
  },
  {
    "id": "790432",
    "country": "MX",
    "zipcode": "97208",
    "name": "Malaga",
    "region": "Yucatán",
    "short_region": "31",
    "lat": "21.016700",
    "lon": "-89.633300"
  },
  {
    "id": "790433",
    "country": "MX",
    "zipcode": "97208",
    "name": "Privada Chuburna de Hidalgo",
    "region": "Yucatán",
    "short_region": "31",
    "lat": "21.016700",
    "lon": "-89.633300"
  },
  {
    "id": "790434",
    "country": "MX",
    "zipcode": "97208",
    "name": "Resid. Las Quintas (Chuburna)",
    "region": "Yucatán",
    "short_region": "31",
    "lat": "21.016700",
    "lon": "-89.633300"
  },
  {
    "id": "790435",
    "country": "MX",
    "zipcode": "97208",
    "name": "Rinconada de Chuburna",
    "region": "Yucatán",
    "short_region": "31",
    "lat": "21.016700",
    "lon": "-89.633300"
  },
  {
    "id": "790436",
    "country": "MX",
    "zipcode": "97208",
    "name": "Residencial Atlantis",
    "region": "Yucatán",
    "short_region": "31",
    "lat": "21.016700",
    "lon": "-89.633300"
  },
  {
    "id": "790437",
    "country": "MX",
    "zipcode": "97208",
    "name": "60 Norte",
    "region": "Yucatán",
    "short_region": "31",
    "lat": "21.016700",
    "lon": "-89.633300"
  },
  {
    "id": "790438",
    "country": "MX",
    "zipcode": "97208",
    "name": "Chuburna de Hidalgo",
    "region": "Yucatán",
    "short_region": "31",
    "lat": "21.016700",
    "lon": "-89.633300"
  },
  {
    "id": "790439",
    "country": "MX",
    "zipcode": "97208",
    "name": "El Cedral",
    "region": "Yucatán",
    "short_region": "31",
    "lat": "20.984000",
    "lon": "-89.639500"
  },
  {
    "id": "790440",
    "country": "MX",
    "zipcode": "97208",
    "name": "Felipe Carrillo Puerto",
    "region": "Yucatán",
    "short_region": "31",
    "lat": "20.984000",
    "lon": "-89.639500"
  },
  {
    "id": "790441",
    "country": "MX",
    "zipcode": "97209",
    "name": "Jardines de Chuburna",
    "region": "Yucatán",
    "short_region": "31",
    "lat": "21.029400",
    "lon": "-89.599700"
  },
  {
    "id": "790442",
    "country": "MX",
    "zipcode": "97209",
    "name": "Privada San Jorge (Chuburna)",
    "region": "Yucatán",
    "short_region": "31",
    "lat": "21.029400",
    "lon": "-89.599700"
  },
  {
    "id": "790443",
    "country": "MX",
    "zipcode": "97210",
    "name": "Tanlum",
    "region": "Yucatán",
    "short_region": "31",
    "lat": "20.891700",
    "lon": "-89.650000"
  },
  {
    "id": "790444",
    "country": "MX",
    "zipcode": "97210",
    "name": "Pedregales de Tanlum",
    "region": "Yucatán",
    "short_region": "31",
    "lat": "20.891700",
    "lon": "-89.650000"
  },
  {
    "id": "790445",
    "country": "MX",
    "zipcode": "97210",
    "name": "Joaquín Ceballos Mimenza",
    "region": "Yucatán",
    "short_region": "31",
    "lat": "20.891700",
    "lon": "-89.650000"
  },
  {
    "id": "790446",
    "country": "MX",
    "zipcode": "97215",
    "name": "Águilas Chuburna",
    "region": "Yucatán",
    "short_region": "31",
    "lat": "20.891700",
    "lon": "-89.650000"
  },
  {
    "id": "790447",
    "country": "MX",
    "zipcode": "97215",
    "name": "Colonial Buenavista",
    "region": "Yucatán",
    "short_region": "31",
    "lat": "20.891700",
    "lon": "-89.650000"
  },
  {
    "id": "790448",
    "country": "MX",
    "zipcode": "97215",
    "name": "Colonial Chuburna",
    "region": "Yucatán",
    "short_region": "31",
    "lat": "20.891700",
    "lon": "-89.650000"
  },
  {
    "id": "790449",
    "country": "MX",
    "zipcode": "97217",
    "name": "Pensiones Norte",
    "region": "Yucatán",
    "short_region": "31",
    "lat": "20.891700",
    "lon": "-89.650000"
  },
  {
    "id": "790450",
    "country": "MX",
    "zipcode": "97217",
    "name": "Residencial Pensiones IV",
    "region": "Yucatán",
    "short_region": "31",
    "lat": "20.891700",
    "lon": "-89.650000"
  },
  {
    "id": "790451",
    "country": "MX",
    "zipcode": "97217",
    "name": "Residencial Pensiones V",
    "region": "Yucatán",
    "short_region": "31",
    "lat": "20.891700",
    "lon": "-89.650000"
  },
  {
    "id": "790452",
    "country": "MX",
    "zipcode": "97217",
    "name": "Residencial Pensiones III (II)",
    "region": "Yucatán",
    "short_region": "31",
    "lat": "20.891700",
    "lon": "-89.650000"
  },
  {
    "id": "790453",
    "country": "MX",
    "zipcode": "97217",
    "name": "Francisco El Porvenir",
    "region": "Yucatán",
    "short_region": "31",
    "lat": "20.891700",
    "lon": "-89.650000"
  },
  {
    "id": "790454",
    "country": "MX",
    "zipcode": "97217",
    "name": "Fovissste",
    "region": "Yucatán",
    "short_region": "31",
    "lat": "20.891700",
    "lon": "-89.650000"
  },
  {
    "id": "790455",
    "country": "MX",
    "zipcode": "97217",
    "name": "Residencial Pensiones VI",
    "region": "Yucatán",
    "short_region": "31",
    "lat": "20.891700",
    "lon": "-89.650000"
  },
  {
    "id": "790456",
    "country": "MX",
    "zipcode": "97217",
    "name": "Residencial Pensiones III (1)",
    "region": "Yucatán",
    "short_region": "31",
    "lat": "20.891700",
    "lon": "-89.650000"
  },
  {
    "id": "790457",
    "country": "MX",
    "zipcode": "97217",
    "name": "Residencial Pensiones I y II",
    "region": "Yucatán",
    "short_region": "31",
    "lat": "20.891700",
    "lon": "-89.650000"
  },
  {
    "id": "790458",
    "country": "MX",
    "zipcode": "97217",
    "name": "Residencial Pensiones III",
    "region": "Yucatán",
    "short_region": "31",
    "lat": "20.891700",
    "lon": "-89.650000"
  },
  {
    "id": "790459",
    "country": "MX",
    "zipcode": "97218",
    "name": "Roma",
    "region": "Yucatán",
    "short_region": "31",
    "lat": "20.766700",
    "lon": "-89.650000"
  },
  {
    "id": "790460",
    "country": "MX",
    "zipcode": "97218",
    "name": "Privada San Damián",
    "region": "Yucatán",
    "short_region": "31",
    "lat": "20.766700",
    "lon": "-89.650000"
  },
  {
    "id": "790461",
    "country": "MX",
    "zipcode": "97218",
    "name": "San Damián",
    "region": "Yucatán",
    "short_region": "31",
    "lat": "20.766700",
    "lon": "-89.650000"
  },
  {
    "id": "790462",
    "country": "MX",
    "zipcode": "97218",
    "name": "Residencial Roma",
    "region": "Yucatán",
    "short_region": "31",
    "lat": "20.766700",
    "lon": "-89.650000"
  },
  {
    "id": "790463",
    "country": "MX",
    "zipcode": "97218",
    "name": "Conjunto los Naranjos",
    "region": "Yucatán",
    "short_region": "31",
    "lat": "20.766700",
    "lon": "-89.650000"
  },
  {
    "id": "790464",
    "country": "MX",
    "zipcode": "97218",
    "name": "Lotificacion San Damián",
    "region": "Yucatán",
    "short_region": "31",
    "lat": "20.766700",
    "lon": "-89.650000"
  },
  {
    "id": "790465",
    "country": "MX",
    "zipcode": "97218",
    "name": "San Isidro",
    "region": "Yucatán",
    "short_region": "31",
    "lat": "20.766700",
    "lon": "-89.650000"
  },
  {
    "id": "790466",
    "country": "MX",
    "zipcode": "97219",
    "name": "Lotificacion San Damiancito II",
    "region": "Yucatán",
    "short_region": "31",
    "lat": "21.016700",
    "lon": "-89.650000"
  },
  {
    "id": "790467",
    "country": "MX",
    "zipcode": "97219",
    "name": "Pedregal Lindavista",
    "region": "Yucatán",
    "short_region": "31",
    "lat": "21.016700",
    "lon": "-89.650000"
  },
  {
    "id": "790468",
    "country": "MX",
    "zipcode": "97219",
    "name": "Residencial Del Bosque Chenku",
    "region": "Yucatán",
    "short_region": "31",
    "lat": "21.016700",
    "lon": "-89.650000"
  },
  {
    "id": "790469",
    "country": "MX",
    "zipcode": "97219",
    "name": "Lotificacion San Damiancito I",
    "region": "Yucatán",
    "short_region": "31",
    "lat": "21.016700",
    "lon": "-89.650000"
  },
  {
    "id": "790470",
    "country": "MX",
    "zipcode": "97219",
    "name": "Residencial Pensiones VII",
    "region": "Yucatán",
    "short_region": "31",
    "lat": "21.016700",
    "lon": "-89.650000"
  },
  {
    "id": "790471",
    "country": "MX",
    "zipcode": "97219",
    "name": "Jardines de Pensiones",
    "region": "Yucatán",
    "short_region": "31",
    "lat": "21.016700",
    "lon": "-89.650000"
  },
  {
    "id": "790472",
    "country": "MX",
    "zipcode": "97219",
    "name": "Amapola",
    "region": "Yucatán",
    "short_region": "31",
    "lat": "21.016700",
    "lon": "-89.650000"
  },
  {
    "id": "790473",
    "country": "MX",
    "zipcode": "97219",
    "name": "Jardines de Lindavista",
    "region": "Yucatán",
    "short_region": "31",
    "lat": "21.016700",
    "lon": "-89.650000"
  },
  {
    "id": "790474",
    "country": "MX",
    "zipcode": "97219",
    "name": "Lindavista II",
    "region": "Yucatán",
    "short_region": "31",
    "lat": "21.016700",
    "lon": "-89.650000"
  },
  {
    "id": "790475",
    "country": "MX",
    "zipcode": "97219",
    "name": "Residencial Del Norte",
    "region": "Yucatán",
    "short_region": "31",
    "lat": "21.016700",
    "lon": "-89.650000"
  },
  {
    "id": "790476",
    "country": "MX",
    "zipcode": "97219",
    "name": "San Damiancito",
    "region": "Yucatán",
    "short_region": "31",
    "lat": "21.016700",
    "lon": "-89.650000"
  },
  {
    "id": "790477",
    "country": "MX",
    "zipcode": "97219",
    "name": "Privada Pensiones",
    "region": "Yucatán",
    "short_region": "31",
    "lat": "21.016700",
    "lon": "-89.650000"
  },
  {
    "id": "790478",
    "country": "MX",
    "zipcode": "97219",
    "name": "Quinta Versalles",
    "region": "Yucatán",
    "short_region": "31",
    "lat": "21.016700",
    "lon": "-89.650000"
  },
  {
    "id": "790479",
    "country": "MX",
    "zipcode": "97219",
    "name": "Unidad Habitacional Mérida Issste",
    "region": "Yucatán",
    "short_region": "31",
    "lat": "21.016700",
    "lon": "-89.650000"
  },
  {
    "id": "790480",
    "country": "MX",
    "zipcode": "97219",
    "name": "Paseos de Pensiones",
    "region": "Yucatán",
    "short_region": "31",
    "lat": "21.016700",
    "lon": "-89.650000"
  },
  {
    "id": "790481",
    "country": "MX",
    "zipcode": "97219",
    "name": "Paseos de Chenku",
    "region": "Yucatán",
    "short_region": "31",
    "lat": "21.016700",
    "lon": "-89.650000"
  },
  {
    "id": "790482",
    "country": "MX",
    "zipcode": "97219",
    "name": "Hidráulica",
    "region": "Yucatán",
    "short_region": "31",
    "lat": "21.016700",
    "lon": "-89.650000"
  },
  {
    "id": "790483",
    "country": "MX",
    "zipcode": "97219",
    "name": "Ampliación Pedregales de Lindavista",
    "region": "Yucatán",
    "short_region": "31",
    "lat": "21.016700",
    "lon": "-89.650000"
  },
  {
    "id": "790484",
    "country": "MX",
    "zipcode": "97219",
    "name": "Ampliación Lindavista (Elefante Chico)",
    "region": "Yucatán",
    "short_region": "31",
    "lat": "21.016700",
    "lon": "-89.650000"
  },
  {
    "id": "790485",
    "country": "MX",
    "zipcode": "97219",
    "name": "Pensiones",
    "region": "Yucatán",
    "short_region": "31",
    "lat": "21.016700",
    "lon": "-89.650000"
  },
  {
    "id": "790486",
    "country": "MX",
    "zipcode": "97219",
    "name": "Lindavista",
    "region": "Yucatán",
    "short_region": "31",
    "lat": "20.984000",
    "lon": "-89.639500"
  },
  {
    "id": "790487",
    "country": "MX",
    "zipcode": "97219",
    "name": "Limones",
    "region": "Yucatán",
    "short_region": "31",
    "lat": "20.984000",
    "lon": "-89.639500"
  },
  {
    "id": "790488",
    "country": "MX",
    "zipcode": "97219",
    "name": "Francisco Villa",
    "region": "Yucatán",
    "short_region": "31",
    "lat": "20.984000",
    "lon": "-89.639500"
  },