[
  {
    "id": "20001",
    "country": "AR",
    "zipcode": "9015",
    "name": "ARROYO PESCADO",
    "region": "Santa Cruz",
    "short_region": "Z",
    "lat": "-46.800000",
    "lon": "-67.966700"
  },
  {
    "id": "20002",
    "country": "AR",
    "zipcode": "9015",
    "name": "JELAINA",
    "region": "Santa Cruz",
    "short_region": "Z",
    "lat": "-46.800000",
    "lon": "-67.966700"
  },
  {
    "id": "20003",
    "country": "AR",
    "zipcode": "9017",
    "name": "LA ARGENTINA",
    "region": "Santa Cruz",
    "short_region": "Z",
    "lat": "-46.677800",
    "lon": "-69.627800"
  },
  {
    "id": "20004",
    "country": "AR",
    "zipcode": "9017",
    "name": "INDIA MUERTA",
    "region": "Santa Cruz",
    "short_region": "Z",
    "lat": "-46.677800",
    "lon": "-69.627800"
  },
  {
    "id": "20005",
    "country": "AR",
    "zipcode": "9017",
    "name": "EL GUINGUER",
    "region": "Santa Cruz",
    "short_region": "Z",
    "lat": "-46.677800",
    "lon": "-69.627800"
  },
  {
    "id": "20006",
    "country": "AR",
    "zipcode": "9017",
    "name": "COLONIA CARLOS PELLEGRINI",
    "region": "Santa Cruz",
    "short_region": "Z",
    "lat": "-46.677800",
    "lon": "-69.627800"
  },
  {
    "id": "20007",
    "country": "AR",
    "zipcode": "9017",
    "name": "CERRO RENZEL",
    "region": "Santa Cruz",
    "short_region": "Z",
    "lat": "-46.677800",
    "lon": "-69.627800"
  },
  {
    "id": "20008",
    "country": "AR",
    "zipcode": "9017",
    "name": "PELLEGRINI",
    "region": "Santa Cruz",
    "short_region": "Z",
    "lat": "-46.677800",
    "lon": "-69.627800"
  },
  {
    "id": "20009",
    "country": "AR",
    "zipcode": "9017",
    "name": "CERRO LA SETENTA",
    "region": "Santa Cruz",
    "short_region": "Z",
    "lat": "-46.677800",
    "lon": "-69.627800"
  },
  {
    "id": "20010",
    "country": "AR",
    "zipcode": "9017",
    "name": "PAMPA VERDUM",
    "region": "Santa Cruz",
    "short_region": "Z",
    "lat": "-46.677800",
    "lon": "-69.627800"
  },
  {
    "id": "20011",
    "country": "AR",
    "zipcode": "9017",
    "name": "YEGUA MUERTA",
    "region": "Santa Cruz",
    "short_region": "Z",
    "lat": "-46.677800",
    "lon": "-69.627800"
  },
  {
    "id": "20012",
    "country": "AR",
    "zipcode": "9017",
    "name": "PIEDRAS PINTADAS",
    "region": "Santa Cruz",
    "short_region": "Z",
    "lat": "-46.677800",
    "lon": "-69.627800"
  },
  {
    "id": "20013",
    "country": "AR",
    "zipcode": "9017",
    "name": "PIEDRA CLAVADA (LAS HERAS, DPTO. DESEADO)",
    "region": "Santa Cruz",
    "short_region": "Z",
    "lat": "-46.677800",
    "lon": "-69.627800"
  },
  {
    "id": "20014",
    "country": "AR",
    "zipcode": "9017",
    "name": "PASO DEL PLUMA",
    "region": "Santa Cruz",
    "short_region": "Z",
    "lat": "-46.677800",
    "lon": "-69.627800"
  },
  {
    "id": "20015",
    "country": "AR",
    "zipcode": "9017",
    "name": "MATA MAGALLANES",
    "region": "Santa Cruz",
    "short_region": "Z",
    "lat": "-46.677800",
    "lon": "-69.627800"
  },
  {
    "id": "20016",
    "country": "AR",
    "zipcode": "9017",
    "name": "LOS LAGOS",
    "region": "Santa Cruz",
    "short_region": "Z",
    "lat": "-46.677800",
    "lon": "-69.627800"
  },
  {
    "id": "20017",
    "country": "AR",
    "zipcode": "9017",
    "name": "LEANDRO N.ALEM",
    "region": "Santa Cruz",
    "short_region": "Z",
    "lat": "-46.677800",
    "lon": "-69.627800"
  },
  {
    "id": "20018",
    "country": "AR",
    "zipcode": "9017",
    "name": "LAS MASITAS",
    "region": "Santa Cruz",
    "short_region": "Z",
    "lat": "-46.677800",
    "lon": "-69.627800"
  },
  {
    "id": "20019",
    "country": "AR",
    "zipcode": "9017",
    "name": "CAÑADON PLUMA",
    "region": "Santa Cruz",
    "short_region": "Z",
    "lat": "-46.677800",
    "lon": "-69.627800"
  },
  {
    "id": "20020",
    "country": "AR",
    "zipcode": "9017",
    "name": "CAÑADON DIAZ",
    "region": "Santa Cruz",
    "short_region": "Z",
    "lat": "-46.677800",
    "lon": "-69.627800"
  },
  {
    "id": "20021",
    "country": "AR",
    "zipcode": "9017",
    "name": "CAMERON",
    "region": "Santa Cruz",
    "short_region": "Z",
    "lat": "-46.677800",
    "lon": "-69.627800"
  },
  {
    "id": "20022",
    "country": "AR",
    "zipcode": "9017",
    "name": "LA MARIA",
    "region": "Santa Cruz",
    "short_region": "Z",
    "lat": "-47.016700",
    "lon": "-69.883300"
  },
  {
    "id": "20023",
    "country": "AR",
    "zipcode": "9017",
    "name": "EL PLUMA",
    "region": "Santa Cruz",
    "short_region": "Z",
    "lat": "-46.466700",
    "lon": "-70.050000"
  },
  {
    "id": "20024",
    "country": "AR",
    "zipcode": "9017",
    "name": "PIRAMIDES",
    "region": "Santa Cruz",
    "short_region": "Z",
    "lat": "-46.677800",
    "lon": "-69.627800"
  },
  {
    "id": "20025",
    "country": "AR",
    "zipcode": "9017",
    "name": "LAS HERAS",
    "region": "Santa Cruz",
    "short_region": "Z",
    "lat": "-46.550000",
    "lon": "-68.950000"
  },
  {
    "id": "20026",
    "country": "AR",
    "zipcode": "9019",
    "name": "FITZ ROY",
    "region": "Santa Cruz",
    "short_region": "Z",
    "lat": "-47.033300",
    "lon": "-67.250000"
  },
  {
    "id": "20027",
    "country": "AR",
    "zipcode": "9019",
    "name": "TEHUELCHES",
    "region": "Santa Cruz",
    "short_region": "Z",
    "lat": "-46.933300",
    "lon": "-67.450000"
  },
  {
    "id": "20028",
    "country": "AR",
    "zipcode": "9019",
    "name": "EL MOLLE",
    "region": "Santa Cruz",
    "short_region": "Z",
    "lat": "-46.983300",
    "lon": "-67.350000"
  },
  {
    "id": "20029",
    "country": "AR",
    "zipcode": "9019",
    "name": "DIECINUEVE DE SEPTIEMBRE",
    "region": "Santa Cruz",
    "short_region": "Z",
    "lat": "-46.983300",
    "lon": "-67.350000"
  },
  {
    "id": "20030",
    "country": "AR",
    "zipcode": "9019",
    "name": "MONTE VERDE",
    "region": "Santa Cruz",
    "short_region": "Z",
    "lat": "-46.983300",
    "lon": "-67.350000"
  },
  {
    "id": "20031",
    "country": "AR",
    "zipcode": "9019",
    "name": "AGUADA ESCONDIDA",
    "region": "Santa Cruz",
    "short_region": "Z",
    "lat": "-46.983300",
    "lon": "-67.350000"
  },
  {
    "id": "20032",
    "country": "AR",
    "zipcode": "9019",
    "name": "LANGARA",
    "region": "Santa Cruz",
    "short_region": "Z",
    "lat": "-46.983300",
    "lon": "-67.350000"
  },
  {
    "id": "20033",
    "country": "AR",
    "zipcode": "9019",
    "name": "LA LAGUNA",
    "region": "Santa Cruz",
    "short_region": "Z",
    "lat": "-46.983300",
    "lon": "-67.350000"
  },
  {
    "id": "20034",
    "country": "AR",
    "zipcode": "9019",
    "name": "LA GERMANA",
    "region": "Santa Cruz",
    "short_region": "Z",
    "lat": "-46.983300",
    "lon": "-67.350000"
  },
  {
    "id": "20035",
    "country": "AR",
    "zipcode": "9040",
    "name": "MONTE CEBALLOS",
    "region": "Santa Cruz",
    "short_region": "Z",
    "lat": "-46.366700",
    "lon": "-71.311100"
  },
  {
    "id": "20036",
    "country": "AR",
    "zipcode": "9040",
    "name": "COLONIA LEANDRO N. ALEM",
    "region": "Santa Cruz",
    "short_region": "Z",
    "lat": "-46.366700",
    "lon": "-71.311100"
  },
  {
    "id": "20037",
    "country": "AR",
    "zipcode": "9040",
    "name": "CAÑADON BOTELLO",
    "region": "Santa Cruz",
    "short_region": "Z",
    "lat": "-46.366700",
    "lon": "-71.311100"
  },
  {
    "id": "20038",
    "country": "AR",
    "zipcode": "9040",
    "name": "LA ASTURIANA",
    "region": "Santa Cruz",
    "short_region": "Z",
    "lat": "-46.366700",
    "lon": "-71.311100"
  },
  {
    "id": "20039",
    "country": "AR",
    "zipcode": "9040",
    "name": "PERITO MORENO",
    "region": "Santa Cruz",
    "short_region": "Z",
    "lat": "-46.600000",
    "lon": "-70.933300"
  },
  {
    "id": "20040",
    "country": "AR",
    "zipcode": "9040",
    "name": "RIO FENIX",
    "region": "Santa Cruz",
    "short_region": "Z",
    "lat": "-46.600000",
    "lon": "-70.933300"
  },
  {
    "id": "20041",
    "country": "AR",
    "zipcode": "9040",
    "name": "LAGO BUENOS AIRES",
    "region": "Santa Cruz",
    "short_region": "Z",
    "lat": "-46.600000",
    "lon": "-70.933300"
  },
  {
    "id": "20042",
    "country": "AR",
    "zipcode": "9040",
    "name": "NACIMIENTOS DEL PLUMA",
    "region": "Santa Cruz",
    "short_region": "Z",
    "lat": "-46.366700",
    "lon": "-71.311100"
  },
  {
    "id": "20043",
    "country": "AR",
    "zipcode": "9040",
    "name": "EL PORTEZUELO",
    "region": "Santa Cruz",
    "short_region": "Z",
    "lat": "-46.050000",
    "lon": "-71.666700"
  },
  {
    "id": "20044",
    "country": "AR",
    "zipcode": "9040",
    "name": "PORTEZUELO",
    "region": "Santa Cruz",
    "short_region": "Z",
    "lat": "-46.050000",
    "lon": "-71.666700"
  },
  {
    "id": "20045",
    "country": "AR",
    "zipcode": "9040",
    "name": "INGENIERO PALLAVICINI",
    "region": "Santa Cruz",
    "short_region": "Z",
    "lat": "-46.300000",
    "lon": "-71.733300"
  },
  {
    "id": "20046",
    "country": "AR",
    "zipcode": "9041",
    "name": "LOS ANTIGUOS",
    "region": "Santa Cruz",
    "short_region": "Z",
    "lat": "-46.550000",
    "lon": "-71.616700"
  },
  {
    "id": "20047",
    "country": "AR",
    "zipcode": "9050",
    "name": "GOBERNADOR MOYANO",
    "region": "Santa Cruz",
    "short_region": "Z",
    "lat": "-47.850000",
    "lon": "-66.633300"
  },
  {
    "id": "20048",
    "country": "AR",
    "zipcode": "9050",
    "name": "PASO GREGORES",
    "region": "Santa Cruz",
    "short_region": "Z",
    "lat": "-47.800000",
    "lon": "-66.583300"
  },
  {
    "id": "20049",
    "country": "AR",
    "zipcode": "9050",
    "name": "TRES CERROS",
    "region": "Santa Cruz",
    "short_region": "Z",
    "lat": "-48.216700",
    "lon": "-67.550000"
  },
  {
    "id": "20050",
    "country": "AR",
    "zipcode": "9050",
    "name": "PUERTO DESEADO",
    "region": "Santa Cruz",
    "short_region": "Z",
    "lat": "-47.750000",
    "lon": "-65.900000"
  },
  {
    "id": "20051",
    "country": "AR",
    "zipcode": "9050",
    "name": "KILOMETRO 8 (APEADERO FCGR)",
    "region": "Santa Cruz",
    "short_region": "Z",
    "lat": "-47.904200",
    "lon": "-66.666700"
  },
  {
    "id": "20052",
    "country": "AR",
    "zipcode": "9050",
    "name": "TELLIER (ESTACION FCGR)",
    "region": "Santa Cruz",
    "short_region": "Z",
    "lat": "-47.904200",
    "lon": "-66.666700"
  },
  {
    "id": "20053",
    "country": "AR",
    "zipcode": "9051",
    "name": "LA PROTEGIDA",
    "region": "Santa Cruz",
    "short_region": "Z",
    "lat": "-47.141700",
    "lon": "-66.225000"
  },
  {
    "id": "20054",
    "country": "AR",
    "zipcode": "9051",
    "name": "EL HUNCO",
    "region": "Santa Cruz",
    "short_region": "Z",
    "lat": "-47.141700",
    "lon": "-66.225000"
  },
  {
    "id": "20055",
    "country": "AR",
    "zipcode": "9051",
    "name": "EL LORO",
    "region": "Santa Cruz",
    "short_region": "Z",
    "lat": "-47.141700",
    "lon": "-66.225000"
  },
  {
    "id": "20056",
    "country": "AR",
    "zipcode": "9051",
    "name": "EL PAZUCO",
    "region": "Santa Cruz",
    "short_region": "Z",
    "lat": "-47.141700",
    "lon": "-66.225000"
  },
  {
    "id": "20057",
    "country": "AR",
    "zipcode": "9051",
    "name": "EL POLVORIN",
    "region": "Santa Cruz",
    "short_region": "Z",
    "lat": "-47.141700",
    "lon": "-66.225000"
  },
  {
    "id": "20058",
    "country": "AR",
    "zipcode": "9051",
    "name": "ESTANCIA AGUADA A PIQUE",
    "region": "Santa Cruz",
    "short_region": "Z",
    "lat": "-47.141700",
    "lon": "-66.225000"
  },
  {
    "id": "20059",
    "country": "AR",
    "zipcode": "9051",
    "name": "ESTANCIA AGUADA LA OVEJA",
    "region": "Santa Cruz",
    "short_region": "Z",
    "lat": "-47.141700",
    "lon": "-66.225000"
  },
  {
    "id": "20060",
    "country": "AR",
    "zipcode": "9051",
    "name": "ESTANCIA CERRO REDONDO",
    "region": "Santa Cruz",
    "short_region": "Z",
    "lat": "-47.141700",
    "lon": "-66.225000"
  },
  {
    "id": "20061",
    "country": "AR",
    "zipcode": "9051",
    "name": "ESTANCIA EL CHARA",
    "region": "Santa Cruz",
    "short_region": "Z",
    "lat": "-47.141700",
    "lon": "-66.225000"
  },
  {
    "id": "20062",
    "country": "AR",
    "zipcode": "9051",
    "name": "ESTANCIA LA AGUADA",
    "region": "Santa Cruz",
    "short_region": "Z",
    "lat": "-47.141700",
    "lon": "-66.225000"
  },
  {
    "id": "20063",
    "country": "AR",
    "zipcode": "9051",
    "name": "ESTANCIA LA ESTRELLA",
    "region": "Santa Cruz",
    "short_region": "Z",
    "lat": "-47.141700",
    "lon": "-66.225000"
  },
  {
    "id": "20064",
    "country": "AR",
    "zipcode": "9051",
    "name": "ESTANCIA LAS VIOLETAS",
    "region": "Santa Cruz",
    "short_region": "Z",
    "lat": "-47.141700",
    "lon": "-66.225000"
  },
  {
    "id": "20065",
    "country": "AR",
    "zipcode": "9051",
    "name": "ESTANCIA TRES PUNTAS",
    "region": "Santa Cruz",
    "short_region": "Z",
    "lat": "-47.141700",
    "lon": "-66.225000"
  },
  {
    "id": "20066",
    "country": "AR",
    "zipcode": "9051",
    "name": "LA CENTRAL",
    "region": "Santa Cruz",
    "short_region": "Z",
    "lat": "-47.141700",
    "lon": "-66.225000"
  },
  {
    "id": "20067",
    "country": "AR",
    "zipcode": "9051",
    "name": "LA FECUNDIDAD",
    "region": "Santa Cruz",
    "short_region": "Z",
    "lat": "-47.141700",
    "lon": "-66.225000"
  },
  {
    "id": "20068",
    "country": "AR",
    "zipcode": "9051",
    "name": "LA MADRUGADA",
    "region": "Santa Cruz",
    "short_region": "Z",
    "lat": "-47.141700",
    "lon": "-66.225000"
  },
  {
    "id": "20069",
    "country": "AR",
    "zipcode": "9051",
    "name": "LA MARGARITA",
    "region": "Santa Cruz",
    "short_region": "Z",
    "lat": "-47.141700",
    "lon": "-66.225000"
  },
  {
    "id": "20070",
    "country": "AR",
    "zipcode": "9051",
    "name": "LA ROSADA",
    "region": "Santa Cruz",
    "short_region": "Z",
    "lat": "-47.141700",
    "lon": "-66.225000"
  },
  {
    "id": "20071",
    "country": "AR",
    "zipcode": "9051",
    "name": "LA VIOLETA",
    "region": "Santa Cruz",
    "short_region": "Z",
    "lat": "-47.141700",
    "lon": "-66.225000"
  },
  {
    "id": "20072",
    "country": "AR",
    "zipcode": "9051",
    "name": "SARITA",
    "region": "Santa Cruz",
    "short_region": "Z",
    "lat": "-47.141700",
    "lon": "-66.225000"
  },
  {
    "id": "20073",
    "country": "AR",
    "zipcode": "9051",
    "name": "CABO TRES PUNTAS",
    "region": "Santa Cruz",
    "short_region": "Z",
    "lat": "-47.141700",
    "lon": "-66.225000"
  },
  {
    "id": "20074",
    "country": "AR",
    "zipcode": "9051",
    "name": "EL HUECO",
    "region": "Santa Cruz",
    "short_region": "Z",
    "lat": "-47.141700",
    "lon": "-66.225000"
  },
  {
    "id": "20075",
    "country": "AR",
    "zipcode": "9051",
    "name": "MAZAREDO",
    "region": "Santa Cruz",
    "short_region": "Z",
    "lat": "-47.083300",
    "lon": "-66.700000"
  },
  {
    "id": "20076",
    "country": "AR",
    "zipcode": "9051",
    "name": "CABO BLANCO",
    "region": "Santa Cruz",
    "short_region": "Z",
    "lat": "-47.200000",
    "lon": "-65.750000"
  },
  {
    "id": "20077",
    "country": "AR",
    "zipcode": "9053",
    "name": "JARAMILLO",
    "region": "Santa Cruz",
    "short_region": "Z",
    "lat": "-47.183300",
    "lon": "-67.150000"
  },
  {
    "id": "20078",
    "country": "AR",
    "zipcode": "9053",
    "name": "CERRO BLANCO",
    "region": "Santa Cruz",
    "short_region": "Z",
    "lat": "-47.416700",
    "lon": "-66.733300"
  },
  {
    "id": "20079",
    "country": "AR",
    "zipcode": "9053",
    "name": "AGUADA GRANDE",
    "region": "Santa Cruz",
    "short_region": "Z",
    "lat": "-47.333300",
    "lon": "-67.483300"
  },
  {
    "id": "20080",
    "country": "AR",
    "zipcode": "9053",
    "name": "EL BARBUCHO",
    "region": "Santa Cruz",
    "short_region": "Z",
    "lat": "-47.311100",
    "lon": "-67.122200"
  },
  {
    "id": "20081",
    "country": "AR",
    "zipcode": "9053",
    "name": "LAS NEGRAS",
    "region": "Santa Cruz",
    "short_region": "Z",
    "lat": "-47.311100",
    "lon": "-67.122200"
  },
  {
    "id": "20082",
    "country": "AR",
    "zipcode": "9053",
    "name": "DESAMPARADOS",
    "region": "Santa Cruz",
    "short_region": "Z",
    "lat": "-47.311100",
    "lon": "-67.122200"
  },
  {
    "id": "20083",
    "country": "AR",
    "zipcode": "9053",
    "name": "FLORADORA",
    "region": "Santa Cruz",
    "short_region": "Z",
    "lat": "-47.311100",
    "lon": "-67.122200"
  },
  {
    "id": "20084",
    "country": "AR",
    "zipcode": "9300",
    "name": "CAÑADON DEL RANCHO",
    "region": "Santa Cruz",
    "short_region": "Z",
    "lat": "-50.283300",
    "lon": "-68.883300"
  },
  {
    "id": "20085",
    "country": "AR",
    "zipcode": "9300",
    "name": "EL GUADAL",
    "region": "Santa Cruz",
    "short_region": "Z",
    "lat": "-50.283300",
    "lon": "-68.883300"
  },
  {
    "id": "20086",
    "country": "AR",
    "zipcode": "9300",
    "name": "PUERTO SANTA CRUZ",
    "region": "Santa Cruz",
    "short_region": "Z",
    "lat": "-50.016700",
    "lon": "-68.516700"
  },
  {
    "id": "20087",
    "country": "AR",
    "zipcode": "9300",
    "name": "CAÑADON DE LAS VACAS",
    "region": "Santa Cruz",
    "short_region": "Z",
    "lat": "-50.550000",
    "lon": "-69.250000"
  },
  {
    "id": "20088",
    "country": "AR",
    "zipcode": "9301",
    "name": "LAGO SAN MARTIN",
    "region": "Santa Cruz",
    "short_region": "Z",
    "lat": "-49.150000",
    "lon": "-72.066700"
  },
  {
    "id": "20089",
    "country": "AR",
    "zipcode": "9301",
    "name": "TRES LAGOS",
    "region": "Santa Cruz",
    "short_region": "Z",
    "lat": "-49.616700",
    "lon": "-71.500000"
  },
  {
    "id": "20090",
    "country": "AR",
    "zipcode": "9301",
    "name": "LAGO CARDIEL",
    "region": "Santa Cruz",
    "short_region": "Z",
    "lat": "-48.966700",
    "lon": "-71.400000"
  },
  {
    "id": "20091",
    "country": "AR",
    "zipcode": "9301",
    "name": "PASO RIO LA LEONA",
    "region": "Santa Cruz",
    "short_region": "Z",
    "lat": "-49.244400",
    "lon": "-71.655600"
  },
  {
    "id": "20092",
    "country": "AR",
    "zipcode": "9301",
    "name": "LAGO TAR",
    "region": "Santa Cruz",
    "short_region": "Z",
    "lat": "-49.244400",
    "lon": "-71.655600"
  },
  {
    "id": "20093",
    "country": "AR",
    "zipcode": "9301",
    "name": "LA FEDERICA",
    "region": "Santa Cruz",
    "short_region": "Z",
    "lat": "-49.244400",
    "lon": "-71.655600"
  },
  {
    "id": "20094",
    "country": "AR",
    "zipcode": "9301",
    "name": "PUNTA DEL LAGO VIEDMA",
    "region": "Santa Cruz",
    "short_region": "Z",
    "lat": "-49.244400",
    "lon": "-71.655600"
  },
  {
    "id": "20095",
    "country": "AR",
    "zipcode": "9301",
    "name": "LA FLORIDA",
    "region": "Santa Cruz",
    "short_region": "Z",
    "lat": "-49.244400",
    "lon": "-71.655600"
  },
  {
    "id": "20096",
    "country": "AR",
    "zipcode": "9301",
    "name": "GUARDAPARQUE FITZ ROY",
    "region": "Santa Cruz",
    "short_region": "Z",
    "lat": "-49.244400",
    "lon": "-71.655600"
  },
  {
    "id": "20097",
    "country": "AR",
    "zipcode": "9301",
    "name": "PIEDRA CLAVADA (TRES LAGOS, DPTO. LAGO ARGENTINO)",
    "region": "Santa Cruz",
    "short_region": "Z",
    "lat": "-49.244400",
    "lon": "-71.655600"
  },
  {
    "id": "20098",
    "country": "AR",
    "zipcode": "9301",
    "name": "PENINSULA MAIPU",
    "region": "Santa Cruz",
    "short_region": "Z",
    "lat": "-49.244400",
    "lon": "-71.655600"
  },
  {
    "id": "20099",
    "country": "AR",
    "zipcode": "9303",
    "name": "CERRO REDONDO",
    "region": "Santa Cruz",
    "short_region": "Z",
    "lat": "-49.908300",
    "lon": "-70.200000"
  },
  {
    "id": "20100",
    "country": "AR",
    "zipcode": "9303",
    "name": "LA LEONA",
    "region": "Santa Cruz",
    "short_region": "Z",
    "lat": "-49.908300",
    "lon": "-70.200000"
  },
  {
    "id": "20101",
    "country": "AR",
    "zipcode": "9303",
    "name": "EL BAILE",
    "region": "Santa Cruz",
    "short_region": "Z",
    "lat": "-49.908300",
    "lon": "-70.200000"
  },
  {
    "id": "20102",
    "country": "AR",
    "zipcode": "9303",
    "name": "PASO IBAÑEZ",
    "region": "Santa Cruz",
    "short_region": "Z",
    "lat": "-49.908300",
    "lon": "-70.200000"
  },
  {
    "id": "20103",
    "country": "AR",
    "zipcode": "9303",
    "name": "SIERRA DE LA VENTANA",
    "region": "Santa Cruz",
    "short_region": "Z",
    "lat": "-49.908300",
    "lon": "-70.200000"
  },
  {
    "id": "20104",
    "country": "AR",
    "zipcode": "9303",
    "name": "GARMINUE",
    "region": "Santa Cruz",
    "short_region": "Z",
    "lat": "-49.908300",
    "lon": "-70.200000"
  },
  {
    "id": "20105",
    "country": "AR",
    "zipcode": "9303",
    "name": "TAUEL AIKE",
    "region": "Santa Cruz",
    "short_region": "Z",
    "lat": "-49.908300",
    "lon": "-70.200000"
  },
  {
    "id": "20106",
    "country": "AR",
    "zipcode": "9303",
    "name": "PASO DE LOS INDIOS",
    "region": "Santa Cruz",
    "short_region": "Z",
    "lat": "-49.908300",
    "lon": "-70.200000"
  },
  {
    "id": "20107",
    "country": "AR",
    "zipcode": "9303",
    "name": "EL PAN DE AZUCAR",
    "region": "Santa Cruz",
    "short_region": "Z",
    "lat": "-49.908300",
    "lon": "-70.200000"
  },
  {
    "id": "20108",
    "country": "AR",
    "zipcode": "9303",
    "name": "CAÑADON DEL TORO",
    "region": "Santa Cruz",
    "short_region": "Z",
    "lat": "-49.908300",
    "lon": "-70.200000"
  },
  {
    "id": "20109",
    "country": "AR",
    "zipcode": "9303",
    "name": "LA CONSTANCIA",
    "region": "Santa Cruz",
    "short_region": "Z",
    "lat": "-49.908300",
    "lon": "-70.200000"
  },
  {
    "id": "20110",
    "country": "AR",
    "zipcode": "9303",
    "name": "LA PIGMEA",
    "region": "Santa Cruz",
    "short_region": "Z",
    "lat": "-49.908300",
    "lon": "-70.200000"
  },
  {
    "id": "20111",
    "country": "AR",
    "zipcode": "9303",
    "name": "LA PORTEÑA",
    "region": "Santa Cruz",
    "short_region": "Z",
    "lat": "-49.908300",
    "lon": "-70.200000"
  },
  {
    "id": "20112",
    "country": "AR",
    "zipcode": "9303",
    "name": "LAS MERCEDES",
    "region": "Santa Cruz",
    "short_region": "Z",
    "lat": "-49.908300",
    "lon": "-70.200000"
  },
  {
    "id": "20113",
    "country": "AR",
    "zipcode": "9303",
    "name": "PASO DEL RIO SANTA CRUZ",
    "region": "Santa Cruz",
    "short_region": "Z",
    "lat": "-49.908300",
    "lon": "-70.200000"
  },
  {
    "id": "20114",
    "country": "AR",
    "zipcode": "9303",
    "name": "LA BARRETA",
    "region": "Santa Cruz",
    "short_region": "Z",
    "lat": "-49.908300",
    "lon": "-70.200000"
  },
  {
    "id": "20115",
    "country": "AR",
    "zipcode": "9303",
    "name": "COMANDANTE LUIS PIEDRA BUENA",
    "region": "Santa Cruz",
    "short_region": "Z",
    "lat": "-49.983300",
    "lon": "-68.900000"
  },
  {
    "id": "20116",
    "country": "AR",
    "zipcode": "9303",
    "name": "CHONQUE",
    "region": "Santa Cruz",
    "short_region": "Z",
    "lat": "-49.366700",
    "lon": "-69.716700"
  },
  {
    "id": "20117",
    "country": "AR",
    "zipcode": "9303",
    "name": "EL PASO",
    "region": "Santa Cruz",
    "short_region": "Z",
    "lat": "-49.983300",
    "lon": "-68.900000"
  },
  {
    "id": "20118",
    "country": "AR",
    "zipcode": "9303",
    "name": "LAGUNA GRANDE",
    "region": "Santa Cruz",
    "short_region": "Z",
    "lat": "-49.550000",
    "lon": "-70.233300"
  },
  {
    "id": "20119",
    "country": "AR",
    "zipcode": "9303",
    "name": "LA JULIA",
    "region": "Santa Cruz",
    "short_region": "Z",
    "lat": "-50.266700",
    "lon": "-71.733300"
  },
  {
    "id": "20120",
    "country": "AR",
    "zipcode": "9303",
    "name": "RIO CHICO",
    "region": "Santa Cruz",
    "short_region": "Z",
    "lat": "-49.908300",
    "lon": "-70.200000"
  },
  {
    "id": "20121",
    "country": "AR",
    "zipcode": "9303",
    "name": "PASO RIO SANTA CRUZ",
    "region": "Santa Cruz",
    "short_region": "Z",
    "lat": "-50.300000",
    "lon": "-71.716700"
  },
  {
    "id": "20122",
    "country": "AR",
    "zipcode": "9305",
    "name": "CAÑADA DE LAS VACAS",
    "region": "Santa Cruz",
    "short_region": "Z",
    "lat": "-49.795500",
    "lon": "-70.357600"
  },
  {
    "id": "20123",
    "country": "AR",
    "zipcode": "9310",
    "name": "BAJO FUEGO",
    "region": "Santa Cruz",
    "short_region": "Z",
    "lat": "-48.794400",
    "lon": "-67.200000"
  },
  {
    "id": "20124",
    "country": "AR",
    "zipcode": "9310",
    "name": "AGUADA ALEGRE",
    "region": "Santa Cruz",
    "short_region": "Z",
    "lat": "-48.794400",
    "lon": "-67.200000"
  },
  {
    "id": "20125",
    "country": "AR",
    "zipcode": "9310",
    "name": "LAGO PUEYRREDON",
    "region": "Santa Cruz",
    "short_region": "Z",
    "lat": "-48.794400",
    "lon": "-67.200000"
  },
  {
    "id": "20126",
    "country": "AR",
    "zipcode": "9310",
    "name": "PUERTO SAN JULIAN",
    "region": "Santa Cruz",
    "short_region": "Z",
    "lat": "-49.300000",
    "lon": "-67.716700"
  },
  {
    "id": "20127",
    "country": "AR",
    "zipcode": "9310",
    "name": "BAHIA LAURA",
    "region": "Santa Cruz",
    "short_region": "Z",
    "lat": "-48.400000",
    "lon": "-66.483300"
  },
  {
    "id": "20128",
    "country": "AR",
    "zipcode": "9310",
    "name": "CAÑADON ONCE DE SEPTIEMBRE",
    "region": "Santa Cruz",
    "short_region": "Z",
    "lat": "-48.683300",
    "lon": "-67.400000"
  },
  {
    "id": "20129",
    "country": "AR",
    "zipcode": "9311",
    "name": "GOBERNADOR GREGORES",
    "region": "Santa Cruz",
    "short_region": "Z",
    "lat": "-48.766700",
    "lon": "-70.250000"
  },
  {
    "id": "20130",
    "country": "AR",
    "zipcode": "9311",
    "name": "CAÑADON LEON",
    "region": "Santa Cruz",
    "short_region": "Z",
    "lat": "-48.766700",
    "lon": "-70.250000"
  },
  {
    "id": "20131",
    "country": "AR",
    "zipcode": "9311",
    "name": "LA MANCHURIA",
    "region": "Santa Cruz",
    "short_region": "Z",
    "lat": "-48.066700",
    "lon": "-69.933300"
  },
  {
    "id": "20132",
    "country": "AR",
    "zipcode": "9311",
    "name": "TUCU TUCU",
    "region": "Santa Cruz",
    "short_region": "Z",
    "lat": "-48.433300",
    "lon": "-71.850000"
  },
  {
    "id": "20133",
    "country": "AR",
    "zipcode": "9311",
    "name": "PASO DEL AGUILA",
    "region": "Santa Cruz",
    "short_region": "Z",
    "lat": "-47.816700",
    "lon": "-71.983300"
  },
  {
    "id": "20134",
    "country": "AR",
    "zipcode": "9311",
    "name": "LA PENINSULA",
    "region": "Santa Cruz",
    "short_region": "Z",
    "lat": "-48.370000",
    "lon": "-70.853300"
  },
  {
    "id": "20135",
    "country": "AR",
    "zipcode": "9311",
    "name": "LAGO STROBEL",
    "region": "Santa Cruz",
    "short_region": "Z",
    "lat": "-48.370000",
    "lon": "-70.853300"
  },
  {
    "id": "20136",
    "country": "AR",
    "zipcode": "9313",
    "name": "FARO CAMPANA",
    "region": "Santa Cruz",
    "short_region": "Z",
    "lat": "-48.222200",
    "lon": "-70.113900"
  },
  {
    "id": "20137",
    "country": "AR",
    "zipcode": "9313",
    "name": "FARO CABO GUARDIAN",
    "region": "Santa Cruz",
    "short_region": "Z",
    "lat": "-48.222200",
    "lon": "-70.113900"
  },
  {
    "id": "20138",
    "country": "AR",
    "zipcode": "9313",
    "name": "CARA MALA",
    "region": "Santa Cruz",
    "short_region": "Z",
    "lat": "-48.222200",
    "lon": "-70.113900"
  },
  {
    "id": "20139",
    "country": "AR",
    "zipcode": "9313",
    "name": "EL SALADO",
    "region": "Santa Cruz",
    "short_region": "Z",
    "lat": "-48.222200",
    "lon": "-70.113900"
  },
  {
    "id": "20140",
    "country": "AR",
    "zipcode": "9313",
    "name": "LOS MANANTIALES",
    "region": "Santa Cruz",
    "short_region": "Z",
    "lat": "-48.222200",
    "lon": "-70.113900"
  },
  {
    "id": "20141",
    "country": "AR",
    "zipcode": "9313",
    "name": "PUNTA MERCEDES",
    "region": "Santa Cruz",
    "short_region": "Z",
    "lat": "-48.222200",
    "lon": "-70.113900"
  },
  {
    "id": "20142",
    "country": "AR",
    "zipcode": "9315",
    "name": "BAJO CARACOLES",
    "region": "Santa Cruz",
    "short_region": "Z",
    "lat": "-47.450000",
    "lon": "-70.933300"
  },
  {
    "id": "20143",
    "country": "AR",
    "zipcode": "9315",
    "name": "TAMEL AIKE",
    "region": "Santa Cruz",
    "short_region": "Z",
    "lat": "-48.316700",
    "lon": "-70.966700"
  },
  {
    "id": "20144",
    "country": "AR",
    "zipcode": "9315",
    "name": "LAGO POSADAS",
    "region": "Santa Cruz",
    "short_region": "Z",
    "lat": "-47.533300",
    "lon": "-71.750000"
  },
  {
    "id": "20145",
    "country": "AR",
    "zipcode": "9315",
    "name": "PASO ROBALLO",
    "region": "Santa Cruz",
    "short_region": "Z",
    "lat": "-47.133300",
    "lon": "-71.850000"
  },
  {
    "id": "20146",
    "country": "AR",
    "zipcode": "9400",
    "name": "COY AIKE",
    "region": "Santa Cruz",
    "short_region": "Z",
    "lat": "-51.150000",
    "lon": "-69.500000"
  },
  {
    "id": "20147",
    "country": "AR",
    "zipcode": "9400",
    "name": "MONTE DINERO",
    "region": "Santa Cruz",
    "short_region": "Z",
    "lat": "-52.300000",
    "lon": "-68.550000"
  },
  {
    "id": "20148",
    "country": "AR",
    "zipcode": "9400",
    "name": "MONTE AYMOND",
    "region": "Santa Cruz",
    "short_region": "Z",
    "lat": "-52.133300",
    "lon": "-69.533300"
  },
  {
    "id": "20149",
    "country": "AR",
    "zipcode": "9400",
    "name": "CONDOR",
    "region": "Santa Cruz",
    "short_region": "Z",
    "lat": "-52.166700",
    "lon": "-69.050000"
  },
  {
    "id": "20150",
    "country": "AR",
    "zipcode": "9400",
    "name": "ALQUINTA",
    "region": "Santa Cruz",
    "short_region": "Z",
    "lat": "-51.098300",
    "lon": "-70.080000"
  },
  {
    "id": "20151",
    "country": "AR",
    "zipcode": "9400",
    "name": "PUNTA DEL MONTE",
    "region": "Santa Cruz",
    "short_region": "Z",
    "lat": "-51.633300",
    "lon": "-71.300000"
  },
  {
    "id": "20152",
    "country": "AR",
    "zipcode": "9400",
    "name": "LAS HORQUETAS",
    "region": "Santa Cruz",
    "short_region": "Z",
    "lat": "-48.233300",
    "lon": "-71.183300"
  },
  {
    "id": "20153",
    "country": "AR",
    "zipcode": "9400",
    "name": "TAPI AIKE",
    "region": "Santa Cruz",
    "short_region": "Z",
    "lat": "-51.050000",
    "lon": "-71.766700"
  },
  {
    "id": "20154",
    "country": "AR",
    "zipcode": "9400",
    "name": "RIO GALLEGOS",
    "region": "Santa Cruz",
    "short_region": "Z",
    "lat": "-51.633300",
    "lon": "-69.216700"
  },
  {
    "id": "20155",
    "country": "AR",
    "zipcode": "9400",
    "name": "SOFIA",
    "region": "Santa Cruz",
    "short_region": "Z",
    "lat": "-51.800000",
    "lon": "-71.000000"
  },
  {
    "id": "20156",
    "country": "AR",
    "zipcode": "9400",
    "name": "LA BAJADA",
    "region": "Santa Cruz",
    "short_region": "Z",
    "lat": "-48.883300",
    "lon": "-69.700000"
  },
  {
    "id": "20157",
    "country": "AR",
    "zipcode": "9400",
    "name": "EL FABRE",
    "region": "Santa Cruz",
    "short_region": "Z",
    "lat": "-51.098300",
    "lon": "-70.080000"
  },
  {
    "id": "20158",
    "country": "AR",
    "zipcode": "9400",
    "name": "CORONEL GUARUMBA",
    "region": "Santa Cruz",
    "short_region": "Z",
    "lat": "-51.098300",
    "lon": "-70.080000"
  },
  {
    "id": "20159",
    "country": "AR",
    "zipcode": "9400",
    "name": "CHIMEN AIKE",
    "region": "Santa Cruz",
    "short_region": "Z",
    "lat": "-51.098300",
    "lon": "-70.080000"
  },
  {
    "id": "20160",
    "country": "AR",
    "zipcode": "9400",
    "name": "CHALI AIKE",
    "region": "Santa Cruz",
    "short_region": "Z",
    "lat": "-51.098300",
    "lon": "-70.080000"
  },
  {
    "id": "20161",
    "country": "AR",
    "zipcode": "9400",
    "name": "CERRO PALIQUE",
    "region": "Santa Cruz",
    "short_region": "Z",
    "lat": "-51.098300",
    "lon": "-70.080000"
  },
  {
    "id": "20162",
    "country": "AR",
    "zipcode": "9400",
    "name": "MOY AIKE CHICO",
    "region": "Santa Cruz",
    "short_region": "Z",
    "lat": "-51.098300",
    "lon": "-70.080000"
  },
  {
    "id": "20163",
    "country": "AR",
    "zipcode": "9400",
    "name": "CAP",
    "region": "Santa Cruz",
    "short_region": "Z",
    "lat": "-51.098300",
    "lon": "-70.080000"
  },
  {
    "id": "20164",
    "country": "AR",
    "zipcode": "9400",
    "name": "CAÑADON FABRE",
    "region": "Santa Cruz",
    "short_region": "Z",
    "lat": "-51.098300",
    "lon": "-70.080000"
  },
  {
    "id": "20165",
    "country": "AR",
    "zipcode": "9400",
    "name": "CAMUSU AIKE",
    "region": "Santa Cruz",
    "short_region": "Z",
    "lat": "-51.098300",
    "lon": "-70.080000"
  },
  {
    "id": "20166",
    "country": "AR",
    "zipcode": "9400",
    "name": "CABO DE LAS VIRGENES",
    "region": "Santa Cruz",
    "short_region": "Z",
    "lat": "-51.098300",
    "lon": "-70.080000"
  },
  {
    "id": "20167",
    "country": "AR",
    "zipcode": "9400",
    "name": "MOY AIKE GRANDE",
    "region": "Santa Cruz",
    "short_region": "Z",
    "lat": "-51.098300",
    "lon": "-70.080000"
  },
  {
    "id": "20168",
    "country": "AR",
    "zipcode": "9400",
    "name": "ADELA",
    "region": "Santa Cruz",
    "short_region": "Z",
    "lat": "-51.098300",
    "lon": "-70.080000"
  },
  {
    "id": "20169",
    "country": "AR",
    "zipcode": "9400",
    "name": "LAGUNA DE ORO",
    "region": "Santa Cruz",
    "short_region": "Z",
    "lat": "-51.098300",
    "lon": "-70.080000"
  },
  {
    "id": "20170",
    "country": "AR",
    "zipcode": "9400",
    "name": "OCHO HERMANOS",
    "region": "Santa Cruz",
    "short_region": "Z",
    "lat": "-51.098300",
    "lon": "-70.080000"
  },
  {
    "id": "20171",
    "country": "AR",
    "zipcode": "9400",
    "name": "PABLO LEZNER",
    "region": "Santa Cruz",
    "short_region": "Z",
    "lat": "-51.098300",
    "lon": "-70.080000"
  },
  {
    "id": "20172",
    "country": "AR",
    "zipcode": "9400",
    "name": "PALERMO AIKE",
    "region": "Santa Cruz",
    "short_region": "Z",
    "lat": "-51.098300",
    "lon": "-70.080000"
  },
  {
    "id": "20173",
    "country": "AR",
    "zipcode": "9400",
    "name": "PALI AIKE",
    "region": "Santa Cruz",
    "short_region": "Z",
    "lat": "-51.098300",
    "lon": "-70.080000"
  },
  {
    "id": "20174",
    "country": "AR",
    "zipcode": "9400",
    "name": "CABO BUEN TIEMPO",
    "region": "Santa Cruz",
    "short_region": "Z",
    "lat": "-51.098300",
    "lon": "-70.080000"
  },
  {
    "id": "20175",
    "country": "AR",
    "zipcode": "9400",
    "name": "BREMEN",
    "region": "Santa Cruz",
    "short_region": "Z",
    "lat": "-51.098300",
    "lon": "-70.080000"
  },
  {
    "id": "20176",
    "country": "AR",
    "zipcode": "9400",
    "name": "BON ACCORD",
    "region": "Santa Cruz",
    "short_region": "Z",
    "lat": "-51.098300",
    "lon": "-70.080000"
  },
  {
    "id": "20177",
    "country": "AR",
    "zipcode": "9400",
    "name": "SAN JOSE",
    "region": "Santa Cruz",
    "short_region": "Z",
    "lat": "-51.098300",
    "lon": "-70.080000"
  },
  {
    "id": "20178",
    "country": "AR",
    "zipcode": "9400",
    "name": "LUBECKE",
    "region": "Santa Cruz",
    "short_region": "Z",
    "lat": "-51.098300",
    "lon": "-70.080000"
  },
  {
    "id": "20179",
    "country": "AR",
    "zipcode": "9400",
    "name": "CANCHA CARRERA",
    "region": "Santa Cruz",
    "short_region": "Z",
    "lat": "-51.098300",
    "lon": "-70.080000"
  },
  {
    "id": "20180",
    "country": "AR",
    "zipcode": "9400",
    "name": "BELLA VISTA",
    "region": "Santa Cruz",
    "short_region": "Z",
    "lat": "-51.098300",
    "lon": "-70.080000"
  },
  {
    "id": "20181",
    "country": "AR",
    "zipcode": "9400",
    "name": "LOS VASCOS",
    "region": "Santa Cruz",
    "short_region": "Z",
    "lat": "-51.098300",
    "lon": "-70.080000"
  },
  {
    "id": "20182",
    "country": "AR",
    "zipcode": "9400",
    "name": "AN-AIKE",
    "region": "Santa Cruz",
    "short_region": "Z",
    "lat": "-51.098300",
    "lon": "-70.080000"
  },
  {
    "id": "20183",
    "country": "AR",
    "zipcode": "9400",
    "name": "LOS POZOS",
    "region": "Santa Cruz",
    "short_region": "Z",
    "lat": "-51.098300",
    "lon": "-70.080000"
  },
  {
    "id": "20184",
    "country": "AR",
    "zipcode": "9400",
    "name": "TRES HERMANOS",
    "region": "Santa Cruz",
    "short_region": "Z",
    "lat": "-51.098300",
    "lon": "-70.080000"
  },
  {
    "id": "20185",
    "country": "AR",
    "zipcode": "9400",
    "name": "PUNTA LOYOLA",
    "region": "Santa Cruz",
    "short_region": "Z",
    "lat": "-51.098300",
    "lon": "-70.080000"
  },
  {
    "id": "20186",
    "country": "AR",
    "zipcode": "9400",
    "name": "STAG RIVER",
    "region": "Santa Cruz",
    "short_region": "Z",
    "lat": "-51.098300",
    "lon": "-70.080000"
  },
  {
    "id": "20187",
    "country": "AR",
    "zipcode": "9400",
    "name": "VIZCACHAS",
    "region": "Santa Cruz",
    "short_region": "Z",
    "lat": "-51.098300",
    "lon": "-70.080000"
  },
  {
    "id": "20188",
    "country": "AR",
    "zipcode": "9400",
    "name": "MENDE AIKE",
    "region": "Santa Cruz",
    "short_region": "Z",
    "lat": "-51.098300",
    "lon": "-70.080000"
  },
  {
    "id": "20189",
    "country": "AR",
    "zipcode": "9400",
    "name": "MARIA INES",
    "region": "Santa Cruz",
    "short_region": "Z",
    "lat": "-51.098300",
    "lon": "-70.080000"
  },
  {
    "id": "20190",
    "country": "AR",
    "zipcode": "9400",
    "name": "MARIA ANTONIA",
    "region": "Santa Cruz",
    "short_region": "Z",
    "lat": "-51.098300",
    "lon": "-70.080000"
  },
  {
    "id": "20191",
    "country": "AR",
    "zipcode": "9400",
    "name": "MARIA",
    "region": "Santa Cruz",
    "short_region": "Z",
    "lat": "-51.098300",
    "lon": "-70.080000"
  },
  {
    "id": "20192",
    "country": "AR",
    "zipcode": "9400",
    "name": "MARCATCH AIKE",
    "region": "Santa Cruz",
    "short_region": "Z",
    "lat": "-51.098300",
    "lon": "-70.080000"
  },
  {
    "id": "20193",
    "country": "AR",
    "zipcode": "9400",
    "name": "LAS BUITRERAS",
    "region": "Santa Cruz",
    "short_region": "Z",
    "lat": "-51.098300",
    "lon": "-70.080000"
  },
  {
    "id": "20194",
    "country": "AR",
    "zipcode": "9400",
    "name": "LA ROSITA",
    "region": "Santa Cruz",
    "short_region": "Z",
    "lat": "-51.098300",
    "lon": "-70.080000"
  },
  {
    "id": "20195",
    "country": "AR",
    "zipcode": "9400",
    "name": "LA REGALONA",
    "region": "Santa Cruz",
    "short_region": "Z",
    "lat": "-51.098300",
    "lon": "-70.080000"
  },
  {
    "id": "20196",
    "country": "AR",
    "zipcode": "9400",
    "name": "LAGUNA COLORADA",
    "region": "Santa Cruz",
    "short_region": "Z",
    "lat": "-51.098300",
    "lon": "-70.080000"
  },
  {
    "id": "20197",
    "country": "AR",
    "zipcode": "9400",
    "name": "LAGUNA BENITO",
    "region": "Santa Cruz",
    "short_region": "Z",
    "lat": "-51.098300",
    "lon": "-70.080000"
  },
  {
    "id": "20198",
    "country": "AR",
    "zipcode": "9400",
    "name": "LA COSTA",
    "region": "Santa Cruz",
    "short_region": "Z",
    "lat": "-51.098300",
    "lon": "-70.080000"
  },
  {
    "id": "20199",
    "country": "AR",
    "zipcode": "9400",
    "name": "LA CORRENTINA",
    "region": "Santa Cruz",
    "short_region": "Z",
    "lat": "-51.098300",
    "lon": "-70.080000"
  },
  {
    "id": "20200",
    "country": "AR",
    "zipcode": "9400",
    "name": "LA CARLOTA",
    "region": "Santa Cruz",
    "short_region": "Z",
    "lat": "-51.098300",
    "lon": "-70.080000"
  },
  {
    "id": "20201",
    "country": "AR",
    "zipcode": "9400",
    "name": "KILLIK AIKE SUR",
    "region": "Santa Cruz",
    "short_region": "Z",
    "lat": "-51.098300",
    "lon": "-70.080000"
  },
  {
    "id": "20202",
    "country": "AR",
    "zipcode": "9400",
    "name": "KILLIK AIKE NORTE",
    "region": "Santa Cruz",
    "short_region": "Z",
    "lat": "-51.098300",
    "lon": "-70.080000"
  },
  {
    "id": "20203",
    "country": "AR",
    "zipcode": "9400",
    "name": "GUARKENKEN AIKE",
    "region": "Santa Cruz",
    "short_region": "Z",
    "lat": "-51.098300",
    "lon": "-70.080000"
  },
  {
    "id": "20204",
    "country": "AR",
    "zipcode": "9400",
    "name": "GANADERA LA LEONOR S.R.L.",
    "region": "Santa Cruz",
    "short_region": "Z",
    "lat": "-51.098300",
    "lon": "-70.080000"
  },
  {
    "id": "20205",
    "country": "AR",
    "zipcode": "9400",
    "name": "ESTANCIA CARMEN",
    "region": "Santa Cruz",
    "short_region": "Z",
    "lat": "-51.098300",
    "lon": "-70.080000"
  },
  {
    "id": "20206",
    "country": "AR",
    "zipcode": "9400",
    "name": "ESTACION SOFIA",
    "region": "Santa Cruz",
    "short_region": "Z",
    "lat": "-51.098300",
    "lon": "-70.080000"
  },
  {
    "id": "20207",
    "country": "AR",
    "zipcode": "9400",
    "name": "EL TERO",
    "region": "Santa Cruz",
    "short_region": "Z",
    "lat": "-51.098300",
    "lon": "-70.080000"
  },
  {
    "id": "20208",
    "country": "AR",
    "zipcode": "9400",
    "name": "EL CAMPAMENTO",
    "region": "Santa Cruz",
    "short_region": "Z",
    "lat": "-51.098300",
    "lon": "-70.080000"
  },
  {
    "id": "20209",
    "country": "AR",
    "zipcode": "9400",
    "name": "LOS FRAILES",
    "region": "Santa Cruz",
    "short_region": "Z",
    "lat": "-51.098300",
    "lon": "-70.080000"
  },
  {
    "id": "20210",
    "country": "AR",
    "zipcode": "9400",
    "name": "LA URUGUAYA",
    "region": "Santa Cruz",
    "short_region": "Z",
    "lat": "-51.098300",
    "lon": "-70.080000"
  },
  {
    "id": "20211",
    "country": "AR",
    "zipcode": "9400",
    "name": "LAURITA",
    "region": "Santa Cruz",
    "short_region": "Z",
    "lat": "-51.098300",
    "lon": "-70.080000"
  },
  {
    "id": "20212",
    "country": "AR",
    "zipcode": "9400",
    "name": "LAS VEGAS",
    "region": "Santa Cruz",
    "short_region": "Z",
    "lat": "-51.098300",
    "lon": "-70.080000"
  },
  {
    "id": "20213",
    "country": "AR",
    "zipcode": "9400",
    "name": "PASO DEL MEDIO",
    "region": "Santa Cruz",
    "short_region": "Z",
    "lat": "-51.098300",
    "lon": "-70.080000"
  },
  {
    "id": "20214",
    "country": "AR",
    "zipcode": "9400",
    "name": "PUESTO LUCACHO",
    "region": "Santa Cruz",
    "short_region": "Z",
    "lat": "-51.098300",
    "lon": "-70.080000"
  },
  {
    "id": "20215",
    "country": "AR",
    "zipcode": "9401",
    "name": "LA ESPERANZA",
    "region": "Santa Cruz",
    "short_region": "Z",
    "lat": "-51.455600",
    "lon": "-71.005600"
  },
  {
    "id": "20216",
    "country": "AR",
    "zipcode": "9401",
    "name": "FORTALEZA",
    "region": "Santa Cruz",
    "short_region": "Z",
    "lat": "-51.455600",
    "lon": "-71.005600"
  },
  {
    "id": "20217",
    "country": "AR",
    "zipcode": "9401",
    "name": "FUENTES DEL COYLE",
    "region": "Santa Cruz",
    "short_region": "Z",
    "lat": "-51.033300",
    "lon": "-71.483300"
  },
  {
    "id": "20218",
    "country": "AR",
    "zipcode": "9401",
    "name": "EL ZURDO",
    "region": "Santa Cruz",
    "short_region": "Z",
    "lat": "-51.983300",
    "lon": "-71.233300"
  },
  {
    "id": "20219",
    "country": "AR",
    "zipcode": "9401",
    "name": "GOBERNADOR MAYER",
    "region": "Santa Cruz",
    "short_region": "Z",
    "lat": "-51.350000",
    "lon": "-70.300000"
  },
  {
    "id": "20220",
    "country": "AR",
    "zipcode": "9405",
    "name": "LAGO ARGENTINO",
    "region": "Santa Cruz",
    "short_region": "Z",
    "lat": "-50.340700",
    "lon": "-72.276800"
  },
  {
    "id": "20221",
    "country": "AR",
    "zipcode": "9405",
    "name": "CALAFATE",
    "region": "Santa Cruz",
    "short_region": "Z",
    "lat": "-50.340700",
    "lon": "-72.276800"
  },
  {
    "id": "20222",
    "country": "AR",
    "zipcode": "9405",
    "name": "RIO BOTE",
    "region": "Santa Cruz",
    "short_region": "Z",
    "lat": "-50.266700",
    "lon": "-71.733300"
  },
  {
    "id": "20223",
    "country": "AR",
    "zipcode": "9405",
    "name": "GENDARME BARRETO",
    "region": "Santa Cruz",
    "short_region": "Z",
    "lat": "-50.300000",
    "lon": "-70.916700"
  },
  {
    "id": "20224",
    "country": "AR",
    "zipcode": "9405",
    "name": "EL CERRITO",
    "region": "Santa Cruz",
    "short_region": "Z",
    "lat": "-50.650000",
    "lon": "-71.400000"
  },
  {
    "id": "20225",
    "country": "AR",
    "zipcode": "9405",
    "name": "PUERTO BANDERA",
    "region": "Santa Cruz",
    "short_region": "Z",
    "lat": "-50.300000",
    "lon": "-72.783300"
  },
  {
    "id": "20226",
    "country": "AR",
    "zipcode": "9405",
    "name": "HOTEL CERRITO",
    "region": "Santa Cruz",
    "short_region": "Z",
    "lat": "-50.650000",
    "lon": "-71.400000"
  },
  {
    "id": "20227",
    "country": "AR",
    "zipcode": "9405",
    "name": "LAGO ROCA",
    "region": "Santa Cruz",
    "short_region": "Z",
    "lat": "-50.406900",
    "lon": "-71.826700"
  },
  {
    "id": "20228",
    "country": "AR",
    "zipcode": "9405",
    "name": "VENTISQUERO MORENO",
    "region": "Santa Cruz",
    "short_region": "Z",
    "lat": "-50.406900",
    "lon": "-71.826700"
  },
  {
    "id": "20229",
    "country": "AR",
    "zipcode": "9405",
    "name": "RIO MITRE",
    "region": "Santa Cruz",
    "short_region": "Z",
    "lat": "-50.406900",
    "lon": "-71.826700"
  },
  {
    "id": "20230",
    "country": "AR",
    "zipcode": "9405",
    "name": "BAHIA TRANQUILA",
    "region": "Santa Cruz",
    "short_region": "Z",
    "lat": "-50.406900",
    "lon": "-71.826700"
  },
  {
    "id": "20231",
    "country": "AR",
    "zipcode": "9405",
    "name": "CERRO BUENOS AIRES",
    "region": "Santa Cruz",
    "short_region": "Z",
    "lat": "-50.406900",
    "lon": "-71.826700"
  },
  {
    "id": "20232",
    "country": "AR",
    "zipcode": "9405",
    "name": "RIO CALAFATE",
    "region": "Santa Cruz",
    "short_region": "Z",
    "lat": "-50.406900",
    "lon": "-71.826700"
  },
  {
    "id": "20233",
    "country": "AR",
    "zipcode": "9405",
    "name": "QUIEN SABE",
    "region": "Santa Cruz",
    "short_region": "Z",
    "lat": "-50.406900",
    "lon": "-71.826700"
  },
  {
    "id": "20234",
    "country": "AR",
    "zipcode": "9405",
    "name": "PUERTO IRMA",
    "region": "Santa Cruz",
    "short_region": "Z",
    "lat": "-50.406900",
    "lon": "-71.826700"
  },
  {
    "id": "20235",
    "country": "AR",
    "zipcode": "9405",
    "name": "PASO CHARLES FHUR",
    "region": "Santa Cruz",
    "short_region": "Z",
    "lat": "-50.406900",
    "lon": "-71.826700"
  },
  {
    "id": "20236",
    "country": "AR",
    "zipcode": "9405",
    "name": "PUNTA BANDERA",
    "region": "Santa Cruz",
    "short_region": "Z",
    "lat": "-50.406900",
    "lon": "-71.826700"
  },
  {
    "id": "20237",
    "country": "AR",
    "zipcode": "9405",
    "name": "EL CORDERO",
    "region": "Santa Cruz",
    "short_region": "Z",
    "lat": "-50.406900",
    "lon": "-71.826700"
  },
  {
    "id": "20238",
    "country": "AR",
    "zipcode": "9405",
    "name": "EL MOSQUITO",
    "region": "Santa Cruz",
    "short_region": "Z",
    "lat": "-50.406900",
    "lon": "-71.826700"
  },
  {
    "id": "20239",
    "country": "AR",
    "zipcode": "9405",
    "name": "CERRO FORTALEZA",
    "region": "Santa Cruz",
    "short_region": "Z",
    "lat": "-50.406900",
    "lon": "-71.826700"
  },
  {
    "id": "20240",
    "country": "AR",
    "zipcode": "9405",
    "name": "CONDOR CLIF",
    "region": "Santa Cruz",
    "short_region": "Z",
    "lat": "-50.406900",
    "lon": "-71.826700"
  },
  {
    "id": "20241",
    "country": "AR",
    "zipcode": "9405",
    "name": "EL CENTINELA",
    "region": "Santa Cruz",
    "short_region": "Z",
    "lat": "-50.406900",
    "lon": "-71.826700"
  },
  {
    "id": "20242",
    "country": "AR",
    "zipcode": "9407",
    "name": "MINA TRES",
    "region": "Santa Cruz",
    "short_region": "Z",
    "lat": "-51.708300",
    "lon": "-72.037500"
  },
  {
    "id": "20243",
    "country": "AR",
    "zipcode": "9407",
    "name": "MORRO CHICO",
    "region": "Santa Cruz",
    "short_region": "Z",
    "lat": "-51.708300",
    "lon": "-72.037500"
  },
  {
    "id": "20244",
    "country": "AR",
    "zipcode": "9407",
    "name": "PUEBLO NUEVO",
    "region": "Santa Cruz",
    "short_region": "Z",
    "lat": "-51.708300",
    "lon": "-72.037500"
  },
  {
    "id": "20245",
    "country": "AR",
    "zipcode": "9407",
    "name": "RINCON DE LOS MORROS",
    "region": "Santa Cruz",
    "short_region": "Z",
    "lat": "-51.708300",
    "lon": "-72.037500"
  },
  {
    "id": "20246",
    "country": "AR",
    "zipcode": "9407",
    "name": "CORONEL MARTIN IRIGOYEN",
    "region": "Santa Cruz",
    "short_region": "Z",
    "lat": "-51.708300",
    "lon": "-72.037500"
  },
  {
    "id": "20247",
    "country": "AR",
    "zipcode": "9407",
    "name": "CAMPAMENTO DOROTEA",
    "region": "Santa Cruz",
    "short_region": "Z",
    "lat": "-51.708300",
    "lon": "-72.037500"
  },
  {
    "id": "20248",
    "country": "AR",
    "zipcode": "9407",
    "name": "GLENCROSS",
    "region": "Santa Cruz",
    "short_region": "Z",
    "lat": "-51.708300",
    "lon": "-72.037500"
  },
  {
    "id": "20249",
    "country": "AR",
    "zipcode": "9407",
    "name": "EL TURBIO",
    "region": "Santa Cruz",
    "short_region": "Z",
    "lat": "-51.683300",
    "lon": "-72.083300"
  },
  {
    "id": "20250",
    "country": "AR",
    "zipcode": "9407",
    "name": "GAYPON",
    "region": "Santa Cruz",
    "short_region": "Z",
    "lat": "-51.966700",
    "lon": "-71.466700"
  },
  {
    "id": "20251",
    "country": "AR",
    "zipcode": "9407",
    "name": "28 DE NOVIEMBRE",
    "region": "Santa Cruz",
    "short_region": "Z",
    "lat": "-51.650000",
    "lon": "-72.300000"
  },
  {
    "id": "20252",
    "country": "AR",
    "zipcode": "9407",
    "name": "RIO TURBIO",
    "region": "Santa Cruz",
    "short_region": "Z",
    "lat": "-51.533300",
    "lon": "-72.300000"
  },
  {
    "id": "20253",
    "country": "AS",
    "zipcode": "96799",
    "name": "Pago Pago",
    "region": "As",
    "short_region": "",
    "lat": "-14.278100",
    "lon": "-170.702500"
  },
  {
    "id": "20254",
    "country": "AT",
    "zipcode": "7000",
    "name": "Kleinhöflein im Burgenland",
    "region": "Burgenland",
    "short_region": "01",
    "lat": "47.841500",
    "lon": "16.504100"
  },
  {
    "id": "20255",
    "country": "AT",
    "zipcode": "7000",
    "name": "Sankt Georgen am Leithagebirge",
    "region": "Burgenland",
    "short_region": "01",
    "lat": "47.850000",
    "lon": "16.550000"
  },
  {
    "id": "20256",
    "country": "AT",
    "zipcode": "7000",
    "name": "Eisenstadt",
    "region": "Burgenland",
    "short_region": "01",
    "lat": "47.845700",
    "lon": "16.523300"
  },
  {
    "id": "20257",
    "country": "AT",
    "zipcode": "7071",
    "name": "Rust",
    "region": "Burgenland",
    "short_region": "01",
    "lat": "47.801200",
    "lon": "16.671600"
  },
  {
    "id": "20258",
    "country": "AT",
    "zipcode": "2443",
    "name": "Stotzing",
    "region": "Burgenland",
    "short_region": "01",
    "lat": "47.900000",
    "lon": "16.550000"
  },
  {
    "id": "20259",
    "country": "AT",
    "zipcode": "2443",
    "name": "Leithaprodersdorf",
    "region": "Burgenland",
    "short_region": "01",
    "lat": "47.933500",
    "lon": "16.479100"
  },
  {
    "id": "20260",
    "country": "AT",
    "zipcode": "2443",
    "name": "Loretto",
    "region": "Burgenland",
    "short_region": "01",
    "lat": "47.915600",
    "lon": "16.517900"
  },
  {
    "id": "20261",
    "country": "AT",
    "zipcode": "2485",
    "name": "Wimpassing an der Leitha",
    "region": "Burgenland",
    "short_region": "01",
    "lat": "47.916700",
    "lon": "16.433300"
  },
  {
    "id": "20262",
    "country": "AT",
    "zipcode": "2491",
    "name": "Neufeld an der Leitha",
    "region": "Burgenland",
    "short_region": "01",
    "lat": "47.865600",
    "lon": "16.378600"
  },
  {
    "id": "20263",
    "country": "AT",
    "zipcode": "2491",
    "name": "Steinbrunn / Štikapron",
    "region": "Burgenland",
    "short_region": "01",
    "lat": "47.833300",
    "lon": "16.416700"
  },
  {
    "id": "20264",
    "country": "AT",
    "zipcode": "2491",
    "name": "Hornstein / Vorištan",
    "region": "Burgenland",
    "short_region": "01",
    "lat": "47.880500",
    "lon": "16.444500"
  },
  {
    "id": "20265",
    "country": "AT",
    "zipcode": "7011",
    "name": "Siegendorf / Cindrof",
    "region": "Burgenland",
    "short_region": "01",
    "lat": "47.781000",
    "lon": "16.542300"
  },
  {
    "id": "20266",
    "country": "AT",
    "zipcode": "7012",
    "name": "Zagersdorf / Cogrštof",
    "region": "Burgenland",
    "short_region": "01",
    "lat": "47.764700",
    "lon": "16.513800"
  },
  {
    "id": "20267",
    "country": "AT",
    "zipcode": "7013",
    "name": "Klingenbach / Klimpuh",
    "region": "Burgenland",
    "short_region": "01",
    "lat": "47.772800",
    "lon": "16.528100"
  },
  {
    "id": "20268",
    "country": "AT",
    "zipcode": "7033",
    "name": "Zillingtal / Celindof",
    "region": "Burgenland",
    "short_region": "01",
    "lat": "47.799700",
    "lon": "16.399400"
  },
  {
    "id": "20269",
    "country": "AT",
    "zipcode": "7034",
    "name": "Zillingtal / Celindof",
    "region": "Burgenland",
    "short_region": "01",
    "lat": "47.799700",
    "lon": "16.399400"
  },
  {
    "id": "20270",
    "country": "AT",
    "zipcode": "7035",
    "name": "Zillingtal / Celindof",
    "region": "Burgenland",
    "short_region": "01",
    "lat": "47.799700",
    "lon": "16.399400"
  },
  {
    "id": "20271",
    "country": "AT",
    "zipcode": "7035",
    "name": "Steinbrunn / Štikapron",
    "region": "Burgenland",
    "short_region": "01",
    "lat": "47.833300",
    "lon": "16.416700"
  },
  {
    "id": "20272",
    "country": "AT",
    "zipcode": "7041",
    "name": "Wulkaprodersdorf / Vulkaprodrštof",
    "region": "Burgenland",
    "short_region": "01",
    "lat": "47.797500",
    "lon": "16.504500"
  },
  {
    "id": "20273",
    "country": "AT",
    "zipcode": "7051",
    "name": "Großhöflein",
    "region": "Burgenland",
    "short_region": "01",
    "lat": "47.835900",
    "lon": "16.480400"
  },
  {
    "id": "20274",
    "country": "AT",
    "zipcode": "7052",
    "name": "Müllendorf",
    "region": "Burgenland",
    "short_region": "01",
    "lat": "47.839400",
    "lon": "16.462600"
  },
  {
    "id": "20275",
    "country": "AT",
    "zipcode": "7053",
    "name": "Hornstein / Vorištan",
    "region": "Burgenland",
    "short_region": "01",
    "lat": "47.880500",
    "lon": "16.444500"
  },
  {
    "id": "20276",
    "country": "AT",
    "zipcode": "7061",
    "name": "Trausdorf an der Wulka / Trajštof",
    "region": "Burgenland",
    "short_region": "01",
    "lat": "47.821900",
    "lon": "16.631700"
  },
  {
    "id": "20277",
    "country": "AT",
    "zipcode": "7062",
    "name": "Sankt Margarethen im Burgenland",
    "region": "Burgenland",
    "short_region": "01",
    "lat": "47.803400",
    "lon": "16.608800"
  },
  {
    "id": "20278",
    "country": "AT",
    "zipcode": "7063",
    "name": "Oggau am Neusiedler See",
    "region": "Burgenland",
    "short_region": "01",
    "lat": "47.833300",
    "lon": "16.666700"
  },
  {
    "id": "20279",
    "country": "AT",
    "zipcode": "7064",
    "name": "Oslip / Uzlop",
    "region": "Burgenland",
    "short_region": "01",
    "lat": "47.829100",
    "lon": "16.619600"
  },
  {
    "id": "20280",
    "country": "AT",
    "zipcode": "7072",
    "name": "Mörbisch am See",
    "region": "Burgenland",
    "short_region": "01",
    "lat": "47.750000",
    "lon": "16.666700"
  },
  {
    "id": "20281",
    "country": "AT",
    "zipcode": "7081",
    "name": "Schützen am Gebirge",
    "region": "Burgenland",
    "short_region": "01",
    "lat": "47.852300",
    "lon": "16.623300"
  },
  {
    "id": "20282",
    "country": "AT",
    "zipcode": "7082",
    "name": "Donnerskirchen",
    "region": "Burgenland",
    "short_region": "01",
    "lat": "47.894200",
    "lon": "16.646300"
  },
  {
    "id": "20283",
    "country": "AT",
    "zipcode": "7083",
    "name": "Purbach am Neusiedler See",
    "region": "Burgenland",
    "short_region": "01",
    "lat": "47.912900",
    "lon": "16.695600"
  },
  {
    "id": "20284",
    "country": "AT",
    "zipcode": "7091",
    "name": "Breitenbrunn",
    "region": "Burgenland",
    "short_region": "01",
    "lat": "47.944500",
    "lon": "16.731500"
  },
  {
    "id": "20285",
    "country": "AT",
    "zipcode": "7521",
    "name": "Eberau",
    "region": "Burgenland",
    "short_region": "01",
    "lat": "47.107600",
    "lon": "16.460400"
  },
  {
    "id": "20286",
    "country": "AT",
    "zipcode": "7521",
    "name": "Unterbildein",
    "region": "Burgenland",
    "short_region": "01",
    "lat": "47.128400",
    "lon": "16.467900"
  },
  {
    "id": "20287",
    "country": "AT",
    "zipcode": "7521",
    "name": "Winten",
    "region": "Burgenland",
    "short_region": "01",
    "lat": "47.117100",
    "lon": "16.444500"
  },
  {
    "id": "20288",
    "country": "AT",
    "zipcode": "7521",
    "name": "Gaas",
    "region": "Burgenland",
    "short_region": "01",
    "lat": "47.082400",
    "lon": "16.463000"
  },
  {
    "id": "20289",
    "country": "AT",
    "zipcode": "7521",
    "name": "Oberbildein",
    "region": "Burgenland",
    "short_region": "01",
    "lat": "47.133300",
    "lon": "16.466700"
  },
  {
    "id": "20290",
    "country": "AT",
    "zipcode": "7521",
    "name": "Kulm im Burgenland",
    "region": "Burgenland",
    "short_region": "01",
    "lat": "47.104000",
    "lon": "16.452400"
  },
  {
    "id": "20291",
    "country": "AT",
    "zipcode": "7522",
    "name": "Luising",
    "region": "Burgenland",
    "short_region": "01",
    "lat": "47.013900",
    "lon": "16.479400"
  },
  {
    "id": "20292",
    "country": "AT",
    "zipcode": "7522",
    "name": "Steinfurt",
    "region": "Burgenland",
    "short_region": "01",
    "lat": "47.066700",
    "lon": "16.416700"
  },
  {
    "id": "20293",
    "country": "AT",
    "zipcode": "7522",
    "name": "Deutsch Bieling",
    "region": "Burgenland",
    "short_region": "01",
    "lat": "47.016700",
    "lon": "16.433300"
  },
  {
    "id": "20294",
    "country": "AT",
    "zipcode": "7522",
    "name": "Kroatisch Ehrensdorf",
    "region": "Burgenland",
    "short_region": "01",
    "lat": "47.117500",
    "lon": "16.402400"
  },
  {
    "id": "20295",
    "country": "AT",
    "zipcode": "7522",
    "name": "Deutsch Ehrensdorf",
    "region": "Burgenland",
    "short_region": "01",
    "lat": "47.097900",
    "lon": "16.414200"
  },
  {
    "id": "20296",
    "country": "AT",
    "zipcode": "7522",
    "name": "Reinersdorf",
    "region": "Burgenland",
    "short_region": "01",
    "lat": "47.010400",
    "lon": "16.388800"
  },
  {
    "id": "20297",
    "country": "AT",
    "zipcode": "7522",
    "name": "Heiligenbrunn",
    "region": "Burgenland",
    "short_region": "01",
    "lat": "47.027000",
    "lon": "16.416900"
  },
  {
    "id": "20298",
    "country": "AT",
    "zipcode": "7522",
    "name": "Sumetendorf",
    "region": "Burgenland",
    "short_region": "01",
    "lat": "47.044500",
    "lon": "16.393500"
  },
  {
    "id": "20299",
    "country": "AT",
    "zipcode": "7522",
    "name": "Hagensdorf im Burgenland",
    "region": "Burgenland",
    "short_region": "01",
    "lat": "47.014500",
    "lon": "16.455400"
  },
  {
    "id": "20300",
    "country": "AT",
    "zipcode": "7522",
    "name": "Strem",
    "region": "Burgenland",
    "short_region": "01",
    "lat": "47.045000",
    "lon": "16.414300"
  },
  {
    "id": "20301",
    "country": "AT",
    "zipcode": "7533",
    "name": "Ollersdorf im Burgenland",
    "region": "Burgenland",
    "short_region": "01",
    "lat": "47.183300",
    "lon": "16.166700"
  },
  {
    "id": "20302",
    "country": "AT",
    "zipcode": "7534",
    "name": "Olbendorf",
    "region": "Burgenland",
    "short_region": "01",
    "lat": "47.183300",
    "lon": "16.200000"
  },
  {
    "id": "20303",
    "country": "AT",
    "zipcode": "7534",
    "name": "Rauchwart",
    "region": "Burgenland",
    "short_region": "01",
    "lat": "47.133300",
    "lon": "16.233300"
  },
  {
    "id": "20304",
    "country": "AT",
    "zipcode": "7535",
    "name": "Rauchwart",
    "region": "Burgenland",
    "short_region": "01",
    "lat": "47.133300",
    "lon": "16.233300"
  },
  {
    "id": "20305",
    "country": "AT",
    "zipcode": "7535",
    "name": "Schallendorf im Burgenland",
    "region": "Burgenland",
    "short_region": "01",
    "lat": "47.116700",
    "lon": "16.250000"
  },
  {
    "id": "20306",
    "country": "AT",
    "zipcode": "7535",
    "name": "Gamischdorf",
    "region": "Burgenland",
    "short_region": "01",
    "lat": "47.107800",
    "lon": "16.259100"
  },
  {
    "id": "20307",
    "country": "AT",
    "zipcode": "7535",
    "name": "Sankt Michael im Burgenland",
    "region": "Burgenland",
    "short_region": "01",
    "lat": "47.133300",
    "lon": "16.266700"
  },
  {
    "id": "20308",
    "country": "AT",
    "zipcode": "7536",
    "name": "Güttenbach / Pinkovac",
    "region": "Burgenland",
    "short_region": "01",
    "lat": "47.166700",
    "lon": "16.300000"
  },
  {
    "id": "20309",
    "country": "AT",
    "zipcode": "7537",
    "name": "Neuberg im Burgenland / Nova Gora",
    "region": "Burgenland",
    "short_region": "01",
    "lat": "47.159100",
    "lon": "16.220900"
  },
  {
    "id": "20310",
    "country": "AT",
    "zipcode": "7540",
    "name": "Moschendorf",
    "region": "Burgenland",
    "short_region": "01",
    "lat": "47.058400",
    "lon": "16.477300"
  },
  {
    "id": "20311",
    "country": "AT",
    "zipcode": "7540",
    "name": "Kleinmürbisch",
    "region": "Burgenland",
    "short_region": "01",
    "lat": "47.033000",
    "lon": "16.324500"
  },
  {
    "id": "20312",
    "country": "AT",
    "zipcode": "7540",
    "name": "Sankt Nikolaus",
    "region": "Burgenland",
    "short_region": "01",
    "lat": "47.046200",
    "lon": "16.332300"
  },
  {
    "id": "20313",
    "country": "AT",
    "zipcode": "7540",
    "name": "Inzenhof",
    "region": "Burgenland",
    "short_region": "01",
    "lat": "47.016700",
    "lon": "16.316700"
  },
  {
    "id": "20314",
    "country": "AT",
    "zipcode": "7540",
    "name": "Tschanigraben",
    "region": "Burgenland",
    "short_region": "01",
    "lat": "47.067700",
    "lon": "16.292100"
  },
  {
    "id": "20315",
    "country": "AT",
    "zipcode": "7540",
    "name": "Großmürbisch",
    "region": "Burgenland",
    "short_region": "01",
    "lat": "47.016400",
    "lon": "16.362000"
  },
  {
    "id": "20316",
    "country": "AT",
    "zipcode": "7540",
    "name": "Urbersdorf",
    "region": "Burgenland",
    "short_region": "01",
    "lat": "47.057600",
    "lon": "16.372900"
  },
  {
    "id": "20317",
    "country": "AT",
    "zipcode": "7540",
    "name": "Sulz im Burgenland",
    "region": "Burgenland",
    "short_region": "01",
    "lat": "47.074800",
    "lon": "16.269600"
  },
  {
    "id": "20318",
    "country": "AT",
    "zipcode": "7540",
    "name": "Glasing",
    "region": "Burgenland",
    "short_region": "01",
    "lat": "47.043300",
    "lon": "16.357500"
  },
  {
    "id": "20319",
    "country": "AT",
    "zipcode": "7540",
    "name": "Güssing",
    "region": "Burgenland",
    "short_region": "01",
    "lat": "47.059400",
    "lon": "16.324300"
  },
  {
    "id": "20320",
    "country": "AT",
    "zipcode": "7540",
    "name": "Krottendorf",
    "region": "Burgenland",
    "short_region": "01",
    "lat": "47.059500",
    "lon": "16.307100"
  },
  {
    "id": "20321",
    "country": "AT",
    "zipcode": "7540",
    "name": "Rehgraben",
    "region": "Burgenland",
    "short_region": "01",
    "lat": "47.083300",
    "lon": "16.233300"
  },
  {
    "id": "20322",
    "country": "AT",
    "zipcode": "7540",
    "name": "Neustift bei Güssing",
    "region": "Burgenland",
    "short_region": "01",
    "lat": "47.016700",
    "lon": "16.266700"
  },
  {
    "id": "20323",
    "country": "AT",
    "zipcode": "7542",
    "name": "Sulz im Burgenland",
    "region": "Burgenland",
    "short_region": "01",
    "lat": "47.074800",
    "lon": "16.269600"
  },
  {
    "id": "20324",
    "country": "AT",
    "zipcode": "7542",
    "name": "Steingraben",
    "region": "Burgenland",
    "short_region": "01",
    "lat": "47.064300",
    "lon": "16.274300"
  },
  {
    "id": "20325",
    "country": "AT",
    "zipcode": "7542",
    "name": "Gerersdorf bei Güssing",
    "region": "Burgenland",
    "short_region": "01",
    "lat": "47.066700",
    "lon": "16.250000"
  },
  {
    "id": "20326",
    "country": "AT",
    "zipcode": "7543",
    "name": "Eisenhüttl",
    "region": "Burgenland",
    "short_region": "01",
    "lat": "47.100000",
    "lon": "16.200000"
  },
  {
    "id": "20327",
    "country": "AT",
    "zipcode": "7543",
    "name": "Limbach",
    "region": "Burgenland",
    "short_region": "01",
    "lat": "47.066700",
    "lon": "16.166700"
  },
  {
    "id": "20328",
    "country": "AT",
    "zipcode": "7543",
    "name": "Kukmirn",
    "region": "Burgenland",
    "short_region": "01",
    "lat": "47.075400",
    "lon": "16.210300"
  },
  {
    "id": "20329",
    "country": "AT",
    "zipcode": "7543",
    "name": "Neusiedl",
    "region": "Burgenland",
    "short_region": "01",
    "lat": "47.100000",
    "lon": "16.183300"
  },
  {
    "id": "20330",
    "country": "AT",
    "zipcode": "7544",
    "name": "Punitz",
    "region": "Burgenland",
    "short_region": "01",
    "lat": "47.116700",
    "lon": "16.350000"
  },
  {
    "id": "20331",
    "country": "AT",
    "zipcode": "7544",
    "name": "Tobaj",
    "region": "Burgenland",
    "short_region": "01",
    "lat": "47.083300",
    "lon": "16.300000"
  },
  {
    "id": "20332",
    "country": "AT",
    "zipcode": "7544",
    "name": "Kroatisch Tschantschendorf",
    "region": "Burgenland",
    "short_region": "01",
    "lat": "47.097400",
    "lon": "16.286400"
  },
  {
    "id": "20333",
    "country": "AT",
    "zipcode": "7544",
    "name": "Deutsch Tschantschendorf",
    "region": "Burgenland",
    "short_region": "01",
    "lat": "47.100000",
    "lon": "16.283300"
  },
  {
    "id": "20334",
    "country": "AT",
    "zipcode": "7544",
    "name": "Hasendorf im Burgenland",
    "region": "Burgenland",
    "short_region": "01",
    "lat": "47.083300",
    "lon": "16.300000"
  },
  {
    "id": "20335",
    "country": "AT",
    "zipcode": "7544",
    "name": "Tudersdorf",
    "region": "Burgenland",
    "short_region": "01",
    "lat": "47.100000",
    "lon": "16.283300"
  },
  {
    "id": "20336",
    "country": "AT",
    "zipcode": "7551",
    "name": "Heugraben",
    "region": "Burgenland",
    "short_region": "01",
    "lat": "47.116700",
    "lon": "16.183300"
  },
  {
    "id": "20337",
    "country": "AT",
    "zipcode": "7551",
    "name": "Stegersbach",
    "region": "Burgenland",
    "short_region": "01",
    "lat": "47.166700",
    "lon": "16.166700"
  },
  {
    "id": "20338",
    "country": "AT",
    "zipcode": "7551",
    "name": "Rohr im Burgenland",
    "region": "Burgenland",
    "short_region": "01",
    "lat": "47.116700",
    "lon": "16.166700"
  },
  {
    "id": "20339",
    "country": "AT",
    "zipcode": "7551",
    "name": "Bocksdorf",
    "region": "Burgenland",
    "short_region": "01",
    "lat": "47.133300",
    "lon": "16.166700"
  },
  {
    "id": "20340",
    "country": "AT",
    "zipcode": "7552",
    "name": "Stinatz / Stinjaki",
    "region": "Burgenland",
    "short_region": "01",
    "lat": "47.200000",
    "lon": "16.116700"
  },
  {
    "id": "20341",
    "country": "AT",
    "zipcode": "8291",
    "name": "Burgauberg",
    "region": "Burgenland",
    "short_region": "01",
    "lat": "47.147700",
    "lon": "16.123500"
  },
  {
    "id": "20342",
    "country": "AT",
    "zipcode": "8292",
    "name": "Hackerberg",
    "region": "Burgenland",
    "short_region": "01",
    "lat": "47.200000",
    "lon": "16.116700"
  },
  {
    "id": "20343",
    "country": "AT",
    "zipcode": "8292",
    "name": "Neudauberg",
    "region": "Burgenland",
    "short_region": "01",
    "lat": "47.171700",
    "lon": "16.119500"
  },
  {
    "id": "20344",
    "country": "AT",
    "zipcode": "8293",
    "name": "Wörterberg",
    "region": "Burgenland",
    "short_region": "01",
    "lat": "47.216700",
    "lon": "16.100000"
  },
  {
    "id": "20345",
    "country": "AT",
    "zipcode": "7561",
    "name": "Poppendorf im Burgenland",
    "region": "Burgenland",
    "short_region": "01",
    "lat": "46.996900",
    "lon": "16.225000"
  },
  {
    "id": "20346",
    "country": "AT",
    "zipcode": "7561",
    "name": "Heiligenkreuz im Lafnitztal",
    "region": "Burgenland",
    "short_region": "01",
    "lat": "46.989200",
    "lon": "16.260800"
  },
  {
    "id": "20347",
    "country": "AT",
    "zipcode": "7562",
    "name": "Zahling",
    "region": "Burgenland",
    "short_region": "01",
    "lat": "47.033300",
    "lon": "16.200000"
  },
  {
    "id": "20348",
    "country": "AT",
    "zipcode": "7562",
    "name": "Eltendorf",
    "region": "Burgenland",
    "short_region": "01",
    "lat": "47.000000",
    "lon": "16.200000"
  },
  {
    "id": "20349",
    "country": "AT",
    "zipcode": "7563",
    "name": "Königsdorf",
    "region": "Burgenland",
    "short_region": "01",
    "lat": "47.000000",
    "lon": "16.166700"
  },
  {
    "id": "20350",
    "country": "AT",
    "zipcode": "7564",
    "name": "Dobersdorf",
    "region": "Burgenland",
    "short_region": "01",
    "lat": "47.016700",
    "lon": "16.133300"
  },
  {
    "id": "20351",
    "country": "AT",
    "zipcode": "7564",
    "name": "Rudersdorf",
    "region": "Burgenland",
    "short_region": "01",
    "lat": "47.050000",
    "lon": "16.116700"
  },
  {
    "id": "20352",
    "country": "AT",
    "zipcode": "7571",
    "name": "Rudersdorf",
    "region": "Burgenland",
    "short_region": "01",
    "lat": "47.050000",
    "lon": "16.116700"
  },
  {
    "id": "20353",
    "country": "AT",
    "zipcode": "7572",
    "name": "Rohrbrunn",
    "region": "Burgenland",
    "short_region": "01",
    "lat": "47.124400",
    "lon": "16.115100"
  },
  {
    "id": "20354",
    "country": "AT",
    "zipcode": "7572",
    "name": "Deutsch Kaltenbrunn",
    "region": "Burgenland",
    "short_region": "01",
    "lat": "47.087900",
    "lon": "16.107900"
  },
  {
    "id": "20355",
    "country": "AT",
    "zipcode": "8282",
    "name": "Henndorf im Burgenland",
    "region": "Burgenland",
    "short_region": "01",
    "lat": "46.982000",
    "lon": "16.145900"
  },
  {
    "id": "20356",
    "country": "AT",
    "zipcode": "8350",
    "name": "Welten",
    "region": "Burgenland",
    "short_region": "01",
    "lat": "46.929200",
    "lon": "16.082500"
  },
  {
    "id": "20357",
    "country": "AT",
    "zipcode": "8380",
    "name": "Jennersdorf",
    "region": "Burgenland",
    "short_region": "01",
    "lat": "46.938500",
    "lon": "16.141600"
  },
  {
    "id": "20358",
    "country": "AT",
    "zipcode": "8380",
    "name": "Rax",
    "region": "Burgenland",
    "short_region": "01",
    "lat": "46.933300",
    "lon": "16.166700"
  },
  {
    "id": "20359",
    "country": "AT",
    "zipcode": "8380",
    "name": "Neumarkt an der Raab",
    "region": "Burgenland",
    "short_region": "01",
    "lat": "46.926900",
    "lon": "16.166700"
  },
  {
    "id": "20360",
    "country": "AT",
    "zipcode": "8380",
    "name": "Grieselstein",
    "region": "Burgenland",
    "short_region": "01",
    "lat": "46.952500",
    "lon": "16.120000"
  },
  {
    "id": "20361",
    "country": "AT",
    "zipcode": "8380",
    "name": "Henndorf im Burgenland",
    "region": "Burgenland",
    "short_region": "01",
    "lat": "46.982000",
    "lon": "16.145900"
  },
  {
    "id": "20362",
    "country": "AT",
    "zipcode": "8382",
    "name": "Deutsch Minihof",
    "region": "Burgenland",
    "short_region": "01",
    "lat": "46.970800",
    "lon": "16.242600"
  },
  {
    "id": "20363",
    "country": "AT",
    "zipcode": "8382",
    "name": "Wallendorf",
    "region": "Burgenland",
    "short_region": "01",
    "lat": "46.971900",
    "lon": "16.233300"
  },
  {
    "id": "20364",
    "country": "AT",
    "zipcode": "8382",
    "name": "Krobotek",
    "region": "Burgenland",
    "short_region": "01",
    "lat": "46.971500",
    "lon": "16.192100"
  },
  {
    "id": "20365",
    "country": "AT",
    "zipcode": "8382",
    "name": "Rosendorf",
    "region": "Burgenland",
    "short_region": "01",
    "lat": "46.979700",
    "lon": "16.210300"
  },
  {
    "id": "20366",
    "country": "AT",
    "zipcode": "8382",
    "name": "Weichselbaum",
    "region": "Burgenland",
    "short_region": "01",
    "lat": "46.942500",
    "lon": "16.187500"
  },
  {
    "id": "20367",
    "country": "AT",
    "zipcode": "8382",
    "name": "Maria Bild",
    "region": "Burgenland",
    "short_region": "01",
    "lat": "46.958900",
    "lon": "16.189700"
  },
  {
    "id": "20368",
    "country": "AT",
    "zipcode": "8382",
    "name": "Mogersdorf",
    "region": "Burgenland",
    "short_region": "01",
    "lat": "46.949200",
    "lon": "16.232200"
  },
  {
    "id": "20369",
    "country": "AT",
    "zipcode": "8383",
    "name": "Welten",
    "region": "Burgenland",
    "short_region": "01",
    "lat": "46.929200",
    "lon": "16.082500"
  },
  {
    "id": "20370",
    "country": "AT",
    "zipcode": "8383",
    "name": "Oberdrosen",
    "region": "Burgenland",
    "short_region": "01",
    "lat": "46.889000",
    "lon": "16.120300"
  },
  {
    "id": "20371",
    "country": "AT",
    "zipcode": "8383",
    "name": "Gritsch",
    "region": "Burgenland",
    "short_region": "01",
    "lat": "46.924400",
    "lon": "16.105300"
  },
  {
    "id": "20372",
    "country": "AT",
    "zipcode": "8383",
    "name": "Eisenberg an der Raab",
    "region": "Burgenland",
    "short_region": "01",
    "lat": "46.900000",
    "lon": "16.133300"
  },
  {
    "id": "20373",
    "country": "AT",
    "zipcode": "8383",
    "name": "Doiber",
    "region": "Burgenland",
    "short_region": "01",
    "lat": "46.922200",
    "lon": "16.115300"
  },
  {
    "id": "20374",
    "country": "AT",
    "zipcode": "8383",
    "name": "Sankt Martin an der Raab",
    "region": "Burgenland",
    "short_region": "01",
    "lat": "46.922500",
    "lon": "16.136100"
  },
  {
    "id": "20375",
    "country": "AT",
    "zipcode": "8384",
    "name": "Tauka",
    "region": "Burgenland",
    "short_region": "01",
    "lat": "46.864700",
    "lon": "16.078900"
  },
  {
    "id": "20376",
    "country": "AT",
    "zipcode": "8384",
    "name": "Windisch-Minihof",
    "region": "Burgenland",
    "short_region": "01",
    "lat": "46.890800",
    "lon": "16.095400"
  },
  {
    "id": "20377",
    "country": "AT",
    "zipcode": "8384",
    "name": "Oberdrosen",
    "region": "Burgenland",
    "short_region": "01",
    "lat": "46.889000",
    "lon": "16.120300"
  },
  {
    "id": "20378",
    "country": "AT",
    "zipcode": "8384",
    "name": "Minihof-Liebau",
    "region": "Burgenland",
    "short_region": "01",
    "lat": "46.917300",
    "lon": "16.125200"
  },
  {
    "id": "20379",
    "country": "AT",
    "zipcode": "8384",
    "name": "Bonisdorf",
    "region": "Burgenland",
    "short_region": "01",
    "lat": "46.844400",
    "lon": "16.049700"
  },
  {
    "id": "20380",
    "country": "AT",
    "zipcode": "8385",
    "name": "Bonisdorf",
    "region": "Burgenland",
    "short_region": "01",
    "lat": "46.844400",
    "lon": "16.049700"
  },
  {
    "id": "20381",
    "country": "AT",
    "zipcode": "8385",
    "name": "Neuhaus am Klausenbach",
    "region": "Burgenland",
    "short_region": "01",
    "lat": "46.866700",
    "lon": "16.033300"
  },
  {
    "id": "20382",
    "country": "AT",
    "zipcode": "8385",
    "name": "Mühlgraben",
    "region": "Burgenland",
    "short_region": "01",
    "lat": "46.889700",
    "lon": "16.040800"
  },
  {
    "id": "20383",
    "country": "AT",
    "zipcode": "8385",
    "name": "Welten",
    "region": "Burgenland",
    "short_region": "01",
    "lat": "46.929200",
    "lon": "16.082500"
  },
  {
    "id": "20384",
    "country": "AT",
    "zipcode": "8385",
    "name": "Krottendorf bei Neuhaus am Klausenbach",
    "region": "Burgenland",
    "short_region": "01",
    "lat": "46.850000",
    "lon": "16.016700"
  },
  {
    "id": "20385",
    "country": "AT",
    "zipcode": "8385",
    "name": "Kalch",
    "region": "Burgenland",
    "short_region": "01",
    "lat": "46.850000",
    "lon": "16.016700"
  },
  {
    "id": "20386",
    "country": "AT",
    "zipcode": "7020",
    "name": "Loipersbach im Burgenland",
    "region": "Burgenland",
    "short_region": "01",
    "lat": "47.696600",
    "lon": "16.479200"
  },
  {
    "id": "20387",
    "country": "AT",
    "zipcode": "7021",
    "name": "Baumgarten / Pajngrt",
    "region": "Burgenland",
    "short_region": "01",
    "lat": "47.738900",
    "lon": "16.500600"
  },
  {
    "id": "20388",
    "country": "AT",
    "zipcode": "7021",
    "name": "Draßburg / Rasporak",
    "region": "Burgenland",
    "short_region": "01",
    "lat": "47.746500",
    "lon": "16.486800"
  },
  {
    "id": "20389",
    "country": "AT",
    "zipcode": "7022",
    "name": "Schattendorf",
    "region": "Burgenland",
    "short_region": "01",
    "lat": "47.709700",
    "lon": "16.509800"
  },
  {
    "id": "20390",
    "country": "AT",
    "zipcode": "7023",
    "name": "Stöttera",
    "region": "Burgenland",
    "short_region": "01",
    "lat": "47.767900",
    "lon": "16.461100"
  },
  {
    "id": "20391",
    "country": "AT",
    "zipcode": "7023",
    "name": "Pöttelsdorf",
    "region": "Burgenland",
    "short_region": "01",
    "lat": "47.753700",
    "lon": "16.438600"
  },
  {
    "id": "20392",
    "country": "AT",
    "zipcode": "7023",
    "name": "Zemendorf",
    "region": "Burgenland",
    "short_region": "01",
    "lat": "47.762800",
    "lon": "16.451100"
  },
  {
    "id": "20393",
    "country": "AT",
    "zipcode": "7024",
    "name": "Hirm",
    "region": "Burgenland",
    "short_region": "01",
    "lat": "47.786500",
    "lon": "16.454600"
  },
  {
    "id": "20394",
    "country": "AT",
    "zipcode": "7031",
    "name": "Krensdorf",
    "region": "Burgenland",
    "short_region": "01",
    "lat": "47.785500",
    "lon": "16.414900"
  },
  {
    "id": "20395",
    "country": "AT",
    "zipcode": "7032",
    "name": "Sigleß",
    "region": "Burgenland",
    "short_region": "01",
    "lat": "47.775300",
    "lon": "16.395000"
  },
  {
    "id": "20396",
    "country": "AT",
    "zipcode": "7033",
    "name": "Pöttsching",
    "region": "Burgenland",
    "short_region": "01",
    "lat": "47.804500",
    "lon": "16.371100"
  },
  {
    "id": "20397",
    "country": "AT",
    "zipcode": "7042",
    "name": "Antau / Otava",
    "region": "Burgenland",
    "short_region": "01",
    "lat": "47.773800",
    "lon": "16.479800"
  },
  {
    "id": "20398",
    "country": "AT",
    "zipcode": "7201",
    "name": "Neudörfl",
    "region": "Burgenland",
    "short_region": "01",
    "lat": "47.796600",
    "lon": "16.297700"
  },
  {
    "id": "20399",
    "country": "AT",
    "zipcode": "7202",
    "name": "Wiesen",
    "region": "Burgenland",
    "short_region": "01",
    "lat": "47.737800",
    "lon": "16.338000"
  },
  {
    "id": "20400",
    "country": "AT",
    "zipcode": "7202",
    "name": "Bad Sauerbrunn",
    "region": "Burgenland",
    "short_region": "01",
    "lat": "47.774400",
    "lon": "16.328400"
  },
  {
    "id": "20401",
    "country": "AT",
    "zipcode": "7202",
    "name": "Pöttsching",
    "region": "Burgenland",
    "short_region": "01",
    "lat": "47.804500",
    "lon": "16.371100"
  },
  {
    "id": "20402",
    "country": "AT",
    "zipcode": "7203",
    "name": "Wiesen",
    "region": "Burgenland",
    "short_region": "01",
    "lat": "47.737800",
    "lon": "16.338000"
  },
  {
    "id": "20403",
    "country": "AT",
    "zipcode": "7210",
    "name": "Mattersburg",
    "region": "Burgenland",
    "short_region": "01",
    "lat": "47.733300",
    "lon": "16.400000"
  },
  {
    "id": "20404",
    "country": "AT",
    "zipcode": "7210",
    "name": "Walbersdorf",
    "region": "Burgenland",
    "short_region": "01",
    "lat": "47.733300",
    "lon": "16.400000"
  },
  {
    "id": "20405",
    "country": "AT",
    "zipcode": "7212",
    "name": "Forchtenstein",
    "region": "Burgenland",
    "short_region": "01",
    "lat": "47.711600",
    "lon": "16.345300"
  },
  {
    "id": "20406",
    "country": "AT",
    "zipcode": "7221",
    "name": "Marz",
    "region": "Burgenland",
    "short_region": "01",
    "lat": "47.716700",
    "lon": "16.416700"
  },
  {
    "id": "20407",
    "country": "AT",
    "zipcode": "7222",
    "name": "Rohrbach bei Mattersburg",
    "region": "Burgenland",
    "short_region": "01",
    "lat": "47.705200",
    "lon": "16.430100"
  },
  {
    "id": "20408",
    "country": "AT",
    "zipcode": "7223",
    "name": "Sieggraben",
    "region": "Burgenland",
    "short_region": "01",
    "lat": "47.651300",
    "lon": "16.379900"
  },
  {
    "id": "20409",
    "country": "AT",
    "zipcode": "2413",
    "name": "Edelstal",
    "region": "Burgenland",
    "short_region": "01",
    "lat": "48.100000",
    "lon": "16.983300"
  },
  {
    "id": "20410",
    "country": "AT",
    "zipcode": "2421",
    "name": "Kittsee",
    "region": "Burgenland",
    "short_region": "01",
    "lat": "48.092500",
    "lon": "17.063900"
  },
  {
    "id": "20411",
    "country": "AT",
    "zipcode": "2422",
    "name": "Pama / Bijelo Selo",
    "region": "Burgenland",
    "short_region": "01",
    "lat": "48.050000",
    "lon": "17.033300"
  },
  {
    "id": "20412",
    "country": "AT",
    "zipcode": "2423",
    "name": "Deutsch Jahrndorf",
    "region": "Burgenland",
    "short_region": "01",
    "lat": "48.016700",
    "lon": "17.100000"
  },
  {
    "id": "20413",
    "country": "AT",
    "zipcode": "2424",
    "name": "Zurndorf",
    "region": "Burgenland",
    "short_region": "01",
    "lat": "47.983100",
    "lon": "17.003100"
  },
  {
    "id": "20414",
    "country": "AT",
    "zipcode": "2425",
    "name": "Nickelsdorf",
    "region": "Burgenland",
    "short_region": "01",
    "lat": "47.940600",
    "lon": "17.069400"
  },
  {
    "id": "20415",
    "country": "AT",
    "zipcode": "2460",
    "name": "Bruckneudorf",
    "region": "Burgenland",
    "short_region": "01",
    "lat": "48.016700",
    "lon": "16.783300"
  },
  {
    "id": "20416",
    "country": "AT",
    "zipcode": "2462",
    "name": "Königshof",
    "region": "Burgenland",
    "short_region": "01",
    "lat": "48.033900",
    "lon": "16.720700"
  },
  {
    "id": "20417",
    "country": "AT",
    "zipcode": "2462",
    "name": "Kaisersteinbruch",
    "region": "Burgenland",
    "short_region": "01",
    "lat": "47.988100",
    "lon": "16.702900"
  },
  {
    "id": "20418",
    "country": "AT",
    "zipcode": "2471",
    "name": "Parndorf / Pandrof",
    "region": "Burgenland",
    "short_region": "01",
    "lat": "47.999600",
    "lon": "16.860500"
  },
  {
    "id": "20419",
    "country": "AT",
    "zipcode": "2473",
    "name": "Potzneusiedl",
    "region": "Burgenland",
    "short_region": "01",
    "lat": "48.045000",
    "lon": "16.947700"
  },
  {
    "id": "20420",
    "country": "AT",
    "zipcode": "2474",
    "name": "Gattendorf",
    "region": "Burgenland",
    "short_region": "01",
    "lat": "48.016700",
    "lon": "16.983300"
  },
  {
    "id": "20421",
    "country": "AT",
    "zipcode": "2475",
    "name": "Neudorf / Novo Selo",
    "region": "Burgenland",
    "short_region": "01",
    "lat": "48.016700",
    "lon": "16.933300"
  },
  {
    "id": "20422",
    "country": "AT",
    "zipcode": "7092",
    "name": "Winden am See",
    "region": "Burgenland",
    "short_region": "01",
    "lat": "47.950000",
    "lon": "16.750000"
  },
  {
    "id": "20423",
    "country": "AT",
    "zipcode": "7093",
    "name": "Jois",
    "region": "Burgenland",
    "short_region": "01",
    "lat": "47.961700",
    "lon": "16.796000"
  },
  {
    "id": "20424",
    "country": "AT",
    "zipcode": "7100",
    "name": "Weiden am See",
    "region": "Burgenland",
    "short_region": "01",
    "lat": "47.925300",
    "lon": "16.869000"
  },
  {
    "id": "20425",
    "country": "AT",
    "zipcode": "7100",
    "name": "Neusiedl am See",
    "region": "Burgenland",
    "short_region": "01",
    "lat": "47.949000",
    "lon": "16.841700"
  },
  {
    "id": "20426",
    "country": "AT",
    "zipcode": "7111",
    "name": "Parndorf / Pandrof",
    "region": "Burgenland",
    "short_region": "01",
    "lat": "47.999600",
    "lon": "16.860500"
  },
  {
    "id": "20427",
    "country": "AT",
    "zipcode": "7121",
    "name": "Weiden am See",
    "region": "Burgenland",
    "short_region": "01",
    "lat": "47.925300",
    "lon": "16.869000"
  },
  {
    "id": "20428",
    "country": "AT",
    "zipcode": "7122",
    "name": "Gols",
    "region": "Burgenland",
    "short_region": "01",
    "lat": "47.896900",
    "lon": "16.911100"
  },
  {
    "id": "20429",
    "country": "AT",
    "zipcode": "7123",
    "name": "Mönchhof",
    "region": "Burgenland",
    "short_region": "01",
    "lat": "47.880200",
    "lon": "16.941300"
  },
  {
    "id": "20430",
    "country": "AT",
    "zipcode": "7131",
    "name": "Halbturn",
    "region": "Burgenland",
    "short_region": "01",
    "lat": "47.870200",
    "lon": "16.975400"
  },
  {
    "id": "20431",
    "country": "AT",
    "zipcode": "7132",
    "name": "Frauenkirchen",
    "region": "Burgenland",
    "short_region": "01",
    "lat": "47.836800",
    "lon": "16.925800"
  },
  {
    "id": "20432",
    "country": "AT",
    "zipcode": "7132",
    "name": "Apetlon",
    "region": "Burgenland",
    "short_region": "01",
    "lat": "47.743900",
    "lon": "16.830200"
  },
  {
    "id": "20433",
    "country": "AT",
    "zipcode": "7141",
    "name": "Podersdorf am See",
    "region": "Burgenland",
    "short_region": "01",
    "lat": "47.854100",
    "lon": "16.837100"
  },
  {
    "id": "20434",
    "country": "AT",
    "zipcode": "7142",
    "name": "Illmitz",
    "region": "Burgenland",
    "short_region": "01",
    "lat": "47.761500",
    "lon": "16.800200"
  },
  {
    "id": "20435",
    "country": "AT",
    "zipcode": "7143",
    "name": "Apetlon",
    "region": "Burgenland",
    "short_region": "01",
    "lat": "47.743900",
    "lon": "16.830200"
  },
  {
    "id": "20436",
    "country": "AT",
    "zipcode": "7151",
    "name": "Wallern im Burgenland",
    "region": "Burgenland",
    "short_region": "01",
    "lat": "47.728500",
    "lon": "16.937100"
  },
  {
    "id": "20437",
    "country": "AT",
    "zipcode": "7152",
    "name": "Wallern im Burgenland",
    "region": "Burgenland",
    "short_region": "01",
    "lat": "47.728500",
    "lon": "16.937100"
  },
  {
    "id": "20438",
    "country": "AT",
    "zipcode": "7152",
    "name": "Pamhagen",
    "region": "Burgenland",
    "short_region": "01",
    "lat": "47.700900",
    "lon": "16.907800"
  },
  {
    "id": "20439",
    "country": "AT",
    "zipcode": "7161",
    "name": "Sankt Andrä am Zicksee",
    "region": "Burgenland",
    "short_region": "01",
    "lat": "47.784100",
    "lon": "16.941900"
  },
  {
    "id": "20440",
    "country": "AT",
    "zipcode": "7161",
    "name": "Apetlon",
    "region": "Burgenland",
    "short_region": "01",
    "lat": "47.743900",
    "lon": "16.830200"
  },
  {
    "id": "20441",
    "country": "AT",
    "zipcode": "7162",
    "name": "Tadten",
    "region": "Burgenland",
    "short_region": "01",
    "lat": "47.766700",
    "lon": "16.983300"
  },
  {
    "id": "20442",
    "country": "AT",
    "zipcode": "7163",
    "name": "Andau",
    "region": "Burgenland",
    "short_region": "01",
    "lat": "47.774400",
    "lon": "17.032900"
  },
  {
    "id": "20443",
    "country": "AT",
    "zipcode": "2812",
    "name": "Landsee",
    "region": "Burgenland",
    "short_region": "01",
    "lat": "47.558300",
    "lon": "16.331400"
  },
  {
    "id": "20444",
    "country": "AT",
    "zipcode": "7301",
    "name": "Deutschkreutz",
    "region": "Burgenland",
    "short_region": "01",
    "lat": "47.600000",
    "lon": "16.633300"
  },
  {
    "id": "20445",
    "country": "AT",
    "zipcode": "7301",
    "name": "Girm",
    "region": "Burgenland",
    "short_region": "01",
    "lat": "47.600000",
    "lon": "16.606700"
  },
  {
    "id": "20446",
    "country": "AT",
    "zipcode": "7302",
    "name": "Kroatisch Minihof / Mjenovo",
    "region": "Burgenland",
    "short_region": "01",
    "lat": "47.525500",
    "lon": "16.644500"
  },
  {
    "id": "20447",
    "country": "AT",
    "zipcode": "7302",
    "name": "Nikitsch / Filež",
    "region": "Burgenland",
    "short_region": "01",
    "lat": "47.536200",
    "lon": "16.660200"
  },
  {
    "id": "20448",
    "country": "AT",
    "zipcode": "7304",
    "name": "Mitterpullendorf",
    "region": "Burgenland",
    "short_region": "01",
    "lat": "47.493300",
    "lon": "16.521300"
  },
  {
    "id": "20449",
    "country": "AT",
    "zipcode": "7304",
    "name": "Großwarasdorf / Veliki Borištof",
    "region": "Burgenland",
    "short_region": "01",
    "lat": "47.539100",
    "lon": "16.553000"
  },
  {
    "id": "20450",
    "country": "AT",
    "zipcode": "7304",
    "name": "Kleinwarasdorf / Mali Borištof",
    "region": "Burgenland",
    "short_region": "01",
    "lat": "47.537400",
    "lon": "16.589000"
  },
  {
    "id": "20451",
    "country": "AT",
    "zipcode": "7304",
    "name": "Nebersdorf / Šuševo",
    "region": "Burgenland",
    "short_region": "01",
    "lat": "47.512900",
    "lon": "16.570500"
  },
  {
    "id": "20452",
    "country": "AT",
    "zipcode": "7304",
    "name": "Langental / Longitolj",
    "region": "Burgenland",
    "short_region": "01",
    "lat": "47.503600",
    "lon": "16.543600"
  },
  {
    "id": "20453",
    "country": "AT",
    "zipcode": "7311",
    "name": "Haschendorf",
    "region": "Burgenland",
    "short_region": "01",
    "lat": "47.597900",
    "lon": "16.572900"
  },
  {
    "id": "20454",
    "country": "AT",
    "zipcode": "7311",
    "name": "Neckenmarkt",
    "region": "Burgenland",
    "short_region": "01",
    "lat": "47.599600",
    "lon": "16.546700"
  },
  {
    "id": "20455",
    "country": "AT",
    "zipcode": "7312",
    "name": "Unterpetersdorf",
    "region": "Burgenland",
    "short_region": "01",
    "lat": "47.590500",
    "lon": "16.582000"
  },
  {
    "id": "20456",
    "country": "AT",
    "zipcode": "7312",
    "name": "Horitschon",
    "region": "Burgenland",
    "short_region": "01",
    "lat": "47.587300",
    "lon": "16.547000"
  },
  {
    "id": "20457",
    "country": "AT",
    "zipcode": "7321",
    "name": "Raiding",
    "region": "Burgenland",
    "short_region": "01",
    "lat": "47.565800",
    "lon": "16.530600"
  },
  {
    "id": "20458",
    "country": "AT",
    "zipcode": "7321",
    "name": "Unterfrauenhaid",
    "region": "Burgenland",
    "short_region": "01",
    "lat": "47.571200",
    "lon": "16.498800"
  },
  {
    "id": "20459",
    "country": "AT",
    "zipcode": "7321",
    "name": "Lackendorf",
    "region": "Burgenland",
    "short_region": "01",
    "lat": "47.590000",
    "lon": "16.504000"
  },
  {
    "id": "20460",
    "country": "AT",
    "zipcode": "7322",
    "name": "Lackenbach",
    "region": "Burgenland",
    "short_region": "01",
    "lat": "47.590400",
    "lon": "16.465300"
  },
  {
    "id": "20461",
    "country": "AT",
    "zipcode": "7323",
    "name": "Ritzing",
    "region": "Burgenland",
    "short_region": "01",
    "lat": "47.613200",
    "lon": "16.495500"
  },
  {
    "id": "20462",
    "country": "AT",
    "zipcode": "7331",
    "name": "Tschurndorf",
    "region": "Burgenland",
    "short_region": "01",
    "lat": "47.607700",
    "lon": "16.405700"
  },
  {
    "id": "20463",
    "country": "AT",
    "zipcode": "7331",
    "name": "Kalkgruben",
    "region": "Burgenland",
    "short_region": "01",
    "lat": "47.621100",
    "lon": "16.396100"
  },
  {
    "id": "20464",
    "country": "AT",
    "zipcode": "7331",
    "name": "Weppersdorf",
    "region": "Burgenland",
    "short_region": "01",
    "lat": "47.579500",
    "lon": "16.426800"
  },
  {
    "id": "20465",
    "country": "AT",
    "zipcode": "7332",
    "name": "Oberpetersdorf",
    "region": "Burgenland",
    "short_region": "01",
    "lat": "47.615500",
    "lon": "16.376500"
  },
  {
    "id": "20466",
    "country": "AT",
    "zipcode": "7332",
    "name": "Kobersdorf",
    "region": "Burgenland",
    "short_region": "01",
    "lat": "47.595700",
    "lon": "16.391700"
  },
  {
    "id": "20467",
    "country": "AT",
    "zipcode": "7341",
    "name": "Markt Sankt Martin",
    "region": "Burgenland",
    "short_region": "01",
    "lat": "47.562000",
    "lon": "16.425100"
  },
  {
    "id": "20468",
    "country": "AT",
    "zipcode": "7341",
    "name": "Landsee",
    "region": "Burgenland",
    "short_region": "01",
    "lat": "47.558300",
    "lon": "16.331400"
  },
  {
    "id": "20469",
    "country": "AT",
    "zipcode": "7341",
    "name": "Lindgraben",
    "region": "Burgenland",
    "short_region": "01",
    "lat": "47.574800",
    "lon": "16.398900"
  },
  {
    "id": "20470",
    "country": "AT",
    "zipcode": "7341",
    "name": "Neudorf bei Landsee",
    "region": "Burgenland",
    "short_region": "01",
    "lat": "47.562500",
    "lon": "16.379800"
  },
  {
    "id": "20471",
    "country": "AT",
    "zipcode": "7342",
    "name": "Kaisersdorf / Kalištrof",
    "region": "Burgenland",
    "short_region": "01",
    "lat": "47.537400",
    "lon": "16.392000"
  },
  {
    "id": "20472",
    "country": "AT",
    "zipcode": "7343",
    "name": "Neutal",
    "region": "Burgenland",
    "short_region": "01",
    "lat": "47.545500",
    "lon": "16.446200"
  },
  {
    "id": "20473",
    "country": "AT",
    "zipcode": "7344",
    "name": "Stoob",
    "region": "Burgenland",
    "short_region": "01",
    "lat": "47.528400",
    "lon": "16.477600"
  },
  {
    "id": "20474",
    "country": "AT",
    "zipcode": "7350",
    "name": "Oberpullendorf / Felsöpulya",
    "region": "Burgenland",
    "short_region": "01",
    "lat": "47.510800",
    "lon": "16.499400"
  },
  {
    "id": "20475",
    "country": "AT",
    "zipcode": "7350",
    "name": "Stoob",
    "region": "Burgenland",
    "short_region": "01",
    "lat": "47.528400",
    "lon": "16.477600"
  },
  {
    "id": "20476",
    "country": "AT",
    "zipcode": "7350",
    "name": "Mitterpullendorf",
    "region": "Burgenland",
    "short_region": "01",
    "lat": "47.493300",
    "lon": "16.521300"
  },
  {
    "id": "20477",
    "country": "AT",
    "zipcode": "7361",
    "name": "Kroatisch Geresdorf / Gerištof",
    "region": "Burgenland",
    "short_region": "01",
    "lat": "47.491400",
    "lon": "16.610200"
  },
  {
    "id": "20478",
    "country": "AT",
    "zipcode": "7361",
    "name": "Strebersdorf",
    "region": "Burgenland",
    "short_region": "01",
    "lat": "47.457800",
    "lon": "16.619100"
  },
  {
    "id": "20479",
    "country": "AT",
    "zipcode": "7361",
    "name": "Frankenau / Frakanava",
    "region": "Burgenland",
    "short_region": "01",
    "lat": "47.450000",
    "lon": "16.600000"
  },
  {
    "id": "20480",
    "country": "AT",
    "zipcode": "7361",
    "name": "Lutzmannsburg",
    "region": "Burgenland",
    "short_region": "01",
    "lat": "47.463700",
    "lon": "16.636600"
  },
  {
    "id": "20481",
    "country": "AT",
    "zipcode": "7371",
    "name": "Oberrabnitz",
    "region": "Burgenland",
    "short_region": "01",
    "lat": "47.492900",
    "lon": "16.354400"
  },
  {
    "id": "20482",
    "country": "AT",
    "zipcode": "7371",
    "name": "Schwendgraben",
    "region": "Burgenland",
    "short_region": "01",
    "lat": "47.470900",
    "lon": "16.355700"
  },
  {
    "id": "20483",
    "country": "AT",
    "zipcode": "7371",
    "name": "Unterrabnitz",
    "region": "Burgenland",
    "short_region": "01",
    "lat": "47.453900",
    "lon": "16.376800"
  },
  {
    "id": "20484",
    "country": "AT",
    "zipcode": "7372",
    "name": "Karl",
    "region": "Burgenland",
    "short_region": "01",
    "lat": "47.508900",
    "lon": "16.346400"
  },
  {
    "id": "20485",
    "country": "AT",
    "zipcode": "7372",
    "name": "Draßmarkt",
    "region": "Burgenland",
    "short_region": "01",
    "lat": "47.516700",
    "lon": "16.400000"
  },
  {
    "id": "20486",
    "country": "AT",
    "zipcode": "7373",
    "name": "Piringsdorf",
    "region": "Burgenland",
    "short_region": "01",
    "lat": "47.448300",
    "lon": "16.415200"
  },
  {
    "id": "20487",
    "country": "AT",
    "zipcode": "7374",
    "name": "Weingraben / Bajngrob",
    "region": "Burgenland",
    "short_region": "01",
    "lat": "47.513900",
    "lon": "16.363700"
  },
  {
    "id": "20488",
    "country": "AT",
    "zipcode": "7441",
    "name": "Salmannsdorf",
    "region": "Burgenland",
    "short_region": "01",
    "lat": "47.416700",
    "lon": "16.333300"
  },
  {
    "id": "20489",
    "country": "AT",
    "zipcode": "7441",
    "name": "Steinbach im Burgenland",
    "region": "Burgenland",
    "short_region": "01",
    "lat": "47.475000",
    "lon": "16.316600"
  },
  {
    "id": "20490",
    "country": "AT",
    "zipcode": "7441",
    "name": "Kogl im Burgenland",
    "region": "Burgenland",
    "short_region": "01",
    "lat": "47.445300",
    "lon": "16.298700"
  },
  {
    "id": "20491",
    "country": "AT",
    "zipcode": "7441",
    "name": "Lebenbrunn",
    "region": "Burgenland",
    "short_region": "01",
    "lat": "47.462700",
    "lon": "16.302300"
  },
  {
    "id": "20492",
    "country": "AT",
    "zipcode": "7441",
    "name": "Bubendorf im Burgenland",
    "region": "Burgenland",
    "short_region": "01",
    "lat": "47.427400",
    "lon": "16.346600"
  },
  {
    "id": "20493",
    "country": "AT",
    "zipcode": "7441",
    "name": "Pilgersdorf",
    "region": "Burgenland",
    "short_region": "01",
    "lat": "47.441100",
    "lon": "16.349200"
  },